wgdPlaceId,wgdId,type,name,fullName,nameType,latitude,longitude,administrationGroup,isHistorical,isCapital
-2207380,-3054286,settlement,Lémé,Leme,official,1.885,16.111389,CG-13,,
-2204883,-3051326,hydrographic,Baréké,Bareke,official,3.2,17.1,CG-7,,
-2204799,-3051227,hydrographic,Bamé,Bame,official,-2.371944,13.711389,CG-2,,
-2208691,-3055833,hydrographic,Mikanga,Mikanga,official,3.05,18.116667,CG-7,,
-2206445,-3053224,hypsographic,Kamba,Kamba,official,-4.766667,13.45,CG-9,,
-2210380,-3057775,settlement,Oyéba,Oyeba,official,-0.431667,15.6,CG-8,,
-2207551,-3054498,hydrographic,Lokou,Lokou,official,1.483333,14.2,CG-13,,
-2207550,-3054497,hydrographic,Lokoma,Lokoma,official,-4.4,12.3,CG-5,,
-2208213,-3055289,hydrographic,Mankongo,Mankongo,official,-3.8825,14.541667,CG-12,,
-2207411,-3054322,hydrographic,Lessi,Lessi,official,-1.136111,15.955833,CG-8,,
-2208368,-3055460,settlement,Mayala,Mayala,official,-4.35,15.15,CG-BZV,,
-2209978,102174,settlement,Oboli,Oboli,official,-0.360833,14.193056,CG-15,,
-2210379,-3057774,settlement,Oyeba,Oyeba,official,0.016667,15.533333,CG-8,,
-2206760,-3053577,hydrographic,Kimié,Kimie,official,-3.995556,14.261111,CG-11,,
-2208929,-3056103,hydrographic,Molapa,Molapa,official,1.9,16.116667,CG-13,,
-2208689,-3055830,settlement,Migoumbi,Migoumbi,official,-2.744444,11.728056,CG-9,,
-2206648,-3053460,settlement,Kikanga,Kikanga,official,-4.345278,13.885556,CG-11,,
-2209927,-3057274,hydrographic,Nzaou,Nzaou,official,-4.015278,13.999722,CG-11,,
-2208013,-3055056,hydrographic,Makokou,Makokou,official,3.683333,17.5,CG-7,,
-2204484,-3050877,hydrographic,Abetiti,Abetiti,official,0.016667,15.616667,CG-8,,
-2208338,-3055430,settlement,Matoto,Matoto,official,-2.801667,12.6625,CG-9,,
-2210885,-3058370,hydrographic,Tsama,Tsama,official,-0.46,14.639722,CG-15,,
-2207962,-3054997,settlement,Mahoukou,Mahoukou,official,-4,15.333333,CG-BZV,,
-2210335,-3057721,hydrographic,Ouaoua,Ouaoua,official,-4.483333,12.516667,CG-5,,
-2208946,-3056126,hydrographic,Momokoik,Momokoik,official,1.916667,14,CG-13,,
-2207077,-3053919,settlement,Koko,Koko,official,-3.333333,12.5,CG-9,,
-2208214,-3055290,hydrographic,Mankongo,Mankongo,official,-4.450833,14.7675,CG-12,,
-2208945,-3056125,hydrographic,Momboyo,Momboyo,official,2.2,16.2,CG-13,,
-2207783,-3054778,hydrographic,Loumou,Loumou,official,-4.15,15.143889,CG-BZV,,
-2206574,-3053377,hydrographic,Kiana,Kiana,official,-2.5975,12.595,CG-9,,
-2206527,-3053326,hypsographic,Kébiti,Kebiti,official,-2.616667,13.85,CG-2,,
-2208402,-3055503,settlement,Mayouka,Mayouka,official,1.548333,15.697778,CG-13,,
-2209306,-3056544,settlement,Mouyabi,Mouyabi,official,-3.091389,12.875278,CG-9,,
-2209694,-3057000,hydrographic,Ngoungou,Ngoungou,official,-0.266667,14.716667,CG-15,,
-2211012,-3058527,settlement,Yanga,Yanga,official,-4.15,12.766667,CG-9,,
-2208366,-3055458,settlement,Mayala,Mayala,official,-3.771111,14.3575,CG-12,,
-2206081,-3052786,settlement,Goumbi,Goumbi,official,-4.028333,11.333611,CG-5,,
-2207053,-3053893,hydrographic,Kitzouni,Kitzouni,official,-2.527778,14.001111,CG-2,,
-2209308,-3056546,settlement,Mouyala,Mouyala,official,-3.007778,13.195833,CG-2,,
-2210988,-3058501,settlement,Yaba,Yaba,official,-1.046111,15.736389,CG-14,,
-2207549,-3054496,hydrographic,Lokola,Lokola,official,-4.366667,12.360556,CG-5,,
-2209925,-3057272,settlement,Nzaon,Nzaon,official,-3.4275,15.221944,CG-12,,
-2209487,-3056760,settlement,Ndéba,Ndeba,official,-3.745278,14.573889,CG-12,,
46173,59074,settlement,Mamba,Mamba,official,-4.201667,14.5325,CG-12,,
-2209981,-3057333,settlement,Obéré,Obere,official,-1.176111,14.957778,CG-8,,
-2206531,-3053330,hydrographic,Kebouya,Kebouya,official,-0.733333,14.816667,CG-15,,
-2208367,-3055459,settlement,Mayala,Mayala,official,-4.019444,15.276111,CG-BZV,,
-2206870,-3053696,settlement,Kingoma,Kingoma,official,-3.72,14.535,CG-12,,
-2207719,-3054706,hydrographic,Loukoko,Loukoko,official,-4.424722,14.708056,CG-12,,
-2210336,-3057722,hydrographic,Ouassika,Ouassika,official,-0.568611,15.129167,CG-000,,
-2206646,-3053457,hydrographic,Kikambi,Kikambi,official,-4.470833,13.218333,CG-9,,
-2208473,-3055580,settlement,Mbaya,Mbaya,official,-1.853056,16.0525,CG-14,,
-2206759,-3053576,hydrographic,Kimi,Kimi,official,-3.016667,14.1,CG-2,,
90106,111489,spot,Ewo,Ewo,short,-0.858333,14.819444,CG-15,,
-2207054,-3053894,settlement,Kivandza,Kivandza,official,-4.510278,12.227222,CG-5,,
-2209840,-3057176,settlement,Nsamouna,Nsamouna,official,-4.347778,14.6175,CG-12,,
-2206647,-3053459,settlement,Kikanga,Kikanga,official,-4.013611,13.655833,CG-11,,
-2210294,-3057677,settlement,Otana,Otana,official,-2.211667,14.494722,CG-14,,
-2211015,-3058530,settlement,Yanga,Yanga,official,-4.372222,14.975278,CG-12,,
-2206573,-3053376,settlement,Kiambi,Kiambi,official,-0.265556,15.939444,CG-8,,
-2207257,-3054131,hydrographic,Laye,Laye,variant,-0.096944,14.898889,CG-000,,
-2209883,-3057224,hydrographic,Ntombo,Ntombo,official,-4.433333,11.916667,CG-000,,
-2206530,-3053329,settlement,Kebouya,Kebouya,official,-1.151389,14.941111,CG-8,,
-2207257,102439,hydrographic,Lay,Lay,official,-0.096944,14.898889,CG-000,,
-2211032,-3058549,settlement,Yédéké,Yedeke,official,-4.068056,13.073333,CG-11,,
-2209978,-3057329,settlement,Obéli,Obeli,variant,-0.360833,14.193056,CG-15,,
-2206078,-3052783,settlement,Gouma,Gouma,official,-4.4575,14.839722,CG-12,,
-2209924,-3057271,settlement,"Nzao I","Nzao I",official,-4.156944,14.011944,CG-11,,
-2211014,-3058529,settlement,Yanga,Yanga,official,-4.343611,11.675556,CG-5,,
-2211031,-3058548,hydrographic,Yebela,Yebela,official,-4.670556,14.597778,CG-12,,
-2206161,-3052890,settlement,Igomi,Igomi,official,-2.774167,12.125833,CG-9,,
-2206528,-3053327,settlement,Kebouli,Kebouli,official,-0.825,14.644167,CG-15,,
-2208986,-3056172,hydrographic,Montia,Montia,official,-4.340833,14.537222,CG-12,,
-2211101,-3058632,settlement,Zedimba,Zedimba,official,-4.790278,14.669444,CG-12,,
-2206120,-3052847,settlement,Ibamba,Ibamba,official,-3.35,12.5,CG-9,,
-2209695,-3057001,hydrographic,Ngoungué,Ngoungue,official,0.516667,15.366667,CG-13,,
-2209423,-3056685,settlement,Mvouta,Mvouta,official,-4.160556,14.793056,CG-12,,
-2208816,-3055973,settlement,Mitoko,Mitoko,official,-4.296389,14.842778,CG-12,,
-2206121,-3052849,settlement,Ibéa,Ibea,official,-0.587222,15.783056,CG-8,,
-2208369,-3055461,settlement,Mayala,Mayala,official,-4.381667,15.068333,CG-BZV,,
-2206529,-3053328,settlement,Kébouya,Kebouya,official,-0.788333,14.775,CG-15,,
-2204483,-3050876,hydrographic,Abengoué,Abengoue,official,0.616667,14.633333,CG-15,,
-2207545,-3054491,hydrographic,Lokama,Lokama,official,2.133333,14.133333,CG-13,,
-2207548,-3054495,hydrographic,Loko,Loko,official,-4.79,14.463611,CG-12,,
-2209951,-3057301,hydrographic,Nzoula,Nzoula,official,-3.917222,14.495,CG-12,,
-2207865,-3054894,hydrographic,Mabaya,Mabaya,official,-3.983333,15.683333,CG-BZV,,
-2207679,-3054652,hydrographic,Loufa,Loufa,official,-3.109444,16.168611,CG-12,,
-2207258,-3054132,settlement,Layiki,Layiki,official,-2.5925,13.597778,CG-2,,
-2211080,-3058604,hydrographic,Youmbo,Youmbo,official,-4.016667,11.633333,CG-5,,
-2207961,-3054996,hydrographic,Mahoua,Mahoua,official,-4.381944,13.299167,CG-11,,
93295,115242,settlement,Eko,Eko,official,-1.739167,15.799167,CG-14,,
-2209983,-3057335,settlement,Obeye,Obeye,variant,0.047222,14.890833,CG-15,,
-2209307,-3056545,settlement,Mouyala,Mouyala,official,-2.695,12.604444,CG-9,,
-2210233,-3057609,settlement,Onkouma,Onkouma,official,-2.916111,13.895556,CG-2,,
-2209867,-3057204,settlement,Ntchouo,Ntchouo,official,-0.761389,14.53,CG-15,,
-2207864,-3054893,hydrographic,Mabaya,Mabaya,official,-1.533333,15.15,CG-000,,
-2207546,-3054493,hydrographic,Loko,Loko,official,-0.504444,15.963333,CG-8,,
-2209952,-3057302,settlement,Nzoulou,Nzoulou,official,-3.196389,16.001111,CG-12,,
-2208690,-3055832,hydrographic,Mikala,Mikala,official,-2.998889,13.145278,CG-2,,
-2208474,-3055581,settlement,Mbaya,Mbaya,official,-2.465,12.730556,CG-9,,
-2206119,-3052846,settlement,Ibamba,Ibamba,official,1.25,16.683333,CG-13,,
-2209486,-3056759,settlement,Ndandou,Ndandou,official,-3.9075,14.473889,CG-12,,
-2211058,-3058580,settlement,Yombo,Yombo,official,-2.947222,12.704167,CG-9,,
87591,108534,hydrographic,Yo,Yo,official,-2.580556,15.060556,CG-14,,
-2209926,-3057273,settlement,Nzaou,Nzaou,official,-4.023056,13.936667,CG-11,,
-2207352,-3054250,settlement,Lékori,Lekori,official,-0.903611,15.114444,CG-15,,
-2208365,-3055457,settlement,Mayala,Mayala,official,-2.986111,12.763611,CG-9,,
-2206869,-3053695,settlement,Kingolo,Kingolo,official,-2.868056,13.754167,CG-2,,
-2207641,-3054607,settlement,Loubou,Loubou,official,-4.6625,11.836667,CG-5,,
-2207716,-3054702,hydrographic,Louko,Louko,official,-4.389444,13.960556,CG-12,,
-2208694,-3055836,hydrographic,Mikeles,Mikeles,official,1.833333,14.766667,CG-13,,
-2209085,-3056288,hydrographic,Mougoma,Mougoma,official,-3.35,12.233333,CG-9,,
-2207717,-3054704,settlement,Loukoko,Loukoko,official,-4.469722,14.945,CG-12,,
-2206868,-3053694,settlement,Kingolo,Kingolo,official,-2.4325,14.419444,CG-14,,
-2211056,-3058578,settlement,Yombé,Yombe,official,-0.016667,16,CG-8,,
-2211013,-3058528,settlement,Yanga,Yanga,official,-4.186111,14.631667,CG-12,,
-2207259,-3054133,hydrographic,Leanda,Leanda,official,0.25,14.333333,CG-15,,
-2208693,-3055835,hydrographic,Mikata,Mikata,official,-3.57,14.048056,CG-11,,
-2207547,-3054494,hydrographic,Loko,Loko,official,-0.633333,16.1,CG-8,,
84994,104877,hydrographic,Bobi,Bobi,official,-0.415556,15.740278,CG-8,,
-2206038,-3052736,settlement,Goma,Goma,official,-3.427222,12.396111,CG-9,,
-2208692,-3055834,hydrographic,Mikasa,Mikasa,official,-3.679167,14.173333,CG-11,,
80350,99108,settlement,Abouma,Abouma,official,-0.301111,15.796944,CG-8,,
-2209980,-3057332,hydrographic,Obénoué,Obenoue,official,-0.116667,15.283333,CG-8,,
-2206512,-3053308,hydrographic,Kayekaye,Kayekaye,official,-0.3,14.95,CG-15,,
-2210293,-3057676,settlement,Otamboko,Otamboko,official,-0.010556,15.715833,CG-8,,
-2206080,-3052785,hydrographic,Goumba,Goumba,official,3.433333,18.633333,CG-7,,
-2206082,-3052787,hydrographic,Goumbi,Goumbi,official,-3.027222,12.091389,CG-9,,
-2210551,-3057965,settlement,Ptso,Ptso,official,-2.429722,11.886111,CG-9,,
-2206079,-3052784,settlement,Gouma,Gouma,official,-4.4775,14.863889,CG-12,,
-2211059,-3058581,hydrographic,Yombo,Yombo,official,1.466667,14.783333,CG-13,,
-2209595,-3056885,settlement,Ngasa,Ngasa,official,-2.454167,12.148611,CG-9,,
-2209636,-3056933,settlement,Ngombé,Ngombe,official,-0.8575,17.188611,CG-8,,
-2210552,-3057966,settlement,Ptso,Ptso,official,-2.495,11.983889,CG-9,,
-2209549,-3056829,settlement,Ngala,Ngala,variant,-3.338333,12.644167,CG-9,,
-2210334,-3057720,settlement,Ouaoua,Ouaoua,official,-4.4325,14.832222,CG-12,,
-2208364,-3055456,settlement,Mayala,Mayala,official,-2.788611,11.831667,CG-9,,
-2207718,-3054705,settlement,Loukoko,Loukoko,official,-4.493056,14.691389,CG-12,,
-2209979,-3057331,settlement,Obeme,Obeme,official,-1.1425,15.649167,CG-14,,
-2210275,-3057655,settlement,Ossia,Ossia,official,-1.211389,14.970278,CG-8,,
-2209084,-3056287,hydrographic,Mougobi,Mougobi,official,-4.201944,14.770278,CG-12,,
-2209422,-3056684,settlement,Mvouta,Mvouta,official,-3.704167,14.165833,CG-11,,
-2209488,-3056761,hydrographic,Ndéka,Ndeka,official,-4.3675,13.899444,CG-11,,
-2208403,-3055504,settlement,Mayouka,Mayouka,official,-2.306667,14.517778,CG-14,,
-2211057,-3058579,hydrographic,Yombé,Yombe,official,-4.175278,13.024444,CG-11,,
-2209982,-3057334,settlement,Obéya,Obeya,official,-0.839167,15.826111,CG-8,,
-2204485,-3050878,settlement,Abéya,Abeya,official,-0.639722,15.911667,CG-8,,
-2204536,-3050937,hydrographic,Akelapi,Akelapi,official,-1.433333,15.283333,CG-14,,
-2204545,-3050946,settlement,Akou,Akou,official,-1.563056,15.062778,CG-14,,
-2204824,-3051259,settlement,Bandzoko,Bandzoko,official,-2.354167,12.763333,CG-9,,
-2205923,-3052599,settlement,Fouta,Fouta,official,0.016667,15.75,CG-8,,
-2205286,-3051804,settlement,Boumba,Boumba,official,0.001667,15.800833,CG-8,,
-2205733,-3052377,hydrographic,Ekaya,Ekaya,official,-1.273333,15.146111,CG-000,,
-2205026,-3051491,settlement,Bindama,Bindama,official,2.083333,14.016667,CG-13,,
-2205691,-3052332,settlement,Eba,Eba,official,-1.219722,15.782778,CG-14,,
-2205238,-3051751,settlement,Boukala,Boukala,official,-4.861667,14.715833,CG-12,,
-2205848,-3052509,settlement,Esami,Esami,official,-2.206667,14.605833,CG-14,,
-2204538,-3050939,settlement,Akélé,Akele,official,-1.389722,15.890278,CG-14,,
-2205607,-3052229,hydrographic,Dounvou,Dounvou,official,-4.416667,12.583333,CG-5,,
-2205850,-3052511,hypsographic,Eso,Eso,official,-4.565833,13.018889,CG-9,,
-2204513,-3050908,settlement,Afou,Afou,official,-1.653611,15.568333,CG-14,,
-2204537,-3050938,settlement,Akélé,Akele,official,-1.383333,16.055,CG-14,,
-2205385,-3051937,settlement,Comba,Comba,official,-4.228056,14.295278,CG-12,,
-2205668,-3052307,hydrographic,Ebiéba,Ebieba,official,-0.3,14.716667,CG-15,,
-2204540,-3050941,settlement,Akielé,Akiele,official,-1.508889,15.837222,CG-14,,
-2204542,-3050943,settlement,Akombo,Akombo,official,1.25,16.633333,CG-13,,
-2204949,-3051409,hydrographic,Bi,Bi,official,-1.4525,15.364722,CG-14,,
-2204539,-3050940,settlement,Akélé,Akele,official,-1.622222,14.636389,CG-8,,
-2205287,-3051805,settlement,Boumba,Boumba,official,-1.547222,16.090556,CG-14,,
-2204541,-3050942,hydrographic,Akiéli,Akieli,official,0.85,14.766667,CG-15,,
-2204929,-3051384,settlement,Bendza,Bendza,official,0.545278,14.409444,CG-15,,
-2204825,-3051260,settlement,Bandzoko,Bandzoko,official,-2.378611,12.765278,CG-9,,
-2205922,-3052598,hydrographic,Fourila,Fourila,official,-4.295,14.051667,CG-12,,
-2204546,-3050947,settlement,Akou,Akou,official,-1.803889,15.196111,CG-14,,
-2205166,-3051662,settlement,"Bop I","Bop I",variant,1.982222,14.194167,CG-13,,
-2205734,-3052378,settlement,Ekébé,Ekebe,official,1.533056,14.295,CG-13,,
-2205669,-3052308,settlement,Ebili,Ebili,official,-1.076389,14.908056,CG-15,,
-2205386,-3051938,hydrographic,Comba,Comba,official,-4.221111,14.304722,CG-12,,
-2205109,-3051587,settlement,Bokatola,Bokatola,official,1.533333,17.416667,CG-7,,
-2204487,-3050880,settlement,Abili,Abili,official,-2.284167,14.545,CG-14,,
-2205849,-3052510,settlement,Esasiba,Esasiba,official,-3.241667,15.846389,CG-12,,
-2204543,-3050944,settlement,Akomou,Akomou,official,-0.239167,14.655833,CG-15,,
-2205829,-3052487,hydrographic,Eouna,Eouna,official,-0.1,14.9,CG-000,,
-2205487,-3052074,settlement,Divevi,Divevi,official,-2.489444,11.664167,CG-9,,
-2204544,-3050945,settlement,Akou,Akou,official,-1.005833,14.861111,CG-15,,
-2205027,-3051492,hydrographic,Bindji,Bindji,official,-4.469722,11.711389,CG-5,,
-2204585,-3050992,hydrographic,Ambou,Ambou,official,0.036944,15.530833,CG-8,,
-2204486,-3050879,settlement,Abila,Abila,official,-2.004444,15.142778,CG-14,,
-3147945,-4441995,hydrographic,Dja,Dja,official,2.033333,15.2,S1-000,,
-3147945,-4442027,hydrographic,Djah,Djah,variant,2.033333,15.2,S1-000,,
-3147945,-4442667,hydrographic,Dschā,Dscha,variant,2.033333,15.2,S1-000,,
-2865499,-4009000,hydrographic,"Rio Innuca","Rio Innuca",variant,-4.959167,12.454444,S1-000,,
-2865499,-4008990,hydrographic,Inhouca,Inhouca,variant,-4.959167,12.454444,S1-000,,
-2865499,-4009002,hydrographic,Inouka,Inouka,variant,-4.959167,12.454444,S1-000,,
-2866184,-4008416,park,"Guinea Meridionale","Guinea Meridionale",variant,-6,13,S1-000,,
-2866184,262146,park,"Lower Guinea","Lower Guinea",official,-6,13,S1-000,,
-2866184,-4020430,park,"Southern Guinea","Southern Guinea",variant,-6,13,S1-000,,
-2865499,-4008994,hydrographic,"Rio Inhuca","Rio Inhuca",official,-4.959167,12.454444,S1-000,,
-2865499,-4008995,hydrographic,Inouca,Inouca,official,-4.959167,12.454444,S1-000,,
-2865499,-4008991,hydrographic,Inhouka,Inhouka,variant,-4.959167,12.454444,S1-000,,
-2865499,-4008996,hydrographic,"Rio Inhuco","Rio Inhuco",variant,-4.959167,12.454444,S1-000,,
-2866184,-4015333,park,Niederguinea,Niederguinea,variant,-6,13,S1-000,,
-2863308,9199559,hydrographic,"Fleuve Zaïre","Fleuve Zaire",official,-6.06798891,12.39294655,S1-000,,
-2863390,-4005603,hypsographic,"Crystal Mountains","Crystal Mountains",variant,-5.5,13.5,S1-000,,
-2863308,-4005439,hydrographic,"Congo Fleuve","Congo Fleuve",variant,-6.06798891,12.39294655,S1-000,,
-2863390,-4009625,hypsographic,Kristall-Berge,Kristall-Berge,variant,-5.5,13.5,S1-000,,
-2863308,-4005434,hydrographic,"River Congo","River Congo",variant,-6.06798891,12.39294655,S1-000,,
-2863390,-4005601,hypsographic,"Sierra del Cristal",SierradelCristal,variant,-5.5,13.5,S1-000,,
-2863308,-4022886,hydrographic,"Rio Zaire","Rio Zaire",variant,-6.06798891,12.39294655,S1-000,,
-2863308,-4005433,hydrographic,"Fleuve Congo","Fleuve Congo",variant,-6.06798891,12.39294655,S1-000,,
-2863308,-4015716,hydrographic,"Rio de Padrão","Rio de Padrao",variant,-6.06798891,12.39294655,S1-000,,
-2863308,-4022888,hydrographic,Zaíre,Zaire,official,-6.06798891,12.39294655,S1-000,,
-2863308,-4015490,hydrographic,NZari,NZari,variant,-6.06798891,12.39294655,S1-000,,
-2863308,-4005456,hydrographic,"Congo River","Congo River",colloquial,-6.06798891,12.39294655,S1-000,,
-2863308,-4022887,hydrographic,Congo,Congo,official,-6.06798891,12.39294655,S1-000,,
-2863308,-4009614,hydrographic,Kongo,Kongo,variant,-6.06798891,12.39294655,S1-000,,
-2863390,-4005599,hypsographic,"Monts de Cristal",MontsdeCristal,official,-5.5,13.5,S1-000,,
-2863390,-4009624,hypsographic,"Kristal Gebergte","Kristal Gebergte",variant,-5.5,13.5,S1-000,,
-2863308,-4015972,hydrographic,"Pillar River","Pillar River",variant,-6.06798891,12.39294655,S1-000,,
-2863308,-4009891,hydrographic,"Le Congo","Le Congo",variant,-6.06798891,12.39294655,S1-000,,
-2862493,-4004156,hydrographic,"Rio Chiloango","Rio Chiloango",variant,-5.2,12.116667,S1-000,,
-2862493,-4020858,hydrographic,Tchiloango,Tchiloango,variant,-5.2,12.116667,S1-000,,
-2862493,-4004175,hydrographic,Shiloango,Shiloango,official,-5.2,12.116667,S1-000,,
-2862493,-4001601,hydrographic,Caongo,Caongo,variant,-5.2,12.116667,S1-000,,
-2862493,-4010743,hydrographic,"Rio Luango","Rio Luango",variant,-5.2,12.116667,S1-000,,
-2862493,-4021401,hydrographic,Tshilongo,Tshilongo,variant,-5.2,12.116667,S1-000,,
-2862493,-4004157,hydrographic,"Chiloango River","Chiloango River",variant,-5.2,12.116667,S1-000,,
-2862493,-4008651,hydrographic,"Rio Hi","Rio Hi",variant,-5.2,12.116667,S1-000,,
-2862493,-4004173,hydrographic,"Rio Chiluango","Rio Chiluango",official,-5.2,12.116667,S1-000,,
-2862493,-4004174,hydrographic,Louango,Louango,official,-5.2,12.116667,S1-000,,
-2862493,-4010196,hydrographic,Loango,Loango,variant,-5.2,12.116667,S1-000,,
-2862493,-4010199,hydrographic,"Loango Lu","Loango Lu",variant,-5.2,12.116667,S1-000,,
-2862493,-4009290,hydrographic,"Kakongo River","Kakongo River",variant,-5.2,12.116667,S1-000,,
-2862493,-4020222,hydrographic,Shilongo,Shilongo,variant,-5.2,12.116667,S1-000,,
-2211102,-3058633,hydrographic,Zélé,Zele,official,0.183333,14.433333,CG-15,,
-2211154,-3058126,spot,"Sounda Dam","Sounda Dam",variant,-4.083333,12.133333,CG-5,,
-2211154,-3054010,spot,"Kouilou Dam","Kouilou Dam",variant,-4.083333,12.133333,CG-5,,
-2211154,-3140520,spot,"Barrage du Kouilou","Barrage du Kouilou",official,-4.083333,12.133333,CG-5,,
-2211154,-3054011,spot,"Kouilou Hydroelectric Project","Kouilou Hydroelectric Project",variant,-4.083333,12.133333,CG-5,,
-2211136,-3058669,settlement,"Zouno Péna","Zouno Pena",official,-3.001944,16.182222,CG-12,,
-2211135,-3058668,settlement,Zouloumongo,Zouloumongo,official,-4.755,14.668611,CG-12,,
-2211134,-3058667,settlement,Zouloukabi,Zouloukabi,official,-4.4075,14.543333,CG-12,,
-2211133,-3058666,settlement,Zoulou,Zoulou,official,-3.805833,14.699722,CG-12,,
-2211132,-3058665,hypsographic,"Monts Zoulazandou","Monts Zoulazandou",official,-4.620278,14.609722,CG-12,,
-2211131,-3058664,settlement,Zoulabout,Zoulabout,official,1.7,14.524722,CG-13,,
-2211130,-3058663,settlement,Zoula,Zoula,official,1.484722,14.204722,CG-13,,
-2211129,-3058662,settlement,Zoul,Zoul,official,1.65,13.5,CG-13,,
-2211128,160916,settlement,Nzoulabout,Nzoulabout,variant,1.573056,15.5575,CG-13,,
-2211128,160914,settlement,Zoulabout,Zoulabout,variant,1.573056,15.5575,CG-13,,
-2211128,52086,settlement,Zoulabouth,Zoulabouth,official,1.573056,15.5575,CG-13,,
-2211128,-3058661,settlement,Zouelabout,Zouelabout,variant,1.573056,15.5575,CG-13,,
-2211127,-3058659,settlement,Zou,Zou,official,-3.783611,14.435278,CG-12,,
-2211126,-3058658,settlement,Zonzo,Zonzo,official,-4.091389,13.922778,CG-11,,
-2211125,-3058657,settlement,Zondé,Zonde,official,-4.781111,12.261111,CG-5,,
-2211124,54142,settlement,Zalon,Zalon,official,1.626111,13.5475,CG-13,,
-2211124,-3058656,settlement,Zoloum,Zoloum,variant,1.626111,13.5475,CG-13,,
-2211123,-3058655,settlement,Zolabantou,Zolabantou,official,-4.817778,14.681667,CG-12,,
-2211122,-3058654,hydrographic,Zoanigi,Zoanigi,official,-3.038333,14.179444,CG-12,,
-2211121,-3058653,hydrographic,Zoanaga,Zoanaga,official,-3.461944,14.134722,CG-12,,
-2211120,-3058652,hydrographic,Zoamina,Zoamina,official,-3.416667,14.216667,CG-12,,
-2211119,-3058651,hydrographic,Zoa,Zoa,official,2.093611,13.921944,CG-13,,
-2211119,-3057288,hydrographic,Nzoa,Nzoa,variant,2.093611,13.921944,CG-13,,
-2211117,-3058649,settlement,Zingo,Zingo,official,2.445556,17.426944,CG-7,,
-2211116,-3058648,hydrographic,Zinga-Zinga,Zinga-Zinga,official,-4.25,12.1,CG-5,,
-2211115,-3058647,hydrographic,"Zingala Konga","Zingala Konga",official,-4.073889,11.626389,CG-5,,
-2211114,-3058646,hydrographic,Zinga,Zinga,official,1.016667,16.583333,CG-13,,
-2211113,58041,settlement,Zinnga,Zinnga,official,-4.8425,14.720833,CG-12,,
-2211113,-3052603,settlement,"Fumu Zabi","Fumu Zabi",variant,-4.8425,14.720833,CG-12,,
-2211113,-3058645,settlement,Zinga,Zinga,variant,-4.8425,14.720833,CG-12,,
-2211113,-3052585,settlement,"Foumo N’Zabi","Foumo N'Zabi",variant,-4.8425,14.720833,CG-12,,
-2211112,-3058644,hydrographic,Zimati,Zimati,variant,-4.396111,12.153889,CG-5,,
-2211112,70161,hydrographic,Zibati,Zibati,official,-4.396111,12.153889,CG-5,,
-2211111,58046,settlement,Nziéto,Nzieto,official,-4.838056,14.629444,CG-12,,
-2211111,-3058642,settlement,Ziéto,Zieto,variant,-4.838056,14.629444,CG-12,,
-2211110,-3058641,hydrographic,Zialaba,Zialaba,official,2.2,14.166667,CG-13,,
-2211109,-3058640,settlement,Zialaba,Zialaba,official,2.133333,14.05,CG-13,,
-2211108,68622,settlement,Zevengé,Zevenge,official,-4.139444,12.026389,CG-5,,
-2211108,-3058639,settlement,Zevengue,Zevengue,variant,-4.139444,12.026389,CG-5,,
-2211107,-3058638,hydrographic,Zenzéré,Zenzere,variant,0.708333,15.525833,CG-13,,
-2211107,55558,hydrographic,Djindjélé,Djindjele,official,0.708333,15.525833,CG-13,,
-2211106,-3058637,hydrographic,Zenzélé,Zenzele,official,0.677222,15.335833,CG-13,,
-2211105,-3058636,hydrographic,Zemvoula,Zemvoula,official,-2.25,15.55,CG-14,,
-2211104,-3058635,hydrographic,Zembili,Zembili,official,0.100556,15.208611,CG-000,,
-2211103,-3058634,settlement,"Zembé Tchécosso","Zembe Tchecosso",official,-4.738333,12.188889,CG-5,,
-2211100,-3058630,settlement,"Zavanga I","Zavanga I",official,-4.150556,11.934167,CG-5,,
-2211099,-3058629,settlement,Zavanga,Zavanga,variant,-4.106111,11.884444,CG-5,,
-2211099,-3058631,settlement,"Zavanga II","Zavanga II",official,-4.106111,11.884444,CG-5,,
-2211098,-3058628,settlement,Zatchi,Zatchi,official,-4.256667,11.746667,CG-5,,
-2211097,-3058627,settlement,Zanzi,Zanzi,official,-2.9425,13.258056,CG-2,,
-2211096,-3058625,settlement,Zanaga,Zanaga,official,-2.850278,13.826111,CG-2,,
-2211095,-3058624,hypsographic,"Rochers de Zan","Rochers de Zan",official,-3.416667,15.283333,CG-12,,
-2211094,-3058622,settlement,"Zambi Sissi","Zambi Sissi",official,-3.716667,12.55,CG-9,,
-2211093,-3058621,settlement,Zambi-Kala,Zambi-Kala,official,-2.744722,12.187778,CG-9,,
-2211092,-3058619,settlement,Zamba,Zamba,official,-4.863889,14.591667,CG-12,,
-2211091,-3058617,settlement,Zalom,Zalom,variant,1.639722,13.652222,CG-13,,
-2211091,54149,settlement,Zalon,Zalon,official,1.639722,13.652222,CG-13,,
-2211090,-3058616,settlement,Zalangoye,Zalangoye,official,1.564444,15.486667,CG-13,,
-2211090,-3054111,settlement,Lalangoye,Lalangoye,variant,1.564444,15.486667,CG-13,,
-2211089,-3058618,settlement,Zalongoye,Zalongoye,variant,0.806667,15.380833,CG-13,,
-2211089,-3058615,settlement,Zalangoye,Zalangoye,official,0.806667,15.380833,CG-13,,
-2211089,-3058614,settlement,Zalangoie,Zalangoie,variant,0.806667,15.380833,CG-13,,
-2211089,55270,settlement,Zalangoy,Zalangoy,variant,0.806667,15.380833,CG-13,,
-2211088,-3058613,hypsographic,"Monts de Zala","Monts de Zala",official,-2.766667,14.333333,CG-14,,
-2211087,-3058611,settlement,Zabéta,Zabeta,variant,-3.807222,14.099722,CG-11,,
-2211087,104168,settlement,Zabata,Zabata,official,-3.807222,14.099722,CG-11,,
-2211086,-3058610,settlement,Yuomi,Yuomi,official,-3.199722,14.025556,CG-2,,
-2211085,-3058609,settlement,Yoyo,Yoyo,official,-2.9,13.966667,CG-2,,
-2211084,-3058608,settlement,Youngou-Zassi,Youngou-Zassi,official,-4.638611,12.216389,CG-5,,
-2211083,-3058607,settlement,Youngou,Youngou,official,-4.264722,11.513611,CG-5,,
-2211082,-3058606,hypsographic,Youngongo,Youngongo,official,-4.353889,13.981111,CG-12,,
-2211081,55606,hydrographic,Lakoué,Lakoue,variant,0.646667,15.044722,CG-13,,
-2211081,55605,hydrographic,Lokoué,Lokoue,official,0.646667,15.044722,CG-13,,
-2211081,-3058605,hydrographic,Youndou,Youndou,variant,0.646667,15.044722,CG-13,,
-2211079,-3058590,hydrographic,Youbi,Youbi,variant,-4.166667,11.55,CG-5,,
-2211079,-3058602,hydrographic,Youmbi,Youmbi,official,-4.166667,11.55,CG-5,,
-2211078,-3058601,settlement,Youmbi,Youmbi,variant,-0.085,15.577778,CG-8,,
-2211078,99786,settlement,Yombé,Yombe,official,-0.085,15.577778,CG-8,,
-2211077,-3058600,settlement,Youmbé,Youmbe,official,1.270833,17.940833,CG-7,,
-2211076,-3058603,settlement,Youmbo,Youmbo,variant,-0.354167,17.368333,CG-7,,
-2211076,-3058599,settlement,Youmba,Youmba,official,-0.354167,17.368333,CG-7,,
-2211075,-3058598,settlement,Youloukoyé,Youloukoye,official,-4.059722,13.088056,CG-11,,
-2211074,-3058597,settlement,"Youlou Bienge","Youlou Bienge",variant,-4.247222,14.3425,CG-12,,
-2211074,59089,settlement,"Youlou Bièngué","Youlou Biengue",official,-4.247222,14.3425,CG-12,,
-2211073,-3058596,settlement,Youlokoyo,Youlokoyo,variant,-1.030833,14.693611,CG-15,,
-2211073,114604,settlement,Ilokoyo,Ilokoyo,official,-1.030833,14.693611,CG-15,,
-2211072,-3058595,settlement,Youlandziami,Youlandziami,official,-3.016667,12.866667,CG-9,,
-2211071,-3058594,settlement,Youlandzami,Youlandzami,official,-2.583611,12.739722,CG-9,,
-2211070,-3058593,settlement,Youlambali,Youlambali,official,-2.283889,14.512222,CG-14,,
-2211069,-3058592,settlement,Youiounkoye,Youiounkoye,official,-4.111944,13.291111,CG-11,,
-2211068,-3058591,hydrographic,"Lac Youbi","Lac Youbi",official,-4.186389,11.676944,CG-5,,
-2211067,-3058589,settlement,Youbi,Youbi,official,-4.19,11.667778,CG-5,,
-2211066,-3058588,hydrographic,Youba,Youba,official,0.55,14.366667,CG-15,,
-2211065,69287,hydrographic,Iova,Iova,official,-4.676944,12.205556,CG-5,,
-2211065,-3058587,hydrographic,Youa,Youa,variant,-4.676944,12.205556,CG-5,,
-2211064,-3058586,hydrographic,Yooulo,Yooulo,official,-4.705,11.841389,CG-5,,
-2211064,76433,hydrographic,"Yooule Étang","Yooule Etang",variant,-4.705,11.841389,CG-5,,
-2211063,-3058585,vegetation,"Bois Yoor","Bois Yoor",official,-3.656944,15.98,CG-12,,
-2211062,-3058584,hypsographic,"Colline Yongongo","Colline Yongongo",official,-4.463611,14.513889,CG-12,,
-2211061,-3058583,hydrographic,Yongolo,Yongolo,official,1.516667,15.216667,CG-13,,
-2211060,76618,hydrographic,"Lac Yombo","Lac Yombo",official,-4.430833,11.661667,CG-5,,
-2211060,-3058577,hydrographic,Yomba,Yomba,variant,-4.430833,11.661667,CG-5,,
-2211060,-3058582,hydrographic,Yombo,Yombo,variant,-4.430833,11.661667,CG-5,,
-2211055,109670,hypsographic,"Montagnes Yolengomo","Montagnes Yolengomo",variant,-2.460833,14.124167,CG-000,,
-2211055,-3058576,hypsographic,"Monts Yolengomo","Monts Yolengomo",official,-2.460833,14.124167,CG-000,,
-2211054,-3058575,hydrographic,Yoko,Yoko,official,-2.536111,13.191389,CG-2,,
-2211053,-3058574,settlement,Yoko,Yoko,official,-2.900556,13.605556,CG-2,,
-2211052,55284,settlement,Mokoko,Mokoko,official,0.876667,15.58,CG-13,,
-2211052,-3058573,settlement,Yoko,Yoko,variant,0.876667,15.58,CG-13,,
-2211051,-3058572,settlement,Yokama,Yokama,official,-4.290556,14.738056,CG-12,,
-2211050,-3058571,settlement,Yoka,Yoka,official,-2.956111,14.041389,CG-2,,
-2211049,-3058569,settlement,Yloumata,Yloumata,official,-4.333333,12.416667,CG-5,,
-2211048,-3058568,settlement,Yima,Yima,official,-2.306389,14.446944,CG-14,,
-2211047,-3058567,hydrographic,Yili,Yili,official,-2.628056,14.774167,CG-14,,
-2211046,-3058566,settlement,Yili,Yili,official,-2.649722,14.766111,CG-14,,
-2211045,-3058565,settlement,Yetila,Yetila,official,-4.156111,14.870278,CG-12,,
-2211044,-3058563,hydrographic,Yengué,Yengue,official,3.216667,17.083333,CG-7,,
-2211043,-3058562,settlement,Yengo,Yengo,variant,1.944444,15.5575,CG-13,,
-2211043,52192,settlement,Yengo-Babinga,Yengo-Babinga,official,1.944444,15.5575,CG-13,,
-2211042,-3058561,settlement,Yengo,Yengo,official,0.368611,15.445833,CG-13,,
-2211041,-3058560,settlement,Yenga,Yenga,official,1.663889,14.557222,CG-13,,
-2211040,106816,settlement,Yenenganou,Yenenganou,official,-3.746111,12.5375,CG-9,,
-2211040,-3058559,settlement,"Yéné Ganou I","Yene Ganou I",variant,-3.746111,12.5375,CG-9,,
-2211039,-3058556,settlement,Yèndé,Yende,official,3.080833,18.516111,CG-7,,
-2211039,-3051332,settlement,Bassamba,Bassamba,variant,3.080833,18.516111,CG-7,,
-2211038,-3058555,settlement,Yembo,Yembo,variant,-4.104722,12.025833,CG-5,,
-2211038,68620,settlement,Yambo,Yambo,official,-4.104722,12.025833,CG-5,,
-2211037,-3058554,settlement,Yembélangoye,Yembelangoye,official,-0.19,14.345278,CG-15,,
-2211036,56177,settlement,Yembélangoy,Yembelangoy,official,0.181944,14.198333,CG-15,,
-2211036,-3058553,settlement,Yembelangoye,Yembelangoye,variant,0.181944,14.198333,CG-15,,
-2211035,-3058552,settlement,Yelma,Yelma,official,-4.4225,11.696944,CG-5,,
-2211034,-3058551,vegetation,"Bois Yèlé","Bois Yele",official,-3.636389,15.062778,CG-12,,
-2211033,-3058550,settlement,Yédiké,Yedike,official,-4.136944,13.038056,CG-11,,
-2211030,-3058546,hydrographic,Yé,Ye,variant,1.4,13.25,CG-13,,
-2211030,-3053285,hydrographic,Karago,Karago,variant,1.4,13.25,CG-13,,
-2211030,-3053286,hydrographic,Karagoua,Karagoua,variant,1.4,13.25,CG-13,,
-2211030,-3053292,hydrographic,Karangoua,Karangoua,official,1.4,13.25,CG-13,,
-2211030,-3053287,hydrographic,Karagoué,Karagoue,variant,1.4,13.25,CG-13,,
-2211030,-3054091,hydrographic,Kragoua,Kragoua,variant,1.4,13.25,CG-13,,
-2211030,-3053288,hydrographic,Karagwa,Karagwa,variant,1.4,13.25,CG-13,,
-2211029,-3058545,settlement,Yé,Ye,official,-3.883611,15.409444,CG-BZV,,
-2211028,68606,settlement,"Yaya Gare","Yaya Gare",variant,-4.615556,12.0475,CG-5,,
-2211028,-3058544,settlement,Yaya,Yaya,official,-4.615556,12.0475,CG-5,,
-2211027,-3058543,settlement,Yaya,Yaya,official,-3.142222,12.913333,CG-9,,
-2211026,-3057090,hydrographic,Nkélé,Nkele,variant,1.05,17.833333,CG-7,,
-2211026,-3058542,hydrographic,Yaou,Yaou,official,1.05,17.833333,CG-7,,
-2211025,-3058541,vegetation,"Bois Yaon","Bois Yaon",official,-3.757778,15.716667,CG-BZV,,
-2211024,-3058540,settlement,Yanika,Yanika,official,-4.267778,11.584444,CG-5,,
-2211024,73664,settlement,Yaniko,Yaniko,variant,-4.267778,11.584444,CG-5,,
-2211023,-3058538,settlement,Yangi,Yangi,variant,-4.288333,14.656667,CG-12,,
-2211023,58797,settlement,Yangui,Yangui,official,-4.288333,14.656667,CG-12,,
-2211022,-3058537,settlement,Yangboue,Yangboue,variant,1.815,14.233889,CG-13,,
-2211022,52993,settlement,Yanébout,Yanebout,official,1.815,14.233889,CG-13,,
-2211021,-3058536,hydrographic,"Lac Yangala","Lac Yangala",official,-4.125833,11.588889,CG-5,,
-2211021,-3058539,hydrographic,"Lac Yangoia","Lac Yangoia",variant,-4.125833,11.588889,CG-5,,
-2211020,-3058535,settlement,Yangala,Yangala,official,-4.195833,11.667778,CG-5,,
-2211019,-3058534,settlement,"Yanga Dzala","Yanga Dzala",official,-4.745,14.644444,CG-12,,
-2211018,-3058533,hydrographic,"Lac Yanga","Lac Yanga",official,-4.333333,11.65,CG-5,,
-2211017,-3058532,settlement,Yanga,Yanga,official,-4.714167,14.64,CG-12,,
-2211016,-3058531,settlement,Yanga,Yanga,official,-4.551944,12.191111,CG-5,,
-2211011,-3058526,settlement,Yanebout,Yanebout,official,2.166667,14.066667,CG-13,,
-2211010,-3058525,settlement,Yanébout,Yanebout,official,1.627778,14.558889,CG-13,,
-2211009,-3058524,settlement,Yanana,Yanana,official,-0.639444,16.09,CG-8,,
-2211008,-3058522,settlement,Yana,Yana,official,-4.770833,14.643056,CG-12,,
-2211007,-3058521,hydrographic,Yan,Yan,variant,-4.020278,15.576389,CG-BZV,,
-2211007,57930,hydrographic,Yana,Yana,official,-4.020278,15.576389,CG-BZV,,
-2211006,-3058520,settlement,Yambiko,Yambiko,official,3.433333,17.816667,CG-7,,
-2211005,-3058517,hydrographic,"Marais de Yamba","Marais de Yamba",variant,-4.490278,13.080556,CG-9,,
-2211005,-3058519,hydrographic,"Marais de Yambi","Marais de Yambi",official,-4.490278,13.080556,CG-9,,
-2211004,-3058518,hydrographic,Yamba,Yamba,official,-4.679444,14.583889,CG-12,,
-2211003,-3058516,settlement,Yamba,Yamba,official,-4.151389,13.968611,CG-11,,
-2211002,111641,settlement,Yanba,Yanba,official,-2.485833,13.54,CG-2,,
-2211002,-3058515,settlement,Yamba,Yamba,variant,-2.485833,13.54,CG-2,,
-2211001,-3052841,settlement,Iamamba,Iamamba,variant,2.716667,18.266667,CG-7,,
-2211001,-3058514,settlement,Yamamba,Yamamba,official,2.716667,18.266667,CG-7,,
-2211001,-3058523,settlement,Yanamba,Yanamba,variant,2.716667,18.266667,CG-7,,
-2211000,-3058513,settlement,Yamadjélé,Yamadjele,official,-2.7,13.883333,CG-2,,
-2210999,-3058512,hypsographic,Yama,Yama,official,-2.55,13.983333,CG-2,,
-2210998,-3058511,settlement,Yama,Yama,official,-3.603889,12.416389,CG-9,,
-2210997,-3058510,settlement,Yama,Yama,official,-1.455833,15.158889,CG-14,,
-2210996,-3058509,settlement,Yama,Yama,official,-0.931944,14.756667,CG-15,,
-2210995,-3058508,settlement,Yalavounga,Yalavounga,official,-4.416944,14.757222,CG-12,,
-2210995,58634,settlement,"Yala Vounga","Yala Vounga",variant,-4.416944,14.757222,CG-12,,
-2210994,-3058507,settlement,Yala,Yala,official,-1.596111,15.885,CG-14,,
-2210993,-3058506,settlement,Yakou,Yakou,official,-3.366667,14.195833,CG-12,,
-2210992,-3058505,settlement,Yabongo,Yabongo,official,-3.283333,16.183333,CG-12,,
-2210991,-3058504,settlement,"Yaba Mbéti","Yaba Mbeti",official,-0.691111,14.569167,CG-15,,
-2210990,-3058503,settlement,Yaba,Yaba,official,-1.706944,15.7925,CG-14,,
-2210990,115244,settlement,"Yaba I","Yaba I",variant,-1.706944,15.7925,CG-14,,
-2210989,-3058502,settlement,Yaba,Yaba,official,-1.400833,16.288056,CG-14,,
-2210987,-3058499,vegetation,"Forêt de Wouni","Foret de Wouni",official,-3.943611,15.826667,CG-BZV,,
-2210986,-3058498,hydrographic,Wongou,Wongou,official,-3.407222,14.113889,CG-12,,
-2210985,-3058497,hydrographic,Wémé,Weme,official,-3.603056,14.188611,CG-11,,
-2210984,58429,settlement,Ouanda,Ouanda,official,-4.521944,14.711944,CG-12,,
-2210984,-3058496,settlement,Wanda,Wanda,variant,-4.521944,14.711944,CG-12,,
-2210983,58721,settlement,Ouanda,Ouanda,official,-4.310833,14.675556,CG-12,,
-2210983,-3058495,settlement,Wanda,Wanda,variant,-4.310833,14.675556,CG-12,,
-2210982,58868,settlement,Oualala,Oualala,official,-4.320278,14.451111,CG-12,,
-2210982,-3058494,settlement,Walala,Walala,variant,-4.320278,14.451111,CG-12,,
-2210981,-3058493,settlement,Wala,Wala,official,-3.784722,14.111667,CG-11,,
-2210980,-3058491,settlement,Vouvou,Vouvou,official,-4.204444,14.963333,CG-12,,
-2210979,-3058489,settlement,Voungouta,Voungouta,official,-4.386944,14.563333,CG-12,,
-2210978,-3058488,settlement,Voundala,Voundala,official,-2.7925,11.863889,CG-9,,
-2210977,-3058487,settlement,"Vounda II","Vounda II",short,-3.652222,12.231389,CG-9,,
-2210976,-3058485,settlement,Vounda,Vounda,variant,-3.642778,12.162222,CG-9,,
-2210976,-3051864,settlement,Boutouma,Boutouma,variant,-3.642778,12.162222,CG-9,,
-2210976,-3058486,settlement,"Vounda I","Vounda I",official,-3.642778,12.162222,CG-9,,
-2210975,-3058483,settlement,Voumamboko,Voumamboko,variant,0.042222,15.668889,CG-8,,
-2210975,-3058484,settlement,Voumanboko,Voumanboko,variant,0.042222,15.668889,CG-8,,
-2210975,54755,settlement,Vouma,Vouma,official,0.042222,15.668889,CG-8,,
-2210974,-3058482,hydrographic,Vouma,Vouma,official,-0.653056,16.055,CG-8,,
-2210974,-3058500,hydrographic,Wuma,Wuma,variant,-0.653056,16.055,CG-8,,
-2210974,-3058492,hydrographic,Vuma,Vuma,variant,-0.653056,16.055,CG-8,,
-2210973,-3058481,settlement,Vouloumanba,Vouloumanba,official,-4.452222,14.838056,CG-12,,
-2210972,-3058480,settlement,Voulou,Voulou,official,-4.856667,14.658333,CG-12,,
-2210971,-3058479,settlement,Voulou,Voulou,official,-4.647778,14.7375,CG-12,,
-2210970,107070,settlement,Voulaniangou,Voulaniangou,official,-3.465556,12.335278,CG-9,,
-2210970,-3058478,settlement,"Voulaniango II","Voulaniango II",variant,-3.465556,12.335278,CG-9,,
-2210969,107069,settlement,Voulaniangou,Voulaniangou,official,-3.460556,12.283333,CG-9,,
-2210969,-3058477,settlement,"Voulaniango I","Voulaniango I",variant,-3.460556,12.283333,CG-9,,
-2210968,-3056680,hydrographic,Mvoula,Mvoula,variant,-4.581111,14.971667,CG-12,,
-2210968,-3056174,hydrographic,Mooula,Mooula,variant,-4.581111,14.971667,CG-12,,
-2210968,-3058476,hydrographic,Voula,Voula,official,-4.581111,14.971667,CG-12,,
-2210967,-3058475,settlement,Voula,Voula,official,-4.360278,14.843889,CG-12,,
-2210966,-3058474,settlement,Voula,Voula,official,-2.983333,13.266667,CG-2,,
-2210965,-3058473,settlement,Voula,Voula,official,-2.798333,13.833333,CG-2,,
-2210964,-3058472,settlement,Voula,Voula,official,-2.756944,13.833333,CG-2,,
-2210963,-3058471,settlement,Vouka,Vouka,official,-2.568889,12.745556,CG-9,,
-2210963,-3058466,settlement,Vouga,Vouga,variant,-2.568889,12.745556,CG-9,,
-2210962,-3058470,settlement,"Vouga Itounou","Vouga Itounou",official,-2.911667,13.937778,CG-2,,
-2210961,-3058469,settlement,Vouga,Vouga,official,-2.995556,13.874167,CG-2,,
-2210960,-3058468,settlement,Vouga,Vouga,official,-2.85,13.8,CG-2,,
-2210959,-3058467,settlement,Vouga,Vouga,official,-2.783889,12.650278,CG-9,,
-2210958,-3058465,hydrographic,Voudou,Voudou,official,-4.648056,13.447222,CG-000,,
-2210957,-3058463,settlement,Vouali,Vouali,official,-3.146667,14.106667,CG-2,,
-2210956,-3058462,settlement,Vondza,Vondza,official,-2.566667,12.275833,CG-9,,
-2210955,-3058461,settlement,Voka,Voka,official,-4.671111,14.673611,CG-12,,
-2210954,-3058460,settlement,Vivario,Vivario,official,1.766389,14.418333,CG-13,,
-2210953,-3058459,settlement,Vista,Vista,official,-4.616667,11.833333,CG-5,,
-2210952,-3058458,settlement,Vinza,Vinza,variant,-4.340556,14.765278,CG-12,,
-2210952,58708,settlement,Vinnza,Vinnza,official,-4.340556,14.765278,CG-12,,
-2210951,-3058457,settlement,Vinza,Vinza,variant,-4.119722,14.456389,CG-12,,
-2210951,59641,settlement,Vinnza,Vinnza,official,-4.119722,14.456389,CG-12,,
-2210950,-3058456,settlement,Vinza,Vinza,official,-3.418056,14.55,CG-12,,
-2210950,-3058455,settlement,Vindza,Vindza,variant,-3.418056,14.55,CG-12,,
-2210949,-3058454,settlement,Vindoulou,Vindoulou,official,-4.702222,11.933333,CG-5,,
-2210948,-3058447,settlement,Vilitagni,Vilitagni,variant,-4.676667,11.8275,CG-5,,
-2210948,-3058446,settlement,Vilikagni,Vilikagni,official,-4.676667,11.8275,CG-5,,
-2210947,-3058445,settlement,Vila,Vila,official,-2.3125,14.605,CG-14,,
-2210946,-3058444,vegetation,"Bois de Vigno","Bois de Vigno",official,-3.149167,16.048333,CG-12,,
-2210945,-3058443,hypsographic,"Pointe Verte","Pointe Verte",official,-4.1425,15.471389,CG-BZV,,
-2210944,-3058441,hydrographic,Vemba,Vemba,official,-4.774444,12.078611,CG-5,,
-2210943,-3058464,settlement,Vouanza,Vouanza,official,-4.531667,14.763333,CG-12,,
-2210943,-3058438,settlement,Vanza,Vanza,variant,-4.531667,14.763333,CG-12,,
-2210942,-3058437,settlement,Vanga,Vanga,official,-3.366667,12.466667,CG-9,,
-2210941,-3058436,settlement,Vandji,Vandji,official,-4.064167,11.326667,CG-5,,
-2210940,-3058435,hydrographic,Vamba,Vamba,official,-4.466667,12.4,CG-5,,
-2210939,-3058434,settlement,Vaga,Vaga,official,-1.625556,14.641944,CG-8,,
-2210938,-3058433,settlement,Vaga,Vaga,official,-1.179722,14.588889,CG-8,,
-2210937,-3058432,settlement,Vaga,Vaga,variant,-1.194167,14.967222,CG-8,,
-2210937,114581,settlement,Vaka,Vaka,official,-1.194167,14.967222,CG-8,,
-2210936,-3058429,settlement,Tzodzo,Tzodzo,official,-1.390556,16.140833,CG-14,,
-2210935,-3058428,settlement,Tzambisisi,Tzambisisi,official,-4.144722,13.031667,CG-11,,
-2210934,-3058427,settlement,Tsouo,Tsouo,official,-1.584444,15.885833,CG-14,,
-2210933,-3058426,settlement,Tsoundi,Tsoundi,official,-4.724167,13.274444,CG-9,,
-2210932,-3058425,settlement,Tsoumbou,Tsoumbou,official,-4.514167,12.561111,CG-5,,
-2210931,-3058424,settlement,Tsoumbou,Tsoumbou,official,-3.991667,14.016667,CG-11,,
-2210930,-3058423,settlement,Tsouma,Tsouma,official,-3.708333,14.577222,CG-12,,
-2210929,-3058422,settlement,Tsouengi,Tsouengi,official,-2.481111,12.058333,CG-9,,
-2210928,103220,settlement,Ntswankan,Ntswankan,official,-1.853611,16.058889,CG-14,,
-2210928,-3058421,settlement,Tsouankan,Tsouankan,variant,-1.853611,16.058889,CG-14,,
-2210927,-3058420,settlement,Tsotsokoumou,Tsotsokoumou,official,-3.2,12.683333,CG-9,,
-2210926,-3058419,settlement,Tsongo-Pa,Tsongo-Pa,variant,0.160556,15.853056,CG-8,,
-2210926,54744,settlement,Tsongapa,Tsongapa,official,0.160556,15.853056,CG-8,,
-2210925,-3058418,hypsographic,Tsongo,Tsongo,official,-4.666111,13.352778,CG-9,,
-2210924,100021,settlement,"Tsongo I","Tsongo I",variant,-0.888333,15.169167,CG-000,,
-2210924,-3058417,settlement,Tsongo,Tsongo,official,-0.888333,15.169167,CG-000,,
-2210923,-3058416,settlement,Tsongo,Tsongo,variant,-0.453611,15.823889,CG-8,,
-2210923,98798,settlement,Songo,Songo,official,-0.453611,15.823889,CG-8,,
-2210922,-3058415,settlement,Tsongo,Tsongo,variant,0.084722,15.500556,CG-8,,
-2210922,55083,settlement,Tsongo-Otama,Tsongo-Otama,official,0.084722,15.500556,CG-8,,
-2210921,-3058414,settlement,"Tsomono I","Tsomono I",variant,-3.62,13.837778,CG-11,,
-2210921,105395,settlement,Tsomono,Tsomono,official,-3.62,13.837778,CG-11,,
-2210920,-3058413,settlement,Tsokia,Tsokia,official,-1.205,15.943056,CG-14,,
-2210920,116406,settlement,Otsokia,Otsokia,variant,-1.205,15.943056,CG-14,,
-2210919,-3058412,hydrographic,Tsobo,Tsobo,official,-4.188611,14.058611,CG-11,,
-2210918,-3058411,settlement,Tsiounanamoutsandou,Tsiounanamoutsandou,official,-3.683333,12.533333,CG-9,,
-2210917,-3058410,hydrographic,"Chute de Tsioukoudou","Chute de Tsioukoudou",variant,-2.448611,11.743889,CG-9,,
-2210917,-3058409,hydrographic,"Chutes de Tsioucoudou","Chutes de Tsioucoudou",official,-2.448611,11.743889,CG-9,,
-2210916,-3058240,settlement,Tchinguédi,Tchinguedi,variant,-2.422778,12.7275,CG-9,,
-2210916,-3058408,settlement,Tsinguidi,Tsinguidi,official,-2.422778,12.7275,CG-9,,
-2210916,-3058407,settlement,Tsingidi,Tsingidi,variant,-2.422778,12.7275,CG-9,,
-2210915,-3058406,hypsographic,Tsinda,Tsinda,official,-4.632222,13.054444,CG-9,,
-2210914,-3054773,hydrographic,Loumo,Loumo,variant,-4.767778,14.508333,CG-12,,
-2210914,-3058405,hydrographic,"Tsimba Loumo","Tsimba Loumo",official,-4.767778,14.508333,CG-12,,
-2210914,-3054872,hydrographic,Luenda,Luenda,variant,-4.767778,14.508333,CG-12,,
-2210913,-3058404,hydrographic,Tsimba,Tsimba,official,-4.703333,13.423889,CG-9,,
-2210912,-3058403,hydrographic,Tsimba,Tsimba,official,-4.645556,14.771389,CG-12,,
-2210911,-3058402,hydrographic,Tsikélé,Tsikele,official,-3.366667,12.75,CG-2,,
-2210910,-3058401,hydrographic,Tsiemasa,Tsiemasa,official,-3.843889,14.165556,CG-11,,
-2210909,-3058400,settlement,Tsiélelé,Tsielele,official,-3.157222,12.930278,CG-9,,
-2210908,-3058399,settlement,Tsiéké,Tsieke,official,-3.158889,13.418889,CG-2,,
-2210907,-3058398,settlement,Tsiboukou,Tsiboukou,variant,-4.18,12.883333,CG-9,,
-2210907,67655,settlement,Tsmiboukou,Tsmiboukou,variant,-4.18,12.883333,CG-9,,
-2210907,92544,settlement,Tsimboukou,Tsimboukou,official,-4.18,12.883333,CG-9,,
-2210906,-3058397,hydrographic,Tsibou,Tsibou,official,-2.851111,11.818889,CG-9,,
-2210905,-3058057,settlement,Sibakala,Sibakala,variant,-2.973889,12.863889,CG-9,,
-2210905,-3058396,settlement,Tsibakala,Tsibakala,official,-2.973889,12.863889,CG-9,,
-2210904,-3058395,hydrographic,Tsia-Tsia,Tsia-Tsia,official,-3.65,12.566667,CG-9,,
-2210903,105302,settlement,"Tsiangi I","Tsiangi I",official,-3.711667,13.861667,CG-11,,
-2210903,-3058394,settlement,"Tsiangui I","Tsiangui I",variant,-3.711667,13.861667,CG-11,,
-2210902,57912,hydrographic,Tsiémé,Tsieme,official,-4.241111,15.303889,CG-BZV,,
-2210902,-3058393,hydrographic,Tsiama,Tsiama,variant,-4.241111,15.303889,CG-BZV,,
-2210901,-3058392,settlement,Tsiako,Tsiako,official,0.118889,15.566944,CG-8,,
-2210900,-3058389,settlement,Tsétséké,Tsetseke,official,-4.343611,14.900278,CG-12,,
-2210899,-3058388,hydrographic,Tsénongo,Tsenongo,official,-4.403889,14.639444,CG-12,,
-2210898,-3058387,hydrographic,Tsengo,Tsengo,official,-4.489722,14.437778,CG-12,,
-2210897,-3058385,settlement,Tsénéné,Tsenene,variant,-3.467778,12.291389,CG-9,,
-2210897,107063,settlement,Tsinéné,Tsinene,official,-3.467778,12.291389,CG-9,,
-2210896,-3058384,hydrographic,Tséméné,Tsemene,official,-3.029444,14.187222,CG-12,,
-2210895,-3058382,settlement,Tséké-Mpembé,Tseke-Mpembe,official,-4.075278,13.518889,CG-11,,
-2210894,-3058381,settlement,Tséké-Mpembé,Tseke-Mpembe,official,-4.006111,13.630556,CG-11,,
-2210894,-3058030,settlement,Séké-Pembé,Seke-Pembe,variant,-4.006111,13.630556,CG-11,,
-2210893,-3058380,settlement,Tséka,Tseka,official,-1.006389,15.148333,CG-8,,
-2210892,-3058378,settlement,Tsani,Tsani,official,-1.0675,15.51,CG-14,,
-2210891,-3058377,settlement,Tsangou,Tsangou,official,-4.012778,13.903611,CG-11,,
-2210890,-3058376,settlement,Tsangi,Tsangi,official,-4.729722,13.403333,CG-9,,
-2210889,-3058375,hydrographic,Tsanga,Tsanga,official,0.016667,15.566667,CG-8,,
-2210888,-3058386,settlement,Tsenga,Tsenga,variant,-4.172222,12.874167,CG-9,,
-2210888,-3057996,settlement,Sanga,Sanga,variant,-4.172222,12.874167,CG-9,,
-2210888,-3058374,settlement,Tsanga,Tsanga,official,-4.172222,12.874167,CG-9,,
-2210888,67649,settlement,Tsanga-Mbouma,Tsanga-Mbouma,variant,-4.172222,12.874167,CG-9,,
-2210887,103200,settlement,Tsampoko,Tsampoko,official,-1.848889,16.262222,CG-14,,
-2210887,103199,settlement,Tsampoto,Tsampoto,variant,-1.848889,16.262222,CG-14,,
-2210887,-3058373,settlement,Tsampokou,Tsampokou,variant,-1.848889,16.262222,CG-14,,
-2210886,-3058372,settlement,Tsampoko,Tsampoko,official,-1.801389,16.144722,CG-14,,
-2210884,-3058369,settlement,Tsama,Tsama,official,-2.607778,13.6125,CG-2,,
-2210884,-3058371,settlement,Tsama-Lékoli,Tsama-Lekoli,variant,-2.607778,13.6125,CG-2,,
-2210883,-3058368,settlement,Tsama,Tsama,official,-1.073889,14.678889,CG-15,,
-2210882,-3058366,hydrographic,Tsalakoussou,Tsalakoussou,official,-1.036389,15.815,CG-8,,
-2210881,-3058365,settlement,Tsabou-Tsabou,Tsabou-Tsabou,official,0.182778,16.043889,CG-8,,
-2210880,-3058364,hydrographic,Tsabaka,Tsabaka,official,-4.783611,14.693333,CG-12,,
-2210879,-3058363,settlement,Tsaba,Tsaba,official,-3.498611,14.268611,CG-12,,
-2210878,-3058362,vegetation,"Bois Tsa","Bois Tsa",official,-3.399722,15.670833,CG-12,,
-2210877,-3058361,hypsographic,"Île des Trois Villages","Ile des Trois Villages",official,3.266667,18.633333,CG-7,,
-2210876,-3058360,settlement,Traversbanc,Traversbanc,official,-4.279444,14.349167,CG-12,,
-2210875,-3058359,hydrographic,Tourou,Tourou,official,-1.022222,15.285,CG-8,,
-2210874,-3058358,settlement,Touo,Touo,official,-3.847778,14.381667,CG-12,,
-2210873,-3058357,hydrographic,Tounsafo,Tounsafo,official,-4.716667,11.866667,CG-5,,
-2210872,-3058356,hydrographic,Touno,Touno,official,0.2,14.466667,CG-15,,
-2210871,-3058355,hydrographic,Toungou,Toungou,official,-3.947222,11.181944,CG-5,,
-2210870,-3058354,settlement,"Toundou Siana","Toundou Siana",official,-4.333333,12.383333,CG-5,,
-2210869,55709,settlement,Tombi,Tombi,official,0.868333,14.766389,CG-15,,
-2210869,-3058353,settlement,Toumbi,Toumbi,variant,0.868333,14.766389,CG-15,,
-2210868,-3058352,hydrographic,Touloubou,Touloubou,official,3.066667,18.533333,CG-7,,
-2210867,-3058351,hydrographic,Toulou,Toulou,official,-4.181389,14.441389,CG-12,,
-2210866,-3058350,settlement,Toukoulaka,Toukoulaka,official,1.681389,17.060556,CG-7,,
-2210865,69048,hydrographic,Soukoula,Soukoula,official,-4.951389,12.051389,CG-5,,
-2210865,-3058349,hydrographic,Toukoula,Toukoula,variant,-4.951389,12.051389,CG-5,,
-2210864,-3058348,settlement,Toukakata,Toukakata,official,-4.716667,11.85,CG-5,,
-2210863,-3058347,settlement,Toukakata,Toukakata,official,-4.706389,11.855833,CG-5,,
-2210862,-3058345,settlement,Touboula,Touboula,official,-4.369444,15.139722,CG-BZV,,
-2210861,-3058344,hydrographic,Toubindo,Toubindo,official,3.282778,17.647222,CG-7,,
-2210860,53006,settlement,Touakama,Touakama,official,1.960833,14.195833,CG-13,,
-2210860,-3058343,settlement,Touamaka,Touamaka,variant,1.960833,14.195833,CG-13,,
-2210859,-3058342,settlement,Touala,Touala,official,-4.190278,14.159444,CG-12,,
-2210858,-3058341,settlement,Totodombi,Totodombi,official,-4.568333,14.423611,CG-12,,
-2210857,-3058340,hydrographic,"Topo Topo","Topo Topo",official,1.783333,15.916667,CG-13,,
-2210856,-3058339,hydrographic,Top,Top,official,1.75,14.9,CG-13,,
-2210855,-3058338,settlement,Tonkama,Tonkama,official,-4.374722,15.005833,CG-BZV,,
-2210854,-3058337,hydrographic,Tonguessio,Tonguessio,official,0.633333,15.4,CG-13,,
-2210853,76562,hydrographic,Tanga,Tanga,official,-4.349444,11.969722,CG-5,,
-2210853,-3058336,hydrographic,Tongo,Tongo,variant,-4.349444,11.969722,CG-5,,
-2210852,-3058335,settlement,Tondo,Tondo,official,-3.966667,12.333333,CG-9,,
-2210851,-3058330,settlement,"Tombo Kolo","Tombo Kolo",official,-4.844444,14.431944,CG-12,,
-2210850,-3058329,settlement,"Tombo Kolo","Tombo Kolo",official,-4.626389,14.558333,CG-12,,
-2210849,-3057225,hydrographic,"Chutes de N’Tombo","Chutes de N'Tombo",variant,-4.883333,14.433333,CG-12,,
-2210849,-3058325,hydrographic,"Chutes de Tombi","Chutes de Tombi",variant,-4.883333,14.433333,CG-12,,
-2210849,-3058328,hydrographic,"Rapides de Tombo","Rapides de Tombo",official,-4.883333,14.433333,CG-12,,
-2210849,-3052744,hydrographic,"Chutes de Gombi","Chutes de Gombi",variant,-4.883333,14.433333,CG-12,,
-2210849,-3058331,hydrographic,"Chutes Tombo-Mataka","Chutes Tombo-Mataka",variant,-4.883333,14.433333,CG-12,,
-2210849,-3058332,hydrographic,"Chutes de Tombo Mataka","Chutes de Tombo Mataka",variant,-4.883333,14.433333,CG-12,,
-2210849,-3057227,hydrographic,"Ntombo Mataki Cataract","Ntombo Mataki Cataract",variant,-4.883333,14.433333,CG-12,,
-2210849,-3058324,hydrographic,"Chutes Tombe Mateka","Chutes Tombe Mateka",variant,-4.883333,14.433333,CG-12,,
-2210848,-3058327,hydrographic,Tombo,Tombo,official,-4.737222,13.388889,CG-9,,
-2210847,95179,settlement,Manyanga,Manyanga,variant,-4.863889,14.433056,CG-12,,
-2210847,-3058326,settlement,Ntombo-Manyanga,Ntombo-Manyanga,official,-4.863889,14.433056,CG-12,,
-2210847,95178,settlement,Tombo,Tombo,variant,-4.863889,14.433056,CG-12,,
-2210846,56722,hydrographic,Toumba,Toumba,official,0.466389,14.656111,CG-15,,
-2210617,-3058046,settlement,Sexo,Sexo,official,-4.383333,11.666667,CG-5,,
-2210846,-3058323,hydrographic,Tomba,Tomba,variant,0.466389,14.656111,CG-15,,
-2210845,58171,settlement,Tombi,Tombi,official,-4.768056,14.579444,CG-12,,
-2210845,-3058322,settlement,Tomba,Tomba,variant,-4.768056,14.579444,CG-12,,
-2210844,-3058321,settlement,Tomba,Tomba,official,-4.416667,12.4,CG-5,,
-2210843,-3058320,hydrographic,Tolola,Tolola,official,-0.831667,14.865833,CG-15,,
-2210842,-3058319,hypsographic,"Mont Tokoy","Mont Tokoy",official,-4.170833,14.417222,CG-12,,
-2210841,-3058318,hydrographic,Tokou-Tokou,Tokou-Tokou,official,0.35,15.516667,CG-13,,
-2210840,-3058317,settlement,Tokou-Hola,Tokou-Hola,official,-4.7,12.316667,CG-5,,
-2210839,55569,hydrographic,Ekou,Ekou,official,0.908889,15.115833,CG-13,,
-2210839,-3058316,hydrographic,Tokou,Tokou,variant,0.908889,15.115833,CG-13,,
-2210838,-3058547,hydrographic,Yebalé,Yebale,variant,3.118056,17.636944,CG-7,,
-2210838,-3054492,hydrographic,Lokélé,Lokele,variant,3.118056,17.636944,CG-7,,
-2210838,-3058154,hydrographic,Takanou,Takanou,variant,3.118056,17.636944,CG-7,,
-2210838,-3058315,hydrographic,Tokélé,Tokele,official,3.118056,17.636944,CG-7,,
-2210837,-3058314,hydrographic,Toka,Toka,official,-2.779444,11.789444,CG-9,,
-2210836,-3058313,hypsographic,"Colline Tobobi Zoulou","Colline Tobobi Zoulou",official,-4.463611,14.615833,CG-12,,
-2210835,-3058312,vegetation,"Bois de Tivala","Bois de Tivala",official,-4.8,11.85,CG-16,,
-2210834,-3058311,settlement,Titi,Titi,official,-3.224444,12.658611,CG-9,,
-2210833,-3058310,settlement,Titi,Titi,official,-2.444167,12.316667,CG-9,,
-2210832,-3058309,hydrographic,Tissa,Tissa,official,-4.033333,11.683333,CG-5,,
-2210831,52975,settlement,Tipoy,Tipoy,official,1.765278,14.390278,CG-13,,
-2210831,-3058308,settlement,Tipoye,Tipoye,variant,1.765278,14.390278,CG-13,,
-2210830,-3058307,settlement,Tionzo,Tionzo,official,-4.005833,11.735,CG-5,,
-2210830,74667,settlement,Kionzo,Kionzo,variant,-4.005833,11.735,CG-5,,
-2210829,74776,settlement,Tinkousou,Tinkousou,variant,-4.0425,11.383611,CG-5,,
-2210829,-3058306,settlement,Tinkoussou,Tinkoussou,official,-4.0425,11.383611,CG-5,,
-2210828,-3058305,hydrographic,Timoala,Timoala,official,-4.737778,13.666111,CG-11,,
-2210827,-3058304,settlement,Timana,Timana,official,-4.6975,11.840278,CG-5,,
-2210826,72647,settlement,Tiliou,Tiliou,variant,-4.790556,11.983056,CG-5,,
-2210826,-3058303,settlement,Tililou,Tililou,official,-4.790556,11.983056,CG-5,,
-2210825,-3058302,settlement,Tililou,Tililou,official,-4.783333,11.970278,CG-5,,
-2210824,-3058301,settlement,Tilala,Tilala,official,-4.866667,11.95,CG-5,,
-2210823,-3058300,hydrographic,Tikou,Tikou,official,-4.472778,13.320278,CG-9,,
-2210822,-3058299,hypsographic,Tikaka,Tikaka,official,-4.465556,13.073611,CG-9,,
-2210821,-3058298,hypsographic,"Mont Tiétié","Mont Tietie",official,-4.2,12.35,CG-5,,
-2210820,-3058297,hydrographic,Tiétékolo,Tietekolo,official,-4.75,11.85,CG-5,,
-2210819,-3058296,vegetation,"Bois de Tiépfou","Bois de Tiepfou",official,-3.968889,15.668611,CG-BZV,,
-2210818,-3058295,settlement,Tienzolo,Tienzolo,official,-4.277222,11.567778,CG-5,,
-2210817,-3058293,hydrographic,Tiémo,Tiemo,official,-3.883333,14.983333,CG-12,,
-2210816,-3058292,settlement,Tiéli,Tieli,official,-4.216667,11.45,CG-5,,
-2210815,-3058289,hydrographic,Tiboloko,Tiboloko,official,-4.666667,11.816667,CG-5,,
-2210814,-3058288,hydrographic,Tibapou,Tibapou,official,-4.1,15.433333,CG-BZV,,
-2210813,-3058287,settlement,Tiamba,Tiamba,official,-4.971389,12.029722,CG-5,,
-2210812,-3058286,hypsographic,"Plaine de Tha","Plaine de Tha",official,-3.466667,15.6,CG-12,,
-2210811,-3058285,vegetation,"Bois de Tha","Bois de Tha",official,-2.466667,15.55,CG-14,,
-2210810,-3058284,settlement,Tenta,Tenta,official,-4.818611,14.789722,CG-12,,
-2210809,-3058283,settlement,Tension,Tension,official,-3.666667,14.599722,CG-12,,
-2210808,-3058281,hydrographic,"Lac Tempé","Lac Tempe",official,-4.215556,14.12,CG-12,,
-2210807,-3058280,hypsographic,Tembo,Tembo,official,-4.667778,13.280833,CG-9,,
-2210806,-3058279,settlement,Tembele,Tembele,official,-4.153611,13.949444,CG-11,,
-2210805,-3058278,settlement,Tembé,Tembe,official,-4.150278,12.637222,CG-9,,
-2210804,-3058277,settlement,Tembe,Tembe,official,1.985,15.08,CG-13,,
-2210803,50516,hydrographic,"Lac Télé","Lac Tele",official,1.346667,17.151667,CG-7,,
-2210803,-3058276,hydrographic,"Lac Tellé","Lac Telle",variant,1.346667,17.151667,CG-7,,
-2210802,-3058275,settlement,Télémono,Telemono,official,-4.175278,14.354444,CG-12,,
-2210801,-3058274,hypsographic,"Plateau de Telemine","Plateau de Telemine",official,-4.1975,13.135556,CG-11,,
-2210800,-3058273,hydrographic,Tedé,Tede,variant,1.815,14.655833,CG-13,,
-2210800,53148,hydrographic,Téré,Tere,official,1.815,14.655833,CG-13,,
-2210799,-3058272,settlement,Tebele,Tebele,official,-4.085278,13.932222,CG-11,,
-2210798,-3058271,hydrographic,Tchouéné,Tchouene,official,-3.593611,14.920278,CG-12,,
-2210797,-3058270,hydrographic,Tcho-Tcho,Tcho-Tcho,official,-0.066667,15.65,CG-8,,
-2210796,-3058269,hypsographic,"Plaine de Tchongomobi","Plaine de Tchongomobi",official,-3.596111,15.549167,CG-12,,
-2210795,-3058268,settlement,Tchizondi,Tchizondi,official,-4.381667,11.695,CG-5,,
-2210795,73577,settlement,Tchizonzi,Tchizonzi,variant,-4.381667,11.695,CG-5,,
-2210794,-3058267,settlement,Tchivoula,Tchivoula,official,-4.683333,12.15,CG-5,,
-2210793,-3058266,settlement,Tchivoula,Tchivoula,variant,-4.654722,12.144167,CG-5,,
-2210793,68601,settlement,Kivoula,Kivoula,official,-4.654722,12.144167,CG-5,,
-2210792,-3058265,hydrographic,"Lac Tchivoka","Lac Tchivoka",official,-3.908611,11.303611,CG-5,,
-2210792,-3058264,hydrographic,"Lac Tchivaka","Lac Tchivaka",variant,-3.908611,11.303611,CG-5,,
-2210791,-3058263,hydrographic,Tchitouba,Tchitouba,official,-4.383333,11.616667,CG-5,,
-2210790,-3052837,settlement,Holle,Holle,variant,-4.539444,12.147222,CG-5,,
-2210790,-3058262,settlement,Tchitondi,Tchitondi,official,-4.539444,12.147222,CG-5,,
-2210789,-3058261,hypsographic,"Pointe Tchitembo","Pointe Tchitembo",official,-4.166667,11.383333,CG-5,,
-2210789,-3051929,hypsographic,"Point Chitembo","Point Chitembo",variant,-4.166667,11.383333,CG-5,,
-2210788,-3058260,hydrographic,Tchitembo,Tchitembo,official,-4.216667,11.4,CG-5,,
-2210787,-3058259,settlement,Tchitchounga,Tchitchounga,official,-2.984444,14.632222,CG-12,,
-2210786,-3058257,settlement,Tchissoko,Tchissoko,variant,-4.744722,12.030833,CG-5,,
-2210786,68875,settlement,Tchisakata,Tchisakata,official,-4.744722,12.030833,CG-5,,
-2210785,-3058256,settlement,Tchisséka,Tchisseka,official,-4.195,11.813889,CG-5,,
-2210785,74618,settlement,Tchiséka,Tchiseka,variant,-4.195,11.813889,CG-5,,
-2210784,-3058255,settlement,Tchissanga,Tchissanga,official,-4.539722,11.801389,CG-5,,
-2210783,-3058453,settlement,"Villages Tchissanga","Villages Tchissanga",variant,-4.516667,11.8,CG-5,,
-2210783,-3058254,settlement,Tchissanga,Tchissanga,official,-4.516667,11.8,CG-5,,
-2210783,-3058250,settlement,Tchisanga,Tchisanga,variant,-4.516667,11.8,CG-5,,
-2210782,74732,settlement,Tchisamanou,Tchisamanou,variant,-4.195556,11.4275,CG-5,,
-2210782,-3058253,settlement,Tchissamanou,Tchissamanou,official,-4.195556,11.4275,CG-5,,
-2210781,68613,settlement,Tchisafou,Tchisafou,official,-4.1275,12.055556,CG-5,,
-2210781,-3058252,settlement,Tchissafou,Tchissafou,variant,-4.1275,12.055556,CG-5,,
-2210780,-3058251,settlement,Taba,Taba,official,-4.356389,14.969167,CG-12,,
-2210779,-3058249,hypsographic,Tchisala,Tchisala,official,-4.75,11.95,CG-5,,
-2210778,-3058391,hydrographic,Tshinouka,Tshinouka,variant,-4.766667,11.866667,CG-16,,
-2210778,-3058248,hydrographic,Tchinouka,Tchinouka,official,-4.766667,11.866667,CG-16,,
-2210777,-3058246,settlement,Tchinionzi,Tchinionzi,official,-4.126389,11.695556,CG-5,,
-2210776,-3051926,settlement,Chinimi,Chinimi,variant,-4.066667,11.35,CG-5,,
-2210776,-3058245,settlement,Tchinimi,Tchinimi,official,-4.066667,11.35,CG-5,,
-2210775,72606,settlement,Tchiniambiloémé,Tchiniambiloeme,official,-4.791667,11.94,CG-5,,
-2210775,-3058244,settlement,Tchinianmbiloémé,Tchinianmbiloeme,variant,-4.791667,11.94,CG-5,,
-2210774,-3058243,settlement,Tchinianmbiloémé,Tchinianmbiloeme,official,-4.766667,11.966667,CG-5,,
-2210773,-3058242,settlement,Tchiniambi-Loemé,Tchiniambi-Loeme,official,-4.816667,12,CG-5,,
-2210772,-3058451,settlement,"Village Tiniambi","Village Tiniambi",variant,-4.783333,11.9,CG-5,,
-2210772,-3058241,settlement,Tchiniambi,Tchiniambi,official,-4.783333,11.9,CG-5,,
-2210771,-3058239,hypsographic,Tchingoma,Tchingoma,official,-4.766667,11.9,CG-5,,
-2210770,-3058238,settlement,Tchingoli,Tchingoli,official,-4.490833,11.964722,CG-5,,
-2210769,-3058237,hydrographic,Tchimwadi,Tchimwadi,official,-4.733333,11.95,CG-5,,
-2210768,-3058235,hydrographic,Tchimpounga,Tchimpounga,official,-4.716667,11.866667,CG-5,,
-2210768,-3058236,hydrographic,"Lac Tchimpounga Matouni","Lac Tchimpounga Matouni",variant,-4.716667,11.866667,CG-5,,
-2210767,-3058234,settlement,Tchimpassi,Tchimpassi,official,-4.532778,11.973611,CG-5,,
-2210766,-3058233,settlement,Tchimossi,Tchimossi,official,-3.716667,12.533333,CG-9,,
-2210765,-3058232,hydrographic,Tchimkoumbi,Tchimkoumbi,official,-4.833333,11.883333,CG-5,,
-2210764,-3058231,settlement,Tchimbanmbouka,Tchimbanmbouka,official,-4.833333,11.916667,CG-5,,
-2210763,-3058228,settlement,Tchimbambouka,Tchimbambouka,variant,-4.826944,11.903056,CG-5,,
-2210763,-3058230,settlement,Tchimbanmbouka,Tchimbanmbouka,variant,-4.826944,11.903056,CG-5,,
-2210763,72582,settlement,Tchimbanbouka,Tchimbanbouka,official,-4.826944,11.903056,CG-5,,
-2210762,-3058229,settlement,Tchimbanmba,Tchimbanmba,official,-4.823056,11.876111,CG-5,,
-2210762,-3058183,settlement,Tchibamba,Tchibamba,variant,-4.823056,11.876111,CG-5,,
-2210761,-3058227,hydrographic,"Lac Tchimba","Lac Tchimba",official,-3.937222,11.381111,CG-5,,
-2210760,-3058226,hydrographic,Tchimagni,Tchimagni,official,-4.833333,11.866667,CG-5,,
-2210759,-3058225,settlement,Tchimagni,Tchimagni,official,-4.806111,11.895556,CG-5,,
-2210758,-3058224,settlement,Tchilounga,Tchilounga,official,-3.366667,12.466667,CG-9,,
-2210757,-3058223,hypsographic,Tchiloulou,Tchiloulou,official,-4.75,11.883333,CG-5,,
-2210756,-3058222,settlement,Tchilou,Tchilou,official,-4.783333,11.866667,CG-16,,
-2210755,-3058221,settlement,Tchilonga,Tchilonga,variant,-4.184722,11.411944,CG-5,,
-2210755,74707,settlement,Tchilounga,Tchilounga,official,-4.184722,11.411944,CG-5,,
-2210754,-3058219,hydrographic,Tchilasi,Tchilasi,official,-4.65,11.8,CG-5,,
-2210753,-3058218,settlement,Tchilamana,Tchilamana,official,-3.394722,14.596667,CG-12,,
-2210752,-3058217,settlement,Tchilala,Tchilala,official,-3.233333,12.183333,CG-9,,
-2210751,-3058216,hydrographic,Tchikoutou,Tchikoutou,official,-4.8,11.916667,CG-5,,
-2210750,-3058215,settlement,Tchikoundou-Malela,Tchikoundou-Malela,variant,-4.344722,11.609167,CG-5,,
-2210750,73659,settlement,Tchikoundou,Tchikoundou,official,-4.344722,11.609167,CG-5,,
-2210749,-3058214,settlement,Tchikoudouma,Tchikoudouma,official,-3.366667,12.466667,CG-9,,
-2210748,-3058209,hypsographic,Tchikondo,Tchikondo,official,-4.766667,11.883333,CG-5,,
-2210747,-3058208,hydrographic,"Lac Tchikobo Réservoir","Lac Tchikobo Reservoir",variant,-4.783333,11.85,CG-16,,
-2210747,-3058207,hydrographic,"Lac Tchikobo","Lac Tchikobo",variant,-4.783333,11.85,CG-16,,
-2210747,-3051921,hydrographic,"Chikobe Lagoon","Chikobe Lagoon",variant,-4.783333,11.85,CG-16,,
-2210747,-3058206,hydrographic,Tchikoba,Tchikoba,official,-4.783333,11.85,CG-16,,
-2210747,-3058211,hydrographic,"Lac Tchikopo","Lac Tchikopo",variant,-4.783333,11.85,CG-16,,
-2210746,-3058205,settlement,Tchikissaloko,Tchikissaloko,official,-3.7,12.533333,CG-9,,
-2210745,-3058204,hydrographic,Tchikatanga,Tchikatanga,official,-4.816667,11.85,CG-5,,
-2210744,-3058203,settlement,Tchikanou,Tchikanou,variant,-4.503611,12.081667,CG-5,,
-2210744,68412,settlement,Tsikanou,Tsikanou,official,-4.503611,12.081667,CG-5,,
-2210743,-3058202,hydrographic,Tchifoumbou,Tchifoumbou,official,-4.366667,11.583333,CG-5,,
-2210742,-3058201,hydrographic,"Lac Tchifoubou","Lac Tchifoubou",official,-4.316667,11.616667,CG-5,,
-2210741,-3058200,settlement,Tchiendjili,Tchiendjili,official,-4.6075,12.040833,CG-5,,
-2210740,-3058199,settlement,Tchiendji,Tchiendji,variant,-4.635278,11.832222,CG-5,,
-2210740,73332,settlement,Tchiyèndji,Tchiyendji,official,-4.635278,11.832222,CG-5,,
-2210740,-3058294,settlement,Tiendzi,Tiendzi,variant,-4.635278,11.832222,CG-5,,
-2210739,-3058198,hydrographic,Tchicouma,Tchicouma,official,-3.941111,11.161667,CG-000,,
-2210738,-3058197,hydrographic,Tchicoukouali,Tchicoukouali,official,-3.998611,11.266667,CG-5,,
-2210737,-3058195,settlement,Tchiboula,Tchiboula,official,-4.379167,11.611667,CG-5,,
-2210736,-3058194,hydrographic,Tchibouba,Tchibouba,official,-4.133333,11.366667,CG-5,,
-2210735,-3058193,hydrographic,"Lac Tchibota","Lac Tchibota",official,-4.233333,11.45,CG-5,,
-2210735,-3058189,hydrographic,"Lac Tchibola","Lac Tchibola",variant,-4.233333,11.45,CG-5,,
-2210734,-3058192,settlement,Tchibota,Tchibota,official,-4.783333,11.9,CG-5,,
-2210733,-3058191,settlement,Tchibota,Tchibota,official,-4.226111,11.483056,CG-5,,
-2210732,-3058190,settlement,Tchibondji,Tchibondji,official,-3.918611,11.237778,CG-5,,
-2210731,-3058188,hydrographic,Tchibola,Tchibola,official,-4.583333,11.8,CG-5,,
-2210730,-3058213,hydrographic,"Lagune Tchikoto","Lagune Tchikoto",variant,-3.846389,11.281944,CG-5,,
-2210730,-3058185,hydrographic,"Lac Tchibenda","Lac Tchibenda",official,-3.846389,11.281944,CG-5,,
-2210730,-3058212,hydrographic,"Lac Tchikoto","Lac Tchikoto",variant,-3.846389,11.281944,CG-5,,
-2210730,-3058186,hydrographic,"Lagune Tchibenda","Lagune Tchibenda",variant,-3.846389,11.281944,CG-5,,
-2210730,-3058187,hydrographic,"Lagune Tchibindé","Lagune Tchibinde",variant,-3.846389,11.281944,CG-5,,
-2210729,-3058184,settlement,Tchibangou,Tchibangou,official,-4.333333,11.716667,CG-5,,
-2210728,68413,settlement,Tchibanda,Tchibanda,official,-4.531389,12.094167,CG-5,,
-2210728,-3058182,settlement,Tchibamba,Tchibamba,variant,-4.531389,12.094167,CG-5,,
-2210727,-3058181,settlement,Tchibala,Tchibala,official,-4.696111,11.886667,CG-5,,
-2210726,-3058180,settlement,Tchibala,Tchibala,official,-4.7,11.9,CG-5,,
-2210725,-3058179,settlement,Tchérré,Tcherre,official,-0.088333,14.768056,CG-15,,
-2210725,-3058178,settlement,Tchéré,Tchere,variant,-0.088333,14.768056,CG-15,,
-2210725,-3051919,settlement,Chéré,Chere,variant,-0.088333,14.768056,CG-15,,
-2210724,104442,settlement,Tchikapika,Tchikapika,official,-1.264444,16.180278,CG-8,,
-2210724,-3058177,settlement,Tchékapika,Tchekapika,variant,-1.264444,16.180278,CG-8,,
-2210723,-3058176,settlement,Tchaba,Tchaba,official,-4.1,15.283333,CG-BZV,,
-2210722,-3058175,hypsographic,"Hauteurs de Tatsa","Hauteurs de Tatsa",official,-3.5,15.35,CG-12,,
-2210721,-3058174,settlement,Tatoukila,Tatoukila,official,-3.538611,12.350556,CG-9,,
-2210720,-3058173,hydrographic,Tangui,Tangui,official,-4.693056,14.892778,CG-12,,
-2210720,-3058172,hydrographic,Tangi,Tangi,variant,-4.693056,14.892778,CG-12,,
-2210719,-3058171,hydrographic,Tanganioka,Tanganioka,official,0.633333,15.4,CG-13,,
-2210718,-3058170,hydrographic,Tanga,Tanga,official,1.383889,17.530556,CG-7,,
-2210717,-3058169,settlement,Tanga,Tanga,official,-4.345833,13.646389,CG-11,,
-2210716,73574,settlement,Tandou-Youmbi,Tandou-Youmbi,official,-4.416389,11.690556,CG-5,,
-2210716,-3058168,settlement,"Tandou Youbi","Tandou Youbi",variant,-4.416389,11.690556,CG-5,,
-2210715,-3058167,settlement,"Tandou Mboulou","Tandou Mboulou",official,-4.633333,11.85,CG-5,,
-2210714,-3058166,settlement,"Tandou Mboulou","Tandou Mboulou",official,-4.733333,11.9,CG-5,,
-2210713,-3058165,settlement,"Tandou Mboukou","Tandou Mboukou",official,-3.716667,12.55,CG-9,,
-2210712,-3058164,settlement,"Tandou Matombé","Tandou Matombe",official,-4.633333,11.833333,CG-5,,
-2210711,69018,settlement,"Tenda Bizenzé","Tenda Bizenze",variant,-4.955278,12.081667,CG-5,,
-2210711,-3058163,settlement,Tandou-Binzé,Tandou-Binze,variant,-4.955278,12.081667,CG-5,,
-2210711,69019,settlement,"Tandou Bizenzé","Tandou Bizenze",official,-4.955278,12.081667,CG-5,,
-2210710,-3058282,settlement,"Tendou Bengo","Tendou Bengo",official,-3.835,11.7375,CG-5,,
-2210710,-3058162,settlement,Tandou-Bengo,Tandou-Bengo,variant,-3.835,11.7375,CG-5,,
-2210709,-3058161,settlement,Tandou,Tandou,official,-4.524722,12.120278,CG-5,,
-2210708,-3058160,hydrographic,Tambala,Tambala,official,-3.289167,14.788056,CG-12,,
-2210707,-3058159,hydrographic,Tama,Tama,official,-0.45,14.983333,CG-15,,
-2210706,-3058158,settlement,Tama,Tama,official,-2.5475,13.563333,CG-2,,
-2210705,-3058157,settlement,Talinga,Talinga,official,-3.267778,16.176389,CG-12,,
-2210704,-3058156,settlement,Tala-Tala,Tala-Tala,official,1.9075,15.343333,CG-13,,
-2210703,-3058155,settlement,Tala-Tala,Tala-Tala,official,1.928056,15.319167,CG-13,,
-2210616,-3058045,settlement,Sexcello,Sexcello,official,-3.9525,11.643889,CG-5,,
-2210702,-3058153,hydrographic,Tagabissié,Tagabissie,official,2.033333,14,CG-13,,
-2210701,-3058152,settlement,Tadimosi,Tadimosi,official,-3.277778,12.540833,CG-9,,
-2210700,-3058151,hydrographic,Tadi,Tadi,official,-4.671111,13.230833,CG-9,,
-2210699,-3058150,hydrographic,Tadi,Tadi,official,-4.432222,14.681667,CG-12,,
-2210698,-3058149,hydrographic,Tadi,Tadi,official,-3.649167,12.541944,CG-9,,
-2210697,-3058148,hydrographic,Tabanga,Tabanga,official,-4.655556,14.6125,CG-12,,
-2210696,-3058147,hydrographic,Taba,Taba,official,-4.748611,14.558889,CG-12,,
-2210695,-3058146,hydrographic,"Banc de la Syzygie","Banc de la Syzygie",official,-4.783333,11.816667,CG-5,,
-2210695,-3058145,hydrographic,"Banc de la Syzigie","Banc de la Syzigie",variant,-4.783333,11.816667,CG-5,,
-2210694,-3058141,hydrographic,"Pool Malebo","Pool Malebo",official,-4.19824,15.428843,S1-000,,
-2210694,-3055089,hydrographic,"Malebo Pool","Malebo Pool",variant,-4.19824,15.428843,S1-000,,
-2210694,-3056751,hydrographic,Ncouna,Ncouna,variant,-4.19824,15.428843,S1-000,,
-2210694,-3058140,hydrographic,Stanley-Pool,Stanley-Pool,variant,-4.19824,15.428843,S1-000,,
-2210693,-3058137,hydrographic,Sozé,Soze,official,0.699722,14.460278,CG-15,,
-2210692,-3058135,hydrographic,"Lac Soussou","Lac Soussou",official,-2.75,15.266667,CG-14,,
-2210691,-3058134,hydrographic,Soussou,Soussou,official,-4.116667,12.516667,CG-5,,
-2210690,106901,hypsographic,"Tsou Tsou Ngi","Tsou Tsou Ngi",official,-3.926944,12.471667,CG-9,,
-2210690,106904,hypsographic,"Monts Tsou-Tsou Ngui","Monts Tsou-Tsou Ngui",variant,-3.926944,12.471667,CG-9,,
-2210690,-3058133,hypsographic,"Monts Sousoungui","Monts Sousoungui",variant,-3.926944,12.471667,CG-9,,
-2210689,-3058132,hydrographic,Souou,Souou,official,-4.05,15.283333,CG-BZV,,
-2210688,-3058131,hydrographic,Sounza,Sounza,official,-4.364444,13.323056,CG-11,,
-2210687,-3058129,settlement,Soungou,Soungou,official,-4.193889,12.988889,CG-11,,
-2210686,-3058128,hypsographic,Soundi,Soundi,official,-4.602778,13.189722,CG-9,,
-2210685,-3058127,settlement,Soundi,Soundi,official,-4.040278,13.1,CG-11,,
-2210684,-3058125,settlement,Soumbá-Likoyo,Soumba-Likoyo,variant,-4.571667,12.235,CG-5,,
-2210684,68552,settlement,Movoumba,Movoumba,official,-4.571667,12.235,CG-5,,
-2210683,-3058124,settlement,Sounda,Sounda,official,-4.083333,12.133333,CG-5,,
-2210683,-3054127,settlement,"La Sounda","La Sounda",variant,-4.083333,12.133333,CG-5,,
-2210682,-3058123,hypsographic,"Monts Soulou","Monts Soulou",official,-4.06,13.260833,CG-11,,
-2210681,-3058122,settlement,Soulou,Soulou,official,-4.6725,11.833056,CG-5,,
-2210680,-3058121,settlement,Soulou,Soulou,official,-4.061944,13.085556,CG-11,,
-2210679,-3058120,settlement,Soulou,Soulou,official,-4.056944,13.096111,CG-11,,
-2210678,-3058119,settlement,Soulou,Soulou,official,-4.028889,13.100278,CG-11,,
-2210677,-3058118,settlement,Soukoumané,Soukoumane,variant,-4.564722,12.430833,CG-5,,
-2210677,68706,settlement,Soukoumonié,Soukoumonie,official,-4.564722,12.430833,CG-5,,
-2210676,-3058117,settlement,Soukou-Madingou,Soukou-Madingou,official,-4.139167,13.555278,CG-11,,
-2210675,-3058116,hydrographic,Soukoubouala,Soukoubouala,official,-4.708056,13.544722,CG-11,,
-2210674,-3058115,settlement,Soukou-Bouadi,Soukou-Bouadi,official,-4.504167,13.385833,CG-11,,
-2210673,-3058114,settlement,Souki,Souki,official,-4.8875,14.656389,CG-12,,
-2210672,68709,settlement,Soukomoyo,Soukomoyo,official,-4.562778,12.439167,CG-5,,
-2210672,-3058113,settlement,Sougoumano,Sougoumano,variant,-4.562778,12.439167,CG-5,,
-2210671,-3058111,hydrographic,Soudi,Soudi,official,-2.414167,11.89,CG-9,,
-2210670,-3058110,hydrographic,Soubouanzoa,Soubouanzoa,official,1.55,14.333333,CG-13,,
-2210669,-3058109,hydrographic,Soubou,Soubou,official,3.548056,17.599167,CG-7,,
-2210668,-3058108,settlement,Souassoua,Souassoua,variant,1.575556,16.100556,CG-13,,
-2210668,51704,settlement,Soasoa,Soasoa,official,1.575556,16.100556,CG-13,,
-2210667,-3058106,settlement,"Souanké Maniane","Souanke Maniane",official,2.166667,14.05,CG-13,,
-2210666,-3058107,settlement,Souanke-Semne,Souanke-Semne,variant,2.083333,14.133333,CG-13,,
-2210666,-3058105,settlement,Souanké,Souanke,official,2.083333,14.133333,CG-13,,
-2210666,-3058660,settlement,Zouanké,Zouanke,variant,2.083333,14.133333,CG-13,,
-2210666,-3058144,settlement,Suangué,Suangue,variant,2.083333,14.133333,CG-13,,
-2210665,-3058104,settlement,Souangui,Souangui,official,-3.961944,11.658889,CG-5,,
-2210664,-3058103,settlement,Souangui,Souangui,variant,-2.7875,12.239722,CG-9,,
-2210664,-3058102,settlement,Souangi,Souangi,official,-2.7875,12.239722,CG-9,,
-2210664,-3058130,settlement,Soungui,Soungui,variant,-2.7875,12.239722,CG-9,,
-2210663,-3058101,hydrographic,Souaga,Souaga,official,-3.223056,14.103889,CG-2,,
-2210662,-3058096,hydrographic,Songo,Songo,variant,-4.75,11.85,CG-5,,
-2210662,-3058098,hydrographic,Songolo,Songolo,official,-4.75,11.85,CG-5,,
-2210662,-3058100,hydrographic,Songololo,Songololo,variant,-4.75,11.85,CG-5,,
-2210661,-3058099,hydrographic,"Banc Songolo","Banc Songolo",official,-4.75,11.85,CG-5,,
-2210660,68548,settlement,"Sango Bayoua","Sango Bayoua",official,-4.525556,12.159167,CG-5,,
-2210660,-3058097,settlement,Songo-Bayouha,Songo-Bayouha,variant,-4.525556,12.159167,CG-5,,
-2210659,-3058095,hydrographic,Songo,Songo,official,-4.316667,11.733333,CG-5,,
-2210658,-3058094,settlement,Songho,Songho,official,-2.432222,11.886111,CG-9,,
-2210657,-3058093,settlement,Songa,Songa,official,-4.731111,14.673611,CG-12,,
-2210656,-3058092,hypsographic,Sonanzanza,Sonanzanza,official,-4.701667,13.675556,CG-11,,
-2210655,-3058091,hydrographic,Sombo,Sombo,official,2.685278,17.146667,CG-7,,
-2210654,-3058090,hydrographic,"Somba II","Somba II",official,1.816667,16.15,CG-13,,
-2210653,-3058089,hydrographic,"Somba I","Somba I",official,1.8,16.15,CG-13,,
-2210652,-3058088,hydrographic,Sollo,Sollo,official,-4.033333,11.683333,CG-5,,
-2210651,-3058087,hydrographic,Solassako,Solassako,official,1.95,14.833333,CG-13,,
-2210650,-3058086,hydrographic,Sobola,Sobola,official,1.516667,15.216667,CG-13,,
-2210649,-3058085,settlement,Soasangou,Soasangou,variant,-4.624722,12.225833,CG-5,,
-2210649,68593,settlement,Mvéso,Mveso,official,-4.624722,12.225833,CG-5,,
-2210648,-3058084,hydrographic,Sissingou,Sissingou,official,0.666667,14.366667,CG-15,,
-2210647,-3058083,hydrographic,Sisim,Sisim,official,1.666667,14.583333,CG-13,,
-2210646,-3058082,settlement,Sinkaba,Sinkaba,official,-4.283333,12.45,CG-5,,
-2210645,-3058081,hydrographic,Siniga,Siniga,official,-2.621944,12.764722,CG-9,,
-2210644,58213,settlement,Sinngabanana,Sinngabanana,official,-4.745556,14.633333,CG-12,,
-2210644,-3058080,settlement,Singabanana,Singabanana,variant,-4.745556,14.633333,CG-12,,
-2210643,-3058079,settlement,Singa,Singa,official,2.033333,15.216667,CG-13,,
-2210642,-3058078,settlement,"Sine Bamba","Sine Bamba",official,-4.075278,11.706667,CG-5,,
-2210641,-3058077,settlement,"Sine Bamba","Sine Bamba",official,-3.922778,11.241389,CG-5,,
-2210640,-3058076,hydrographic,Sindi,Sindi,official,-4.55,12.15,CG-5,,
-2210639,-3058075,settlement,Sindéla,Sindela,official,-2.0925,12.7575,CG-9,,
-2210638,-3058074,settlement,Sinansinga,Sinansinga,official,-4.35,12.35,CG-5,,
-2210637,-3058073,spot,Sinabatson,Sinabatson,variant,-4.250556,15.183611,CG-BZV,,
-2210637,-3058071,spot,Simon,Simon,variant,-4.250556,15.183611,CG-BZV,,
-2210637,57553,spot,"Gare Simon","Gare Simon",official,-4.250556,15.183611,CG-BZV,,
-2210637,-3058072,spot,Sinabatsoa,Sinabatsoa,variant,-4.250556,15.183611,CG-BZV,,
-2210636,-3058070,hydrographic,Simé,Sime,official,0.525556,14.526667,CG-15,,
-2210635,-3058069,hypsographic,Simba,Simba,official,-4.733333,11.9,CG-5,,
-2210634,-3058068,settlement,Simba,Simba,official,-2.231667,12.818611,CG-9,,
-2210633,-3058067,settlement,Simba,Simba,official,-2.115833,12.766944,CG-9,,
-2210632,-3058066,settlement,Sima,Sima,official,-2.34,13.635833,CG-2,,
-2210631,-3058065,hydrographic,Sila,Sila,official,-4.056111,12.977778,CG-11,,
-2210630,-3058064,hydrographic,Siki,Siki,official,1.5175,14.39,CG-13,,
-2210629,-3058063,settlement,Sikama-Kamba,Sikama-Kamba,official,-4.233333,12.066667,CG-5,,
-2210628,-3058062,settlement,Sietamapoto,Sietamapoto,official,-3.420278,14.579722,CG-12,,
-2210627,74550,settlement,Sexse,Sexse,variant,-4.115278,11.900833,CG-5,,
-2210627,-3058061,settlement,Sibitou-Kouenda,Sibitou-Kouenda,official,-4.115278,11.900833,CG-5,,
-2210626,-3058060,settlement,Sibititi,Sibititi,official,-4.183333,12.416667,CG-5,,
-2210625,-3058059,settlement,Sibiti,Sibiti,official,-3.685833,13.345833,CG-2,,
-2210625,-3058058,settlement,Sibidi,Sibidi,variant,-3.685833,13.345833,CG-2,,
-2210624,-3058056,hydrographic,Siba,Siba,official,-4.35,12.25,CG-5,,
-2210623,74777,settlement,Sialivakou,Sialivakou,official,-4.035556,11.388056,CG-5,,
-2210623,-3058055,settlement,Sialivako,Sialivako,variant,-4.035556,11.388056,CG-5,,
-2210622,-3058054,settlement,Siala,Siala,official,-4.641389,12.13,CG-5,,
-2210621,-3058053,settlement,Siafounou,Siafounou,variant,-4.729167,11.863611,CG-5,,
-2210621,-3058052,settlement,Siafoumou,Siafoumou,official,-4.729167,11.863611,CG-5,,
-2210620,-3058051,hydrographic,Siaba,Siaba,official,-4.050556,12.459722,CG-5,,
-2210619,-3058050,hydrographic,Sia,Sia,official,-0.310556,14.268611,CG-15,,
-2210618,74539,settlement,Sexo,Sexo,official,-4.134722,11.9275,CG-5,,
-2210618,74538,settlement,Sexse,Sexse,variant,-4.134722,11.9275,CG-5,,
-2210618,-3058047,settlement,Sexso,Sexso,variant,-4.134722,11.9275,CG-5,,
-2210615,-3058044,hypsographic,"Mont Sesou","Mont Sesou",official,-4.066667,12.516667,CG-9,,
-2210614,58195,settlement,Séssé,Sesse,official,-4.752222,14.600833,CG-12,,
-2210614,-3058043,settlement,Sésé,Sese,variant,-4.752222,14.600833,CG-12,,
-2210613,-3058042,hydrographic,Séré,Sere,official,-0.866667,15.116667,CG-000,,
-2210612,-3058041,settlement,Séré,Sere,official,-1.056944,14.884167,CG-15,,
-2210611,-3058040,hydrographic,Sengo,Sengo,official,-4.054722,14.337778,CG-12,,
-2210610,-3058039,hydrographic,Senda,Senda,official,-4.598889,14.549167,CG-12,,
-2210609,-3058038,settlement,Sémo,Semo,official,-3.351389,14.5025,CG-12,,
-2210608,-3058037,hydrographic,Sémiséké,Semiseke,variant,1.95,13.216667,CG-13,,
-2210608,54187,hydrographic,Sémisséké,Semisseke,official,1.95,13.216667,CG-13,,
-2210607,-3058036,hydrographic,Sembo,Sembo,official,-4.718611,13.649167,CG-11,,
-2210606,-3058035,settlement,Sémbé,Sembe,official,1.648056,14.580556,CG-13,,
-2210606,-3058139,settlement,Ssembe,Ssembe,variant,1.648056,14.580556,CG-13,,
-2210605,-3058034,hydrographic,Sembé,Sembe,official,1.860833,14.751111,CG-13,,
-2210605,-3058142,hydrographic,Ssembe,Ssembe,variant,1.860833,14.751111,CG-13,,
-2210604,-3058033,settlement,Sembé,Sembe,official,0.600833,14.638611,CG-15,,
-2210603,-3058032,settlement,Sembé,Sembe,official,0.205556,15.607778,CG-8,,
-2210602,-3058031,settlement,Séléké,Seleke,official,-3.2325,14.588333,CG-12,,
-2210601,-3058029,hydrographic,Séka-Moké,Seka-Moke,official,1.466667,15.483333,CG-13,,
-2210600,-3058028,hydrographic,Séka,Seka,official,1.363056,15.613056,CG-13,,
-2210599,-3058027,hydrographic,Séhé,Sehe,official,2.1,13.85,CG-000,,
-2210598,-3058026,vegetation,"Bois de Sédèk","Bois de Sedek",official,-3.384722,16.148889,CG-12,,
-2210597,-3058025,settlement,Sédèk,Sedek,official,-3.392778,16.171389,CG-12,,
-2210596,-3058024,settlement,Sédèk,Sedek,official,-3.373056,16.186667,CG-12,,
-2210595,-3058023,hypsographic,"Mont Secco-Secco","Mont Secco-Secco",official,-4.416667,12.683333,CG-5,,
-2210594,52104,settlement,Séka,Seka,official,1.568611,15.406389,CG-13,,
-2210594,-3058022,settlement,Seca,Seca,variant,1.568611,15.406389,CG-13,,
-2210593,-3058021,hydrographic,Sé,Se,variant,-1.805833,16.068333,CG-14,,
-2210593,112621,hydrographic,Séé,See,official,-1.805833,16.068333,CG-14,,
-2210592,-3058020,hydrographic,Sbélé,Sbele,official,-0.724722,16.643333,CG-8,,
-2210591,-3057909,hypsographic,"Plage de Pointe Noire","Plage de Pointe Noire",variant,-4.821389,11.847222,CG-5,,
-2210591,-3058019,hypsographic,"Côte Sauvage","Cote Sauvage",official,-4.821389,11.847222,CG-5,,
-2210590,66668,settlement,Tsatou,Tsatou,official,-4.396667,12.863611,CG-9,,
-2210590,-3058018,settlement,"Satou Bouala","Satou Bouala",variant,-4.396667,12.863611,CG-9,,
-2210589,47692,hydrographic,Tapoussa,Tapoussa,official,3.3925,18.075833,CG-7,,
-2210589,-3058017,hydrographic,Sapoussa,Sapoussa,variant,3.3925,18.075833,CG-7,,
-2210588,-3058015,settlement,Sansfil,Sansfil,official,-4.260833,14.363333,CG-12,,
-2210587,68812,settlement,Tchissakata,Tchissakata,official,-4.760556,12.219722,CG-5,,
-2210587,68809,settlement,Tchisakata,Tchisakata,variant,-4.760556,12.219722,CG-5,,
-2210587,-3058014,settlement,Sansa,Sansa,variant,-4.760556,12.219722,CG-5,,
-2210586,-3058013,hydrographic,"Lac Sanpion","Lac Sanpion",official,-3.2375,15.501944,CG-12,,
-2210585,-3058011,settlement,Sango,Sango,official,-2.661944,12.071667,CG-9,,
-2210584,-3058010,settlement,Sango,Sango,official,1.941667,15.299444,CG-13,,
-2210583,-3058009,settlement,Sango,Sango,official,1.556667,15.818056,CG-13,,
-2210581,14076231,administrative_region,Sangha,Sangha,official,1.33333,15.5,CG-13,,
-2210581,-3058004,administrative_region,"Région de la Sangha","Region de la Sangha",variant,1.33333,15.5,CG-13,,
-2210581,14578969,administrative_region,"Département de la Sangha","Departement de la Sangha",official,1.33333,15.5,CG-13,,
-2210581,-3054126,administrative_region,"La Sangha","La Sangha",variant,1.33333,15.5,CG-13,,
-2210581,-3058005,administrative_region,Sangha-Likouala,Sangha-Likouala,variant,1.33333,15.5,CG-13,,
-2210580,171141,hydrographic,Sangha,Sangha,official,-1.217778,16.819167,S1-000,,
-2210580,-3058012,hydrographic,Sannha,Sannha,variant,-1.217778,16.819167,S1-000,,
-2210580,-3057997,hydrographic,Sanga,Sanga,variant,-1.217778,16.819167,S1-000,,
-2210580,-3058138,hydrographic,Ssanga,Ssanga,variant,-1.217778,16.819167,S1-000,,
-2210580,-3053220,hydrographic,Kali,Kali,variant,-1.217778,16.819167,S1-000,,
-2210579,-3058002,settlement,"Sangavimba II","Sangavimba II",official,-4.692778,14.451667,CG-12,,
-2210578,-3058001,settlement,"Sangavimba I","Sangavimba I",official,-4.71,14.445833,CG-12,,
-2210577,-3057999,settlement,Sangamvila,Sangamvila,official,-3.643333,14.3875,CG-12,,
-2210576,-3058000,settlement,"Sanga Vila","Sanga Vila",official,-4.174167,14.696111,CG-12,,
-2210576,-3057998,settlement,Sanga-Mvila,Sanga-Mvila,variant,-4.174167,14.696111,CG-12,,
-2210575,-3057994,hydrographic,Sambolo,Sambolo,official,1.5,15.85,CG-13,,
-2210574,-3057993,settlement,Sambitsou,Sambitsou,official,-1.2,16,CG-000,,
-2210573,-3057992,hydrographic,Samba,Samba,official,-4.262778,11.456389,CG-5,,
-2210572,-3057991,settlement,Salabiakou,Salabiakou,official,-3.608333,14.609167,CG-12,,
-2210571,-3057990,settlement,Sala,Sala,official,-4.381667,13.998333,CG-12,,
-2210570,-3057989,settlement,Sala,Sala,official,-3.048611,12.813333,CG-9,,
-2210569,-3057988,hypsographic,"Monts Sakou","Monts Sakou",official,-4.116389,13.316667,CG-11,,
-2210568,-3057987,settlement,Sako,Sako,official,-2.483333,16.116667,CG-14,,
-2210567,58478,settlement,Sakamèsso,Sakamesso,official,-4.559167,14.625,CG-12,,
-2210567,-3057986,settlement,Sakameso,Sakameso,variant,-4.559167,14.625,CG-12,,
-2210566,-3057985,settlement,Sakala,Sakala,official,-4.361389,13.991944,CG-12,,
-2210565,-3057984,settlement,Saint-Paul,Saint-Paul,official,-4.6125,12.036944,CG-5,,
-2210564,-3057983,settlement,Sainte-Marie,Sainte-Marie,official,-4.436389,11.705,CG-5,,
-2210563,-3057981,settlement,Saint-Benoît,Saint-Benoit,official,-1.023889,15.359444,CG-8,,
-2210562,-3057980,vegetation,"Bois Sah","Bois Sah",official,-3.364167,15.65,CG-12,,
-2210561,-3057979,hydrographic,"Banc du Sagittaire","Banc du Sagittaire",official,-4.783333,11.8,CG-5,,
-2210560,-3057978,hydrographic,Sadiba,Sadiba,official,1.355278,13.664722,CG-13,,
-2210559,-3057977,settlement,Saba,Saba,official,-0.44,15.548056,CG-8,,
-2210558,-3057976,settlement,"Route Eta","Route Eta",official,2.116667,14.05,CG-13,,
-2210557,-3057975,settlement,Roundel,Roundel,variant,1.754167,14.463056,CG-13,,
-2210557,52971,settlement,Boudel,Boudel,official,1.754167,14.463056,CG-13,,
-2210556,-3057974,hydrographic,"Rivière Rouge","Riviere Rouge",official,-4.720556,11.823889,CG-5,,
-2210555,-3057972,spot,"Campement Romono","Campement Romono",official,-4.191944,12.785,CG-9,,
-2210554,-3057969,settlement,Ranzi,Ranzi,official,-2.635556,11.934722,CG-9,,
-2210553,-3057967,settlement,"Quartier Tchinouka","Quartier Tchinouka",official,-4.75,11.866667,CG-5,,
-2210553,-3058247,settlement,Tchinouka,Tchinouka,variant,-4.75,11.866667,CG-5,,
-2210550,-3057964,hydrographic,"Banc du Prometheus","Banc du Prometheus",variant,-4.183333,11.35,CG-5,,
-2210550,-3057963,hydrographic,"Banc du Prométhée","Banc du Promethee",official,-4.183333,11.35,CG-5,,
-2210549,-3057962,settlement,Pouyan,Pouyan,variant,-1.7575,16.041389,CG-14,,
-2210549,103341,settlement,Mpouaya,Mpouaya,official,-1.7575,16.041389,CG-14,,
-2210548,-3057961,hydrographic,Pouva,Pouva,official,-4.15,12.033333,CG-5,,
-2210547,-3057960,settlement,Poussou,Poussou,variant,-1.305556,15.718611,CG-14,,
-2210547,116540,settlement,Pousou,Pousou,official,-1.305556,15.718611,CG-14,,
-2210546,-3057959,settlement,Pousamay,Pousamay,official,2.966667,17.416667,CG-7,,
-2210545,-3057958,hydrographic,Poupouro,Poupouro,official,-3.783333,12.583333,CG-9,,
-2210544,-3057957,settlement,Pounou,Pounou,variant,-1.977778,16.041667,CG-14,,
-2210544,103020,settlement,Mpounou,Mpounou,official,-1.977778,16.041667,CG-14,,
-2210543,-3057956,settlement,Pounou,Pounou,official,-1.869722,15.9925,CG-14,,
-2210542,-3057955,settlement,Poungou-Poungou,Poungou-Poungou,official,-2.048889,12.715556,CG-9,,
-2210541,-3057954,settlement,Poungou,Poungou,official,-2.068333,12.741667,CG-9,,
-2210540,-3057953,hydrographic,Pounga,Pounga,official,-2.828889,14.186111,CG-2,,
-2210539,-3057918,settlement,Ponga,Ponga,variant,-4.268056,12.467222,CG-5,,
-2210539,-3052716,settlement,Girard,Girard,variant,-4.268056,12.467222,CG-5,,
-2210539,-3057952,settlement,Pounga,Pounga,variant,-4.268056,12.467222,CG-5,,
-2210539,68324,settlement,Mpounga,Mpounga,official,-4.268056,12.467222,CG-5,,
-2210538,-3057951,settlement,Poundzou,Poundzou,official,-3.916944,13.186944,CG-2,,
-2210537,-3057950,settlement,Pounamoué,Pounamoue,official,-1.363056,15.930556,CG-14,,
-2210536,-3057949,settlement,Poumou,Poumou,official,-4.151111,14.059444,CG-11,,
-2210535,-3057948,hydrographic,Poumé,Poume,official,1.198611,14.681667,CG-13,,
-2210534,-3057947,settlement,Poumbou,Poumbou,official,-3.4,12.133333,CG-9,,
-2210533,-3057946,settlement,"Poumba Etiouk","Poumba Etiouk",variant,1.993889,13.904167,CG-13,,
-2210533,53908,settlement,Poumba-Ekok,Poumba-Ekok,official,1.993889,13.904167,CG-13,,
-2210532,-3057945,settlement,"Poumba Ekoum","Poumba Ekoum",official,1.661944,13.706667,CG-13,,
-2210531,-3057944,settlement,Poumba,Poumba,official,-4.667222,11.808333,CG-5,,
-2210530,-3057943,settlement,Poumako,Poumako,variant,-3.111111,15.612222,CG-12,,
-2210530,99321,settlement,Mpoumako,Mpoumako,official,-3.111111,15.612222,CG-12,,
-2210529,-3057942,settlement,Poumako,Poumako,official,-3.0925,15.631667,CG-12,,
-2210528,-3057941,settlement,Poulani,Poulani,official,1.326944,15.836111,CG-13,,
-2210527,-3057940,settlement,Pouka,Pouka,official,-2.639167,11.770833,CG-9,,
-2210526,-3057939,settlement,Pouéré-Essengué,Pouere-Essengue,official,-0.763333,16.034167,CG-8,,
-2210525,-3057938,settlement,Pouéré,Pouere,official,-0.7225,15.867222,CG-8,,
-2210524,-3057937,settlement,Poudi,Poudi,official,-3.229722,12.638333,CG-9,,
-2210523,-3057936,settlement,Poudi,Poudi,official,-2.630556,12.138333,CG-9,,
-2210522,-3057935,settlement,Poudi,Poudi,official,-2.598056,12.385278,CG-9,,
-2210521,-3057934,hypsographic,"Plaine de Pouampou","Plaine de Pouampou",official,-3.166667,14.6,CG-12,,
-2210520,-3057933,vegetation,"Bois de Pouambabi","Bois de Pouambabi",official,-3.909444,15.724722,CG-BZV,,
-2210519,-3057932,hydrographic,Poua,Poua,official,-4.630833,13.411944,CG-000,,
-2210519,-3057847,hydrographic,Pao,Pao,variant,-4.630833,13.411944,CG-000,,
-2210518,108473,hydrographic,Mpou,Mpou,official,-2.0525,16.130833,CG-14,,
-2210518,-3057931,hydrographic,Pou,Pou,variant,-2.0525,16.130833,CG-14,,
-2210517,-3057930,hydrographic,Potori,Potori,official,3.3,16.866667,CG-7,,
-2210516,-3057929,settlement,"Poto Poto II","Poto Poto II",official,2.083333,14.066667,CG-13,,
-2210515,-3057928,settlement,Poto-Poto,Poto-Poto,official,-2.908056,11.967222,CG-9,,
-2210514,-3057927,settlement,"Poto Poto","Poto Poto",official,-4.24,15.301389,CG-BZV,,
-2210513,-3057926,settlement,"Poto Poto","Poto Poto",official,-4.130278,14.915833,CG-12,,
-2210512,-3057925,settlement,"Poto Poto","Poto Poto",official,2.083333,14.033333,CG-13,,
-2210511,-3057924,settlement,Poti,Poti,variant,-4.350278,15.0325,CG-BZV,,
-2210511,57386,settlement,Poté,Pote,official,-4.350278,15.0325,CG-BZV,,
-2210510,-3057923,settlement,Posi,Posi,official,-1.1275,15.452778,CG-14,,
-2210509,114161,settlement,Puri,Puri,variant,-1.58,14.789167,CG-8,,
-2210509,-3057922,settlement,Pori,Pori,official,-1.58,14.789167,CG-8,,
-2210508,-3057921,settlement,"Pora Pama","Pora Pama",official,-3.008333,12.059444,CG-9,,
-2210507,-3057920,settlement,Popo,Popo,official,-2.924722,12.621667,CG-9,,
-2210506,14076230,administrative_region,Pool,Pool,official,-3.533333,14.833333,CG-12,,
-2210506,14578968,administrative_region,"Département du Pool","Departement du Pool",official,-3.533333,14.833333,CG-12,,
-2210506,-3054309,administrative_region,"Le Pool","Le Pool",variant,-3.533333,14.833333,CG-12,,
-2210506,-3052137,administrative_region,Djoué,Djoue,variant,-3.533333,14.833333,CG-12,,
-2210506,-3057919,administrative_region,"Région du Pool","Region du Pool",variant,-3.533333,14.833333,CG-12,,
-2210505,-3057917,settlement,Ponga,Ponga,official,1.933333,15.633333,CG-13,,
-2210504,55001,settlement,Pombocho,Pombocho,variant,0.036667,15.596389,CG-8,,
-2210504,-3057916,settlement,Pombosso,Pombosso,official,0.036667,15.596389,CG-8,,
-2210503,-3057914,settlement,Pombo,Pombo,variant,-1.358611,16.276111,CG-14,,
-2210503,-3057915,settlement,Pombo-Bouendza,Pombo-Bouendza,variant,-1.358611,16.276111,CG-14,,
-2210503,103895,settlement,Ponbo,Ponbo,official,-1.358611,16.276111,CG-14,,
-2210502,-3057913,hydrographic,Polo,Polo,official,-2.573889,11.639722,CG-9,,
-2210501,-3057912,hydrographic,Pokossi,Pokossi,official,-4.183333,11.533333,CG-5,,
-2210500,-3057911,hydrographic,Poko,Poko,official,-3.783333,12.25,CG-9,,
-2210499,-3057910,hydrographic,Poko,Poko,official,3.466667,17.75,CG-7,,
-2210498,-3057907,administrative_region,"District de Pointe-Noire","District de Pointe-Noire",variant,-4.783333,11.883333,CG-16,,
-2210498,14578971,administrative_region,Pointe-Noire,Pointe-Noire,official,-4.783333,11.883333,CG-16,,
-2210498,14578970,administrative_region,"Département de la Pointe-Noire","Departement de la Pointe-Noire",official,-4.783333,11.883333,CG-16,,
-2210497,-3051546,hydrographic,"Black Point Bay","Black Point Bay",variant,-4.743333,11.825278,CG-5,,
-2210497,-3057906,hydrographic,"Baie de Pointe-Noire","Baie de Pointe-Noire",official,-4.743333,11.825278,CG-5,,
-2210496,-3057905,settlement,Pointe-Noire,Pointe-Noire,official,-4.794722,11.846111,CG-16,,
-2210495,-3057904,settlement,"Pointe Noire","Pointe Noire",official,1.555556,15.784722,CG-13,,
-2210494,-3057902,hydrographic,"Banc de la Pointe","Banc de la Pointe",official,-4.783333,11.833333,CG-5,,
-2210493,-3057901,hydrographic,Pogodi,Pogodi,official,1.886111,14.753611,CG-13,,
-2210492,-3057900,hydrographic,Poghé,Poghe,official,1.383333,14.066667,CG-13,,
-2210491,-3057899,hydrographic,Pobo,Pobo,official,0.466667,14.683333,CG-15,,
-2210490,-3057898,hydrographic,Pobo,Pobo,variant,0.093889,15.300556,CG-8,,
-2210490,55443,hydrographic,Mpobo,Mpobo,official,0.093889,15.300556,CG-8,,
-2210489,-3057897,hydrographic,Pmougou,Pmougou,official,-4.573611,14.684722,CG-12,,
-2210488,-3057097,administrative_region,Nkeni,Nkeni,variant,-2,15.5,CG-14,,
-2210488,14076229,administrative_region,Plateaux,Plateaux,official,-2,15.5,CG-14,,
-2210488,14578967,administrative_region,"Département des Plateaux","Departement des Plateaux",official,-2,15.5,CG-14,,
-2210488,-3057896,administrative_region,"Région des Plateaux","Region des Plateaux",variant,-2,15.5,CG-14,,
-2210488,-3054187,administrative_region,Lefini,Lefini,variant,-2,15.5,CG-14,,
-2210487,-3057895,hydrographic,Pioli,Pioli,official,-2.868889,12.539722,CG-9,,
-2210486,-3057894,settlement,Pini,Pini,official,-3.730278,13.368889,CG-2,,
-2210485,-3057893,settlement,Pindi,Pindi,official,-4.081111,13.071111,CG-11,,
-2210484,-3057892,settlement,Pinda-Mbigou,Pinda-Mbigou,official,-2.463056,12.144167,CG-9,,
-2210483,-3057890,hydrographic,Pili,Pili,official,-4.016667,11.3,CG-5,,
-2210482,-3057889,settlement,Pikounda,Pikounda,official,0.551944,16.630833,CG-13,,
-2210482,-3057881,settlement,Picounda,Picounda,variant,0.551944,16.630833,CG-13,,
-2210481,-3057888,hydrographic,Pikémokou,Pikemokou,official,-3.651389,14.270556,CG-11,,
-2210480,-3057887,settlement,Pikamandéla,Pikamandela,official,-4.268333,14.570833,CG-12,,
-2210479,-3057886,hypsographic,"Mont Pika","Mont Pika",official,-4.05,14.55,CG-12,,
-2210478,-3057885,hypsographic,"Collines Pika","Collines Pika",official,-4.312778,14.7175,CG-12,,
-2210477,-3057884,hydrographic,Piémé,Pieme,official,-0.25,14.3,CG-15,,
-2210476,-3057883,settlement,Piémé,Pieme,official,-4.186944,14.36,CG-12,,
-2210475,-3057882,settlement,Pié,Pie,official,-3.075278,15.660278,CG-12,,
-2210474,-3057880,hydrographic,"Petit Ngongo","Petit Ngongo",official,-2.708056,11.626111,CG-9,,
-2210473,-3057879,hydrographic,Petit-Miléléké,Petit-Mileleke,official,1.266667,15.883333,CG-13,,
-2210472,-3057878,settlement,"Petit Kimoele","Petit Kimoele",official,-4.466667,12.95,CG-9,,
-2210471,-3057876,hydrographic,"Petite Kivouba","Petite Kivouba",official,-4.616667,12.15,CG-5,,
-2210470,57843,hypsographic,"Mont Gara","Mont Gara",official,-4.115833,15.468333,CG-BZV,,
-2210470,-3057875,hypsographic,"Petite Gara","Petite Gara",variant,-4.115833,15.468333,CG-BZV,,
-2210469,-3057874,vegetation,"Réserve Forestière Petit Bangou","Reserve Forestiere Petit Bangou",official,-3.861667,14.849167,CG-12,,
-2210468,-3057873,hypsographic,Peso,Peso,official,-4.580556,13.008333,CG-9,,
-2210467,-3057872,settlement,Pésamoto,Pesamoto,official,2.016667,15.183333,CG-13,,
-2210466,-3057871,settlement,Peola,Peola,official,-4.108056,14.811667,CG-12,,
-2210465,-3057870,hypsographic,"Mont Pengo","Mont Pengo",official,-3.983333,12.45,CG-9,,
-2210464,-3057869,settlement,Pengi,Pengi,official,-3.949722,14.025833,CG-11,,
-2210464,-3056617,settlement,Mpengui,Mpengui,variant,-3.949722,14.025833,CG-11,,
-2210463,-3057868,hydrographic,Penda,Penda,official,3.533333,18.033333,CG-7,,
-2210462,-3057867,settlement,Pémo,Pemo,official,-2.854722,12.565556,CG-9,,
-2210461,-3057866,settlement,Pémo,Pemo,official,-2.554444,12.293056,CG-9,,
-2210460,-3057865,settlement,Pemo,Pemo,official,-2.803889,11.881111,CG-9,,
-2210459,50897,spot,Bembé,Bembe,official,1.216111,16.540833,CG-13,,
-2210459,-3057864,spot,Pembé,Pembe,variant,1.216111,16.540833,CG-13,,
-2210458,-3057863,hydrographic,Pemba,Pemba,official,-4.379444,14.766389,CG-12,,
-2210457,-3057861,spot,"Gare de Patra",GaredePatra,official,-4.738611,11.952222,CG-5,,
-2210457,20332392,spot,Patra,Patra,official,-4.738611,11.952222,CG-5,,
-2210456,-3057860,settlement,Patra,Patra,official,-4.733056,11.9525,CG-5,,
-2210455,-3057859,settlement,Pati,Pati,official,-4.450278,14.529167,CG-12,,
-2210454,-3057857,settlement,Passimoni,Passimoni,official,-4.2,11.9,CG-5,,
-2210453,-3057856,settlement,"Passibé Nzomossi","Passibe Nzomossi",variant,-4.079167,12.914167,CG-11,,
-2210453,66995,settlement,Nzomosi,Nzomosi,official,-4.079167,12.914167,CG-11,,
-2210452,-3057855,hypsographic,"Île du Passage","Ile du Passage",official,3.333333,18.65,CG-7,,
-2210451,116370,settlement,Mpasa,Mpasa,official,-1.455833,15.889722,CG-14,,
-2210451,-3057854,settlement,Passa,Passa,variant,-1.455833,15.889722,CG-14,,
-2210450,-3057853,settlement,Pasitolo,Pasitolo,variant,-4.010278,14.697222,CG-12,,
-2210450,59308,settlement,Passitolo,Passitolo,official,-4.010278,14.697222,CG-12,,
-2210449,-3057852,settlement,Pasipé,Pasipe,official,-4.092222,13.0725,CG-11,,
-2210448,-3057851,settlement,Paris,Paris,official,-4.745278,14.690556,CG-12,,
-2210447,-3057850,settlement,Paris,Paris,official,-4.263333,14.168889,CG-12,,
-2210446,-3057849,hydrographic,Papaye,Papaye,official,0.1,14.933333,CG-15,,
-2210445,-3057848,settlement,Papaye,Papaye,official,0.121111,14.89,CG-15,,
-2210444,-3057846,settlement,Pangui-Boulou,Pangui-Boulou,official,-4.416667,12.383333,CG-5,,
-2210443,66605,settlement,Pangi,Pangi,official,-4.446111,12.909444,CG-9,,
-2210443,-3057845,settlement,Pangui,Pangui,variant,-4.446111,12.909444,CG-9,,
-2210442,-3057844,settlement,Pangui,Pangui,official,-3.75,12.566667,CG-9,,
-2210441,-3057843,hydrographic,Pangou,Pangou,official,-4.264722,13.925,CG-11,,
-2210440,-3057842,settlement,Pangou,Pangou,official,-4.665278,14.453611,CG-12,,
-2210439,-3057840,settlement,Pango,Pango,official,0.150278,16.056944,CG-8,,
-2210438,-3057838,hypsographic,"Massif de Pangala","Massif de Pangala",variant,-4.362778,13.581944,CG-11,,
-2210438,-3057839,hypsographic,"Monts de Pangala","Monts de Pangala",official,-4.362778,13.581944,CG-11,,
-2210437,-3057837,hydrographic,Pangala,Pangala,official,1.533333,15.266667,CG-13,,
-2210436,-3057836,settlement,Pangala,Pangala,official,-4.018889,13.861667,CG-11,,
-2210435,-3057835,settlement,Pangala,Pangala,official,-3.316389,14.574167,CG-12,,
-2210434,-3057841,settlement,Pangola,Pangola,variant,2.233333,17.616667,CG-7,,
-2210434,-3057834,settlement,Pangala,Pangala,official,2.233333,17.616667,CG-7,,
-2210434,-3056749,settlement,Ncossa,Ncossa,variant,2.233333,17.616667,CG-7,,
-2210433,-3057833,settlement,Panga,Panga,official,-4.733333,11.883333,CG-5,,
-2210432,-3057832,settlement,Panga,Panga,official,-4.336944,13.634167,CG-11,,
-2210431,-3057831,settlement,Panga,Panga,variant,-4.087222,12.934444,CG-11,,
-2210431,66986,settlement,"Kimanza Panga","Kimanza Panga",official,-4.087222,12.934444,CG-11,,
-2210430,-3057830,settlement,Panga,Panga,official,-3.244444,12.0075,CG-9,,
-2210429,-3057829,settlement,Panga,Panga,official,-2.8575,11.938333,CG-9,,
-2210428,-3057828,settlement,Pandji,Pandji,variant,-4.578056,11.830556,CG-5,,
-2210428,73456,settlement,"Pandji Bouéti","Pandji Boueti",official,-4.578056,11.830556,CG-5,,
-2210427,-3057827,settlement,Pandil,Pandil,variant,-4.006389,13.981111,CG-11,,
-2210427,63987,settlement,"Pandi I","Pandi I",official,-4.006389,13.981111,CG-11,,
-2210426,-3057826,hydrographic,Pandi,Pandi,official,-0.346667,15.762222,CG-8,,
-2210425,-3057825,settlement,Pandi,Pandi,official,-3.843056,14.103611,CG-11,,
-2210424,-3051237,hydrographic,Bandama,Bandama,variant,1.783889,15.876111,CG-13,,
-2210424,-3057824,hydrographic,Pandama,Pandama,official,1.783889,15.876111,CG-13,,
-2210423,-3057823,settlement,Pandama,Pandama,official,1.783333,15.916667,CG-13,,
-2210381,-3057776,hydrographic,Oyeba,Oyeba,variant,0.201944,15.641389,CG-8,,
-2210422,-3057822,hydrographic,Pandaka,Pandaka,official,0.626111,14.930833,CG-15,,
-2210421,-3057821,settlement,Panda,Panda,official,-3.663611,13.413611,CG-2,,
-2210420,-3057820,settlement,Pampoko,Pampoko,official,-1.75,16.466667,CG-000,,
-2210419,99180,settlement,Pamba,Pamba,official,-0.278333,15.82,CG-8,,
-2210419,-3057819,settlement,Pambo,Pambo,variant,-0.278333,15.82,CG-8,,
