wgdPlaceId,wgdId,type,name,fullName,nameType,latitude,longitude,administrationGroup,isHistorical,isCapital
-3112228,-4398283,hydrographic,"Khawr Umm Qaşr","Khawr Umm Qasr",official,30.000519,47.960997,KW-000,,
-3112700,10456673,hydrographic,"خور الزبير","خور الزبير",unknown,29.994583,48.012239,S1-000,,
-3112700,-4399133,hydrographic,"Hawr az Zubayr","Hawr az Zubayr",variant,29.994583,48.012239,S1-000,,
-3112700,18360065,hydrographic,"Khūr az Zubayr","Khur az Zubayr",official,29.994583,48.012239,S1-000,,
-3112700,-4378582,hydrographic,"Hawr ‘Abd Allāh","Hawr `Abd Allah",variant,29.994583,48.012239,S1-000,,
-3112700,-4399119,hydrographic,"Khor Zubair","Khor Zubair",variant,29.994583,48.012239,S1-000,,
-3112700,11320621,hydrographic,"Khor az Zubayr","Khor az Zubayr",variant,29.994583,48.012239,S1-000,,
-3112228,-4398325,hydrographic,"Khor Um Qasr","Khor Um Qasr",variant,30.000519,47.960997,KW-000,,
-3112228,-4398285,hydrographic,"Khōr Umm Qasr","Khor Umm Qasr",variant,30.000519,47.960997,KW-000,,
-3112700,-4399110,hydrographic,"Khn̈r Zobier","Khnr Zobier",variant,29.994583,48.012239,S1-000,,
-3112700,-4399134,hydrographic,"Khawr az Zubayr","Khawr az Zubayr",official,29.994583,48.012239,S1-000,,
-3110966,-4396284,hydrographic,"Khawr Shityānah","Khawr Shityanah",variant,30.029167,48.075556,S1-000,,
-3110966,-4396172,hydrographic,Shetana,Shetana,variant,30.029167,48.075556,S1-000,,
-3110966,-4396146,hydrographic,"Khawr Shayţānah","Khawr Shaytanah",variant,30.029167,48.075556,S1-000,,
-3110966,-4395921,hydrographic,"Khawr Shaţānah","Khawr Shatanah",official,30.029167,48.075556,S1-000,,
-3110966,-4396173,hydrographic,"Khor Shetana","Khor Shetana",variant,30.029167,48.075556,S1-000,,
-3110966,6485618,hydrographic,"خَوْر شَطَانَة","خور شطانة",unknown,30.029167,48.075556,S1-000,,
-3103946,-4382773,hydrographic,Batain,Batain,variant,30.186031,47.451922,S1-000,,
-3103946,-4383370,hydrographic,Buţayn,Butayn,variant,30.186031,47.451922,S1-000,,
-3103946,-4384686,hydrographic,"El Bātin","El Batin",variant,30.186031,47.451922,S1-000,,
-3103946,-4382789,hydrographic,"Wadi Batin al-Rammah","Wadi Batin al-Rammah",variant,30.186031,47.451922,S1-000,,
-3103946,18373417,hydrographic,"وادي الباطن","وادي الباطن",unknown,30.186031,47.451922,S1-000,,
-3103946,-4382788,hydrographic,"Wādī al Bāţin","Wadi al Batin",official,30.186031,47.451922,S1-000,,
-3103946,18373538,hydrographic,"Wādī al Bāṭin","Wadi al Batin",variant,30.186031,47.451922,S1-000,,
-3103946,-4379747,hydrographic,"Al Batin","Al Batin",variant,30.186031,47.451922,S1-000,,
-3103946,-4379748,hydrographic,"Al Baţn","Al Batn",variant,30.186031,47.451922,S1-000,,
-3102379,-4380084,hydrographic,"Al Ḩulaybah","Al Hulaybah",official,30.05,47.266667,S1-000,,
-3102379,-4386725,hydrographic,Hulaiba,Hulaiba,variant,30.05,47.266667,S1-000,,
-3095791,-4367113,park,Hazaim,Hazaim,variant,28.491387,48.331138,S1-000,,
-3095791,-4359738,park,"Al Ḩuzaym","Al Huzaym",official,28.491387,48.331138,S1-000,,
-3095791,-4359736,park,"Al Huzaim","Al Huzaim",variant,28.491387,48.331138,S1-000,,
-3095791,-4359543,park,"Al Hazaim","Al Hazaim",variant,28.491387,48.331138,S1-000,,
-3095791,124192,park,"Ḩamḑ al Ḩuzaym","Hamd al Huzaym",official,28.491387,48.331138,S1-000,,
-3095791,-4367703,park,Huzeem,Huzeem,variant,28.491387,48.331138,S1-000,,
-3095791,-4367126,park,Ḩazim,Hazim,variant,28.491387,48.331138,S1-000,,
-3095791,-4367699,park,Ḩuzaym,Huzaym,variant,28.491387,48.331138,S1-000,,
-3092884,15503473,hypsographic,"Shibh al Jazīrah al ‘Arabīyah","Shibh al Jazirah al `Arabiyah",official,25,45,S1-000,,
-3092883,-4363787,park,"Bilād al ‘Arab","Bilad al `Arab",official,25,45,S1-000,,
-3092884,11181255,hypsographic,"جزيرة العرب","جزيرة العرب",unknown,25,45,S1-000,,
-3092883,15503254,park,"بلاد العرب","بلاد العرب",unknown,25,45,S1-000,,
-3092883,-4368270,park,"Jazīrat al ‘Arab","Jazirat al `Arab",variant,25,45,S1-000,,
-3092883,-4361700,park,Arabia,Arabia,colloquial,25,45,S1-000,,
-3092884,15503472,hypsographic,"Jazīrat al ‘Arab","Jazirat al `Arab",variant,25,45,S1-000,,
-3092884,15503474,hypsographic,"شبه الجزيرة العربية","شبه الجزيرة العربية",unknown,25,45,S1-000,,
-3092884,-4361702,hypsographic,"Arabian Peninsula","Arabian Peninsula",colloquial,25,45,S1-000,,
-789600,6487309,park,"أَرْض اَلْخَوْر","أرض الخور",unknown,28.645833,48.295556,KW-AH,,
-789837,-1138734,hydrographic,"Mushāsh an Nawā‘imah","Mushash an Nawa`imah",variant,28.615833,48.048333,KW-000,,
-789759,6487153,hydrographic,"مُشَاش خَلِيفَة","مشاش خليفة",unknown,29.266667,48.083333,KW-000,,
-789856,-1138774,hypsographic,"Rās al Qalīya","Ras al Qaliya",variant,28.875,48.291667,KW-000,,
-789774,-1138550,hydrographic,Kuwaykib,Kuwaykib,official,29.483333,47.7,KW-000,,
-789797,-1138636,hydrographic,"Mushāsh Milāḩ","Mushash Milah",variant,29.083333,47.983333,KW-000,,
-789690,-1138200,hydrographic,Dasma,Dasma,variant,29.05,48.05,KW-000,,
-789657,-1138085,hypsographic,"Dhulai‘at al Awāzim","Dhulai`at al Awazim",variant,29.050278,47.6525,KW-000,,
-789918,-1139010,park,"Umm al Falā","Umm al Fala",official,28.766667,48.175,KW-000,,
-789949,-1139126,hydrographic,"Umm Uqsubba","Umm Uqsubba",variant,28.983333,48.166667,KW-000,,
-789629,-1137884,settlement,Al-Sabahiyah,Al-Sabahiyah,variant,29.105833,48.108056,KW-AH,,
-789830,-1138730,park,"Ḩaql Muţribah","Haql Mutribah",official,29.9025,47.283056,KW-000,,
-789610,6487299,park,"حَقْل اَلرَّوْضَتَيْن","حقل الروضتين",unknown,29.90479,47.721773,KW-000,,
-789668,6487241,hydrographic,"مُشَاش اَلْبَحْرَة","مشاش البحرة",unknown,29.033333,48.066667,KW-000,,
-789804,-1137851,hypsographic,"Al Mu‘ayzīlah","Al Mu`ayzilah",variant,28.943056,48.095,KW-000,,
-789942,-1139065,park,"Umm Artta","Umm Artta",variant,29.434444,47.430278,KW-000,,
-789911,-1138997,park,"Udhayri‘ al Ḩamḑ","Udhayri` al Hamd",variant,29.583333,47.583333,KW-000,,
-789730,-1138370,hydrographic,"Mishash Ibn Ausaj","Mishash Ibn Ausaj",variant,28.885833,48.211389,KW-000,,
-789775,-1138555,hydrographic,"Khalīj al Kuwayt","Khalij al Kuwayt",variant,29.431944,47.925556,KW-000,,
-789879,-1138865,road,"Darb ar Ruq‘ī","Darb ar Ruq`i",official,29.133333,47,KW-000,,
-789931,-1139115,hypsographic,"Umm Ruūs","Umm Ruus",variant,29.2,47.55,KW-000,,
-789912,-1138346,park,"Udhayri‘ al Ḩişn","Udhayri` al Hisn",variant,29.566667,47.7,KW-000,,
-789632,-1138043,hydrographic,"Aş Şabrīyah","As Sabriyah",variant,29.883333,47.983333,KW-000,,
-789947,6486971,hydrographic,"أُمّ نِقَّا","أم نقا",unknown,29.95,47.85,KW-000,,
-789744,-1137772,hypsographic,Al-Jadailiat,Al-Jadailiat,variant,29.35,47.8,KW-000,,
-789894,-1137899,hydrographic,"Jlaib Al-Shiukh","Jlaib Al-Shiukh",variant,29.227778,47.908889,KW-000,,
-789707,-1138307,hydrographic,"Fasht al Hadiba","Fasht al Hadiba",variant,29.416667,47.966667,KW-000,,
-789739,-1138414,settlement,"Janūb as Surrah","Janub as Surrah",official,29.269167,47.978056,KW-000,,
-789848,-1138776,park,Qaraa,Qaraa,variant,29.133333,48.1,KW-000,,
-789682,-1138170,hypsographic,"Bubiyan Island","Bubiyan Island",variant,29.769722,48.255556,KW-JA,,
-789798,-1138756,spot,"Port Abdullah","Port Abdullah",variant,29.016944,48.160278,KW-000,,
-789984,-1138107,hypsographic,"Jal Az-Zor","Jal Az-Zor",variant,29.512778,47.8075,KW-000,,
-789744,-1138438,hypsographic,Judaylīyāt,Judayliyat,official,29.35,47.8,KW-000,,
-789674,-1138173,park,"Bunayat Al-Sawaidi","Bunayat Al-Sawaidi",variant,29.115,46.948333,KW-000,,
-789622,-1138016,hydrographic,"Ash Shaqq","Ash Shaqq",variant,28.216944,47.917778,KW-000,,
-789624,-1138922,settlement,Shu‘aybah,Shu`aybah,variant,29.041111,48.1375,KW-000,,
-789884,-1137891,spot,"Al-Salmi Border","Al-Salmi Border",variant,29.1,46.679167,KW-000,,
-789600,-1137962,park,"Arah al Khor","Arah al Khor",variant,28.645833,48.295556,KW-AH,,
-789939,6486979,hydrographic,"أُمّ عِمَارَة اَلرُّقْعِي","أم عمارة الرقعي",unknown,29.133333,47.166667,KW-000,,
-789674,-1138139,park,"Banīyāt as Sawā‘idī","Baniyat as Sawa`idi",official,29.115,46.948333,KW-000,,
-789755,-1138470,spot,Kathma,Kathma,variant,29.421944,47.732778,KW-000,,
-789598,-1137968,hypsographic,"Ra’s al Arḑ","Ra's al Ard",official,29.350833,48.097778,KW-000,,
-789646,6487263,hydrographic,"اَلسُّور اَلشِّمَالِي","السور الشمالي",unknown,28.583333,47.85,KW-000,,
-789852,-1138793,spot,"Qaşr aş Şabīyah","Qasr as Sabiyah",official,29.573333,48.171389,KW-JA,,
-789812,-1138690,hydrographic,Mughairah,Mughairah,variant,29.626111,48.013333,KW-000,,
-789686,-1137709,hypsographic,"Dlay at Al-Dabah","Dlay at Al-Dabah",variant,29.096667,47.562222,KW-000,,
-789762,-1138499,spot,"Ragem Khashman","Ragem Khashman",variant,29.180556,47.851111,KW-000,,
-789685,-1138176,park,Burgan,Burgan,variant,28.918056,47.9775,KW-000,,
-789947,-1139094,hydrographic,"Umm Niqqah","Umm Niqqah",variant,29.95,47.85,KW-000,,
-789813,6487100,hypsographic,مُهَيْزِل,مهيزل,unknown,29.333333,46.85,KW-000,,
-789809,6487104,hydrographic,مُدَيَّرَة,مديرة,unknown,29.55,47.9,KW-000,,
-789699,-1137717,hypsographic,"Shagat Al-Dowaijah","Shagat Al-Dowaijah",variant,29.587778,47.099444,KW-000,,
-789673,6487236,hydrographic,"مُشَاش بَنِيَّة","مشاش بنية",unknown,28.789167,48.140556,KW-000,,
-789902,6487015,hypsographic,"ضُلَيْعَة اَلسُّور","ضليعة السور",unknown,28.570556,47.78,KW-000,,
-789622,-1138027,hydrographic,"Ash Shugg","Ash Shugg",variant,28.216944,47.917778,KW-000,,
-789874,-1138832,spot,"Markaz ar Radīfah","Markaz ar Radifah",official,28.916944,47.551944,KW-000,,
-789626,122569,park,"Ash Shuqayq","Ash Shuqayq",official,28.6925,47.731944,KW-000,,
-789969,-1139145,hydrographic,‘Ushayrij,`Ushayrij,official,29.35,47.8,KW-000,,
-789675,-1138148,hypsographic,"Ra’s al Barshar","Ra's al Barshar",variant,29.581944,48.219444,KW-JA,,
-789781,6487132,spot,"مَدَنِيَّة 1","مدنية 1",unknown,29.15,47.85,KW-000,,
-789796,6487117,hydrographic,"خَوْر اَلْمِلْح","خور الملح",unknown,29.966944,48.097778,KW-000,,
-789694,-1138222,hydrographic,"Thamīlat ad Dughmah","Thamilat ad Dughmah",official,28.816111,47.859722,KW-000,,
-789755,-1138475,spot,Kāz̧imah,Kazimah,official,29.421944,47.732778,KW-000,,
-789709,-1138314,hydrographic,"Sha‘īb al Ḩamāţīyāt","Sha`ib al Hamatiyat",official,29.133333,47.4,KW-000,,
-789852,-1138943,spot,Subaihiya,Subaihiya,variant,29.573333,48.171389,KW-JA,,
-789822,-1138271,spot,"Fort Mushirif","Fort Mushirif",variant,29.283611,48.038611,KW-000,,
-789905,-1138975,hydrographic,"Taylor Rock","Taylor Rock",variant,29.025556,48.575833,KW-000,,
-789876,-1138852,hypsographic,"Ra’s ar Ru’aysīyah","Ra's ar Ru'aysiyah",variant,29.474722,48.311111,KW-KU,,
-789816,-1138700,hydrographic,Murayr,Murayr,official,29.033333,48.1,KW-000,,
-789791,6487122,spot,"مَرْكَز اَلْمَطْلاَع","مركز المطلاع",unknown,29.394444,47.622778,KW-000,,
-789772,-1138546,administrative_region,"Dawlat al Kuwayt","Dawlat al Kuwayt",official,29.5,47.75,KW-000,,
-789700,-1138224,hypsographic,"Ḑulay‘āt al Fawāris","Dulay`at al Fawaris",variant,28.625833,47.815556,KW-000,,
-789927,6486991,hydrographic,"أُمّ اَلْقَشِيش","أم القشيش",unknown,29.35,47.8,KW-000,,
-789901,6487016,hypsographic,"شِقَّة اَلصُّقَيْهِيَّة","شقة الصقيهية",unknown,29.686111,47.105833,KW-000,,
-789636,-1138893,settlement,Salmiyyeh,Salmiyyeh,variant,29.333889,48.076111,KW-000,,
-789757,-1138461,hypsographic,"Ras al Kādhima","Ras al Kadhima",variant,29.3975,47.743056,KW-000,,
-789752,-1138463,settlement,Kaifan,Kaifan,variant,29.341389,47.963333,KW-000,,
-789882,-1138885,spot,Sa‘d,Sa`d,variant,29.432222,48.281389,KW-KU,,
-789627,-1138928,settlement,Shuwaikh,Shuwaikh,variant,29.343611,47.946111,KW-000,,
-789733,-1138381,hypsographic,"Shiqqat Ibn Sugaih","Shiqqat Ibn Sugaih",variant,29.65,47.116667,KW-000,,
-789736,-1138797,hydrographic,Qatādīyah,Qatadiyah,variant,29.25,47.866667,KW-000,,
-789964,6486955,hydrographic,عُرَيْفِجَان,عريفجان,unknown,28.9,48.183333,KW-000,,
-789785,6487128,spot,"مَنَاقِيش 1","مناقيش 1",unknown,28.933333,47.6,KW-000,,
-789970,-1139146,hydrographic,"Qiţ‘atayn ‘Ushayrij","Qit`atayn `Ushayrij",official,29.400833,47.815556,KW-000,,
-789740,6487172,hydrographic,"فَشْت اَلْجَثِر","فشت الجثر",unknown,29.389444,47.733611,KW-000,,
-789611,121179,park,Riksah,Riksah,official,29.498056,47.473056,KW-000,,
-789845,-1138408,hypsographic,"Khabrat al Jalī","Khabrat al Jali",variant,29.646111,47.323056,KW-000,,
-789721,6487190,park,"حِسُو أَلظَبِي","حسو ألظبي",unknown,29.7675,47.713333,KW-000,,
-789858,-1138426,hydrographic,"Jilai‘at Al Harar","Jilai`at Al Harar",variant,28.895278,48.252222,KW-000,,
-789746,6487166,spot,"مَرْكَز جُلْهُم","مركز جلهم",unknown,28.831667,47.601667,KW-000,,
-789668,-1138111,hydrographic,"Mishāsh al Bahara","Mishash al Bahara",variant,29.033333,48.066667,KW-000,,
-789772,-1138522,administrative_region,Koweit,Koweit,variant,29.5,47.75,KW-000,,
-789907,-1138980,hydrographic,"Khabrat ath Thamīlah","Khabrat ath Thamilah",official,29.366667,47.516667,KW-000,,
-789841,6487074,hydrographic,قَابْجِي,قابجي,unknown,29.05,48.066667,KW-000,,
-789812,-1138629,hydrographic,Mghairah,Mghairah,variant,29.626111,48.013333,KW-000,,
-789827,6487086,park,مُطَيْر,مطير,unknown,29.2,46.85,KW-000,,
-789963,6486956,settlement,عُرَيْفِجَان,عريفجان,unknown,28.9,48.183333,KW-000,,
-789658,6487251,hydrographic,"خَبَارِي اَلْعَوَازِم","خباري العوازم",unknown,29.9,47.183333,KW-000,,
-789772,14063831,administrative_region,"Al Kuwayt","Al Kuwayt",official,29.5,47.75,KW-000,,
-789663,-1138097,hydrographic,"Fasht al Ayk","Fasht al Ayk",official,29.75,48.516667,KW-000,,
-789942,-1139080,park,"Umm Irţah","Umm Irtah",variant,29.434444,47.430278,KW-000,,
-789737,-1138405,spot,"Cairn of Jahtán","Cairn of Jahtan",variant,28.9625,47.696111,KW-000,,
-789772,14063832,administrative_region,Kuwait,Kuwait,colloquial,29.5,47.75,KW-000,,
-789632,-1138881,hydrographic,Sabriya,Sabriya,variant,29.883333,47.983333,KW-000,,
-789658,-1138089,hydrographic,"Khabārī al ‘Awāzim","Khabari al `Awazim",official,29.9,47.183333,KW-000,,
-789598,11330993,hypsographic,"رأس الارض","رأس الارض",unknown,29.350833,48.097778,KW-000,,
-789603,-1137979,hypsographic,’Arhaiyah,'Arhaiyah,variant,29.263889,47.633333,KW-000,,
-789602,-1138833,hypsographic,Rahaiyah,Rahaiyah,variant,28.533333,47.916667,KW-000,,
-789607,-1137991,hydrographic,"Ar Rawḑah","Ar Rawdah",official,29.85,47.7,KW-000,,
-789655,-1138080,hydrographic,"Thamīlat al ‘Atūl","Thamilat al `Atul",official,29.033333,48.033333,KW-000,,
-789846,-1138770,hypsographic,"Shiqqat al Qalīb","Shiqqat al Qalib",official,29.599722,47.230833,KW-000,,
-789787,-1138600,hypsographic,"Ra’s al Manqaf","Ra's al Manqaf",official,29.104444,48.139167,KW-000,,
-789748,-1138419,hydrographic,Jawasirah,Jawasirah,variant,29.333333,47.466667,KW-000,,
-789816,-1138606,hydrographic,Marair,Marair,variant,29.033333,48.1,KW-000,,
-789675,11317146,hypsographic,"Rā’s al Barshah","Ra's al Barshah",variant,29.581944,48.219444,KW-JA,,
-789701,6487210,hypsographic,"خَوْر اَلْفَوَارِس","خور الفوارس",unknown,28.585,47.808056,KW-000,,
-789798,-1138645,spot,"Mīnā’ al ‘Abd Allāh","Mina' al `Abd Allah",variant,29.016944,48.160278,KW-000,,
-789624,-1138024,settlement,"Ash Shu‘aiba","Ash Shu`aiba",variant,29.041111,48.1375,KW-000,,
-789972,-1139152,settlement,"‘Ushaysh al Jahrā’","`Ushaysh al Jahra'",official,29.315833,47.663889,KW-000,,
-789736,-1138188,hydrographic,Chadabiyeh,Chadabiyeh,variant,29.25,47.866667,KW-000,,
-789712,6487199,settlement,حَوَلِّي,حولي,unknown,29.332778,48.028611,KW-000,,
-789706,-1137547,hypsographic,"Abrag al Habari","Abrag al Habari",variant,29.484722,46.953333,KW-000,,
-789929,-1139049,hypsographic,"Jazirat Umm an Namil","Jazirat Umm an Namil",variant,29.381667,47.866944,KW-JA,,
-789686,-1138193,hypsographic,"Ḑulay‘at aḑ Ḑab‘","Dulay`at ad Dab`",variant,29.096667,47.562222,KW-000,,
-789737,-1138422,spot,"Rijm al Jihtān","Rijm al Jihtan",variant,28.9625,47.696111,KW-000,,
-789636,-1138049,settlement,"As Sālimīyah","As Salimiyah",official,29.333889,48.076111,KW-000,,
-789945,-1138160,spot,"Bedu Camp","Bedu Camp",variant,29.948611,47.8675,KW-000,,
-789852,-1138792,spot,"Qasr as Sabiya","Qasr as Sabiya",variant,29.573333,48.171389,KW-JA,,
-789652,-1137907,hydrographic,Al-Tarfawe,Al-Tarfawe,variant,29.761944,48.036111,KW-000,,
-789624,-1137900,settlement,Al-Shuaiba,Al-Shuaiba,variant,29.041111,48.1375,KW-000,,
-789900,-1138958,hydrographic,Şūlah,Sulah,official,28.733333,48.316667,KW-000,,
-789621,6487288,park,اَلشِّقّ,الشق,unknown,29.153611,47.480556,KW-000,,
-789610,-1137881,park,Al-Rawdatain,Al-Rawdatain,variant,29.90479,47.721773,KW-000,,
-789606,-1137987,settlement,"Ar Raudha","Ar Raudha",variant,29.324722,48.001389,KW-000,,
-789733,-1138383,hypsographic,"Shaqqat Ibn Şuqayh","Shaqqat Ibn Suqayh",official,29.65,47.116667,KW-000,,
-789801,-1138661,spot,"Mina Saud Terminal","Mina Saud Terminal",variant,28.733333,48.386667,KW-AH,,
-789851,-1138787,hydrographic,"Khabrat Qaşr","Khabrat Qasr",variant,29.283333,47.3,KW-000,,
-789796,-1138640,hydrographic,"Khor al Milha","Khor al Milha",variant,29.966944,48.097778,KW-000,,
-789625,-1137896,hydrographic,Al-Shaniti,Al-Shaniti,variant,28.883333,48.016667,KW-000,,
-789718,-1138342,hydrographic,"Ḩadd al Ḩimārah","Hadd al Himarah",official,28.561111,48.4175,KW-AH,,
-789789,-1138664,hypsographic,Mischan,Mischan,variant,29.484722,48.251389,KW-KU,,
-789701,-1138263,hypsographic,"Khawr al Fawāris","Khawr al Fawaris",official,28.585,47.808056,KW-000,,
-789856,-1138425,hypsographic,"Ra’s al Jilai‘a","Ra's al Jilai`a",variant,28.875,48.291667,KW-000,,
-789843,-1138281,hypsographic,Gahlula,Gahlula,variant,29.296111,47.354444,KW-000,,
-789953,6486966,hydrographic,"ثَمِيلَة أُمّ قُدَيْر","ثميلة أم قدير",unknown,28.947222,47.764444,KW-000,,
-789809,-1138679,hydrographic,Mudayrah,Mudayrah,variant,29.55,47.9,KW-000,,
-789826,6487087,hydrographic,"خَبْرَة اَلْمُطَيْلِي","خبرة المطيلي",unknown,29.391944,47.6025,KW-000,,
-789760,-1138495,hydrographic,"Khabra Khasham al ‘Afri","Khabra Khasham al `Afri",variant,29.35,47.383333,KW-000,,
-789624,-1138920,settlement,Shuaiba,Shuaiba,variant,29.041111,48.1375,KW-000,,
-789611,-1137995,park,"Ar Riksah","Ar Riksah",variant,29.498056,47.473056,KW-000,,
-789603,-1138834,hypsographic,Rahaiyah,Rahaiyah,variant,29.263889,47.633333,KW-000,,
-789636,-1138889,settlement,Salimiyah,Salimiyah,variant,29.333889,48.076111,KW-000,,
-789880,-1138875,hydrographic,"Khawr aş Şabīyah","Khawr as Sabiyah",official,29.641667,48.150556,KW-JA,,
-789770,-1138561,hypsographic,"Little Kabd","Little Kabd",variant,29.105278,47.679722,KW-000,,
-789731,-1138376,hydrographic,"Mushāsh Ibn Dabbūs","Mushash Ibn Dabbus",variant,29.033333,48.016667,KW-000,,
-789772,-1138545,administrative_region,"State of Kuwait","State of Kuwait",colloquial,29.5,47.75,KW-000,,
-789777,-1139177,hypsographic,Jāl-al-Yāh,Jal-al-Yah,variant,29.4925,47.1725,KW-000,,
-789791,-1137859,spot,"Al Mutla","Al Mutla",variant,29.394444,47.622778,KW-000,,
-789901,-1138965,hypsographic,"Shaqqat aş Şuqayhīyah","Shaqqat as Suqayhiyah",variant,29.686111,47.105833,KW-000,,
-789797,6487116,hydrographic,"مُشَاش مِلْح","مشاش ملح",unknown,29.083333,47.983333,KW-000,,
-789862,-1138815,hydrographic,Qurayn,Qurayn,variant,28.766944,48.0325,KW-000,,
-789732,6487180,hydrographic,"ثَمِيلَة إِبْن هَدْبَة","ثميلة إبن هدبة",unknown,29.033333,47.616667,KW-000,,
-789672,6487237,hypsographic,"بَنَايَا اَلْخِيرَان","بنايا الخيران",unknown,28.616667,48.366667,KW-000,,
-789764,-1138504,hypsographic,"Udayri‘ al Khillah","Udayri` al Khillah",official,29.577778,47.326111,KW-000,,
-789613,-1137997,hypsographic,"Ar Ruhail","Ar Ruhail",variant,29.666667,47.033333,KW-000,,
-789883,6487032,hydrographic,صَفَوِي,صفوي,unknown,28.917222,48.048056,KW-000,,
-789978,-1139175,hydrographic,"Mushāsh Wāwī","Mushash Wawi",official,28.55,48.15,KW-000,,
-789638,6487271,park,اَلصِّير,الصير,unknown,29.732222,47.467222,KW-000,,
-789813,11320246,hypsographic,مهيزيل,مهيزيل,unknown,29.333333,46.85,KW-000,,
-789971,-1138204,hypsographic,"Ra’s ad Dawḩah","Ra's ad Dawhah",variant,29.385278,47.844444,KW-KU,,
-789852,-1138795,spot,"Qasr Sabiya","Qasr Sabiya",variant,29.573333,48.171389,KW-JA,,
-789743,-1138435,settlement,Juaidan,Juaidan,variant,28.966667,47.967222,KW-000,,
-789889,-1138923,hydrographic,"Mīnā’ ash Shu‘aybah","Mina' ash Shu`aybah",official,29.044722,48.159167,KW-000,,
-789807,6487106,hydrographic,"كَسْر مُدَيْرَة","كسر مديرة",unknown,28.930556,48.775,KW-000,,
-789756,-1138458,hydrographic,"Dohat Kādhamah","Dohat Kadhamah",variant,29.383889,47.725,KW-000,,
-789868,6487047,hydrographic,"قَلِيب قُرَيْنِيس","قليب قرينيس",unknown,28.809167,47.798611,KW-000,,
-789648,-1138068,hydrographic,"As Surrah","As Surrah",official,29.283333,48.066667,KW-000,,
-789770,-1138450,hypsographic,Kabaidah,Kabaidah,variant,29.105278,47.679722,KW-000,,
-789614,6487295,settlement,اَلرُّمَيْثِيَّة,الرميثية,unknown,29.311667,48.074167,KW-000,,
-789819,-1138707,spot,"Rujm Muşallān","Rujm Musallan",variant,29.066667,47.883333,KW-000,,
-789749,-1138279,park,Gabed,Gabed,variant,29.143611,47.628056,KW-000,,
-789771,6487141,hypsographic,"جَزِيرَة كُبَّر","جزيرة كبر",unknown,29.072222,48.493333,KW-000,,
-789985,6486934,hypsographic,"رَأْس اَلزَّوْر","رأس الزور",unknown,28.743333,48.396389,KW-AH,,
-789954,-1139101,spot,"Umm Quadayr-1","Umm Quadayr-1",variant,28.85,47.683333,KW-000,,
-789886,-1138899,hydrographic,Shamīmah,Shamimah,official,29.7,48.083333,KW-000,,
-789913,122748,hydrographic,"Khabrat al Khillah","Khabrat al Khillah",official,29.569722,47.358889,KW-000,,
-789703,122450,hypsographic,"Jazīrat Faylakā","Jazirat Faylaka",official,29.440556,48.334722,KW-KU,,
-789654,-1137909,hydrographic,Al-Taweel,Al-Taweel,variant,28.966667,47.9,KW-000,,
-789929,-1139029,hypsographic,"Jazīrat Umm al-Namil","Jazirat Umm al-Namil",variant,29.381667,47.866944,KW-JA,,
-789954,-1139073,spot,"Umm Gudair-1","Umm Gudair-1",variant,28.85,47.683333,KW-000,,
-789660,6487249,hypsographic,"جَزِيرَة عَوْهَة","جزيرة عوهة",unknown,29.377778,48.439167,KW-KU,,
-789721,-1138347,park,"Ḩisū az̧ Z̧abī","Hisu az Zabi",variant,29.7675,47.713333,KW-000,,
-789772,-1137815,administrative_region,"Al Kuweit","Al Kuweit",variant,29.5,47.75,KW-000,,
-789598,6487311,hypsographic,"رَأْس اَلأَرْض","رأس الأرض",unknown,29.350833,48.097778,KW-000,,
-789640,6487269,hydrographic,اَلصُّبَيْحِيَّة,الصبيحية,unknown,28.883333,47.916667,KW-000,,
-789881,6487034,hypsographic,"رَأْس اَلصَّبِيَّة","رأس الصبية",unknown,29.513056,48.164167,KW-JA,,
-789737,-1138407,spot,"Rujm al Jahţān","Rujm al Jahtan",official,28.9625,47.696111,KW-000,,
-789811,-1138691,hypsographic,Mughaţţī,Mughatti,official,29.616667,48.083333,KW-000,,
-789986,-1139199,hypsographic,"Ḑulay‘ Zunayf","Dulay` Zunayf",official,28.999444,48.074167,KW-000,,
-789881,-1138990,hypsographic,"Ra’s al Udayniyah","Ra's al Udayniyah",variant,29.513056,48.164167,KW-JA,,
-789604,6487305,park,اَلرَّبْطَة,الربطة,unknown,28.708333,48.158333,KW-000,,
-789930,-1139033,hypsographic,"Umm Al-Ramam","Umm Al-Ramam",variant,29.566667,47.816667,KW-000,,
-789942,6486976,park,"أُمّ أَرْطَة","أم أرطة",unknown,29.434444,47.430278,KW-000,,
-789854,-1138763,hypsographic,"Rās al Qaid","Ras al Qaid",variant,29.797778,48.365833,KW-000,,
-789672,-1138138,hypsographic,Banīyat-al-Khor,Baniyat-al-Khor,variant,28.616667,48.366667,KW-000,,
-789797,-1138591,hydrographic,Malah,Malah,variant,29.083333,47.983333,KW-000,,
-789896,-1138948,hypsographic,Şubayb,Subayb,official,29.581111,48.148056,KW-000,,
-789938,-1139074,hypsographic,"Umm Hjul","Umm Hjul",variant,28.603056,47.709722,KW-000,,
-789726,-1138351,park,Hout,Hout,variant,28.7,49.025,KW-000,,
-789603,495049,hypsographic,"Ar Raḩīyah","Ar Rahiyah",official,29.263889,47.633333,KW-000,,
-789609,-1138845,park,Rhawdatain,Rhawdatain,variant,29.866667,47.716667,KW-000,,
-789615,-1138847,hydrographic,Rnaithiya,Rnaithiya,variant,29.3,48.066667,KW-000,,
-789791,-1137860,spot,"Al-Mutlaa Police Station","Al-Mutlaa Police Station",variant,29.394444,47.622778,KW-000,,
-789922,6486995,hydrographic,"أُمّ اَللِّهُود","أم اللهود",unknown,29.125278,47.852778,KW-000,,
-789977,-1139170,hypsographic,"Warbah Spit","Warbah Spit",official,30.005556,48.185278,KW-JA,,
-789778,-1138568,hypsographic,"Jāl al Liyāḩ","Jal al Liyah",official,29.611389,47.526111,KW-000,,
-789823,6487090,hypsographic,مُصْلاَن,مصلان,unknown,29.033333,47.883333,KW-000,,
-789863,-1138536,hypsographic,"Jazirat Kurein","Jazirat Kurein",variant,29.354444,47.909722,KW-KU,,
-789879,-1137879,road,"Darb Al-Raqie","Darb Al-Raqie",variant,29.133333,47,KW-000,,
-789894,-1138935,hydrographic,"Qalīb ash Shuyūkh","Qalib ash Shuyukh",official,29.227778,47.908889,KW-000,,
-789849,-1138467,hypsographic,"Jezirat Karu","Jezirat Karu",variant,28.817621,48.776375,KW-000,,
-789633,11316739,park,الصبية,الصبية,unknown,29.6,48.116667,KW-000,,
-789722,-1138352,hydrographic,"Mushāsh Ḩubaynān","Mushash Hubaynan",official,28.75,48.25,KW-000,,
-789636,-1138891,settlement,Salmiya,Salmiya,variant,29.333889,48.076111,KW-000,,
-789624,-1138910,settlement,Shauiba,Shauiba,variant,29.041111,48.1375,KW-000,,
-789750,-1138187,hydrographic,"Thamilat Chabd","Thamilat Chabd",variant,29.125833,47.630278,KW-000,,
-789882,6487033,spot,"سَعْد وَ سَعِيد","سعد و سعيد",unknown,29.432222,48.281389,KW-KU,,
-789944,6486974,hydrographic,"أُمّ خُرْجَيْن","أم خرجين",unknown,28.716667,48.183333,KW-000,,
-789971,6486948,hypsographic,"رَأْس عُشَيْرِج","رأس عشيرج",unknown,29.385278,47.844444,KW-KU,,
-789678,-1138157,settlement,Bayān,Bayan,official,29.303198,48.048812,KW-000,,
-789615,6487294,hydrographic,اَلرُّمَيْثِيَّة,الرميثية,unknown,29.3,48.066667,KW-000,,
-789730,-1137954,hydrographic,’Aqailah,'Aqailah,variant,28.885833,48.211389,KW-000,,
-789961,-1139127,hypsographic,"Umm Utwaynii","Umm Utwaynii",variant,29.294167,47.608333,KW-000,,
-789734,121756,hydrographic,"‘Uqlat Ibn Şuqayyah","`Uqlat Ibn Suqayyah",official,29.656944,47.076944,KW-000,,
-789940,-1137559,hydrographic,"Abu Amarat","Abu Amarat",variant,29.116667,47.15,KW-000,,
-789671,6487238,hypsographic,"جَبَل اَلْبَنَايَا","جبل البنايا",unknown,28.659722,48.386667,KW-000,,
-789849,-1138783,hypsographic,"Jazīrat Qārūh","Jazirat Qaruh",official,28.817621,48.776375,KW-000,,
-789954,-1139105,spot,"Umm Qudayr 1","Umm Qudayr 1",official,28.85,47.683333,KW-000,,
-789965,-1137967,hypsographic,"Banaya Araifjan","Banaya Araifjan",variant,28.798889,48.196667,KW-000,,
-789917,-1139008,hydrographic,"Khabrat Umm al ‘Aysh","Khabrat Umm al `Aysh",official,29.768333,47.771944,KW-000,,
-789970,-1138069,hydrographic,"Kita ‘Atain Ushairij","Kita `Atain Ushairij",variant,29.400833,47.815556,KW-000,,
-789733,-1138164,hypsographic,"Shagat Bin Sigiyyah","Shagat Bin Sigiyyah",variant,29.65,47.116667,KW-000,,
-789812,-1138689,hydrographic,Mughaira,Mughaira,variant,29.626111,48.013333,KW-000,,
-789816,6487097,hydrographic,مُرَيْر,مرير,unknown,29.033333,48.1,KW-000,,
-789902,-1138966,hypsographic,"Dhulai‘at as Sur","Dhulai`at as Sur",variant,28.570556,47.78,KW-000,,
-789747,-1138445,hydrographic,Juwaihil,Juwaihil,variant,29.098611,47.827778,KW-000,,
-789838,132348,spot,"Makhfar an Nuwayşīb","Makhfar an Nuwaysib",variant,28.542778,48.389167,KW-AH,,
-789709,-1137750,hydrographic,"Shuaib Al-Hamatiyyat","Shuaib Al-Hamatiyyat",variant,29.133333,47.4,KW-000,,
-789730,-1138371,hydrographic,"Mishāsh Ibn ‘Awasaj","Mishash Ibn `Awasaj",variant,28.885833,48.211389,KW-000,,
-789733,-1138380,hypsographic,"Shiggat Ibn Sugaih","Shiggat Ibn Sugaih",variant,29.65,47.116667,KW-000,,
-789598,11323408,hypsographic,"Rā’s Al-‘Ardh","Ra's Al-`Ardh",variant,29.350833,48.097778,KW-000,,
-789736,-1138190,hydrographic,Chitadiya,Chitadiya,variant,29.25,47.866667,KW-000,,
-789669,-1138123,hydrographic,"Bahra Mawshān","Bahra Mawshan",variant,30.083333,47.416667,KW-000,,
-789787,-1137835,hypsographic,"Al Mangaf","Al Mangaf",variant,29.104444,48.139167,KW-000,,
-789780,6487133,park,لُؤْلُء,لؤلء,unknown,28.646111,49.410556,KW-000,,
-789874,6487041,spot,"مَرْكَز اَلرَّدِيفَة","مركز الرديفة",unknown,28.916944,47.551944,KW-000,,
-789610,-1137994,park,"Ḩaql ar Rawḑatayn","Haql ar Rawdatayn",official,29.90479,47.721773,KW-000,,
-789647,-1138067,spot,"As Surrah","As Surrah",official,29.283333,48.066667,KW-000,,
-789912,-1138994,park,"Udayri‘ al Ḩişn","Udayri` al Hisn",official,29.566667,47.7,KW-000,,
-789625,-1138028,hydrographic,"Ash Shunauţī","Ash Shunauti",variant,28.883333,48.016667,KW-000,,
-789961,6486958,hypsographic,"أُمّ تُوَيْنِج","أم توينج",unknown,29.294167,47.608333,KW-000,,
-789624,-1138025,settlement,"Ash Shu‘aybah","Ash Shu`aybah",official,29.041111,48.1375,KW-000,,
-789943,-1139079,hydrographic,"Khabari Umm Irta","Khabari Umm Irta",variant,29.45,47.416667,KW-000,,
-789762,-1138501,spot,"Rujm Khashmān","Rujm Khashman",official,29.180556,47.851111,KW-000,,
-789872,-1138750,hydrographic,"Fasht Oushair","Fasht Oushair",variant,29.45,47.816667,KW-000,,
-789737,-1138284,spot,"Ragam Gehtan","Ragam Gehtan",variant,28.9625,47.696111,KW-000,,
-789813,-1138693,hypsographic,Muhaizeel,Muhaizeel,variant,29.333333,46.85,KW-000,,
-789980,-1139179,hydrographic,"Qulbān Yāsīn","Qulban Yasin",official,29.283333,47.65,KW-000,,
-789807,-1138575,hydrographic,"Madaira Reef","Madaira Reef",variant,28.930556,48.775,KW-000,,
-789819,146947,spot,"Rujm Muşlān","Rujm Muslan",official,29.066667,47.883333,KW-000,,
-789796,11317158,hydrographic,"Khor al Mileh","Khor al Mileh",variant,29.966944,48.097778,KW-000,,
-789837,6487077,hydrographic,"مُشَاش اَلنُّوَاعِمَة","مشاش النواعمة",unknown,28.615833,48.048333,KW-000,,
-789904,6487013,hypsographic,"تَلّ سُوَيْرَة","تل سويرة",unknown,29.3,47.916667,KW-000,,
-789850,-1138185,hydrographic,Carout,Carout,variant,28.795,48.073056,KW-000,,
-789890,11317599,settlement,شميمة,شميمة,unknown,29.617778,48.150556,KW-JA,,
-789920,-1138469,hypsographic,Kathāthin,Kathathin,variant,29.096389,47.509167,KW-000,,
-789627,-1138933,settlement,Shuwoikh,Shuwoikh,variant,29.343611,47.946111,KW-000,,
-789650,-1138075,hydrographic,"Khabrat al Aţrāf","Khabrat al Atraf",official,29.333333,47.516667,KW-000,,
-789977,6486942,hypsographic,"وَرْبَة سْپِت","وربة سپت",unknown,30.005556,48.185278,KW-JA,,
-789969,6486950,hydrographic,عُشَيْرِج,عشيرج,unknown,29.35,47.8,KW-000,,
-789627,-1137901,settlement,"Al Shuwaikh","Al Shuwaikh",variant,29.343611,47.946111,KW-000,,
-789871,6487044,spot,"قُرَيَّة 1","قرية 1",unknown,28.683333,47.616667,KW-000,,
-789834,6487080,hypsographic,"ضُلَيْع اَلنُّهَيْدَيْن","ضليع النهيدين",unknown,29.233889,48.059722,KW-000,,
-789650,-1138074,hydrographic,"Khabārī al Aţrāf","Khabari al Atraf",variant,29.333333,47.516667,KW-000,,
-789630,6487279,park,اَلصَّابِرِيَّة,الصابرية,unknown,29.840278,47.920833,KW-000,,
-789669,-1138124,hydrographic,"Bahrat Hawshan","Bahrat Hawshan",variant,30.083333,47.416667,KW-000,,
-789617,-1138004,hydrographic,Artawyeh,Artawyeh,variant,28.633333,48.133333,KW-000,,
-789665,-1139183,park,Zaqlah,Zaqlah,variant,29.419167,47.602778,KW-000,,
-789741,6487171,hypsographic,جِرِيشَان,جريشان,unknown,29.966667,47.166667,KW-000,,
-789609,6487300,park,اَلرَّوْضَتَيْن,الروضتين,unknown,29.866667,47.716667,KW-000,,
-789968,-1139142,park,Usharij,Usharij,variant,29.363056,47.785556,KW-000,,
-789748,-1137877,hydrographic,"Al Quwayşirī","Al Quwaysiri",variant,29.333333,47.466667,KW-000,,
-789857,6487058,spot,"قُلَيْعَة اَلْعَبِيد","قليعة العبيد",unknown,28.907222,48.223611,KW-000,,
-789631,-1138039,park,"Ḩaql aş Şābirīyah","Haql as Sabiriyah",variant,29.8,47.833333,KW-000,,
-789741,-1138415,hypsographic,Jarishān,Jarishan,variant,29.966667,47.166667,KW-000,,
-789824,6487089,hydrographic,مُعْتَرِضَة,معترضة,unknown,29.466667,47.733333,KW-000,,
-789920,6486997,hypsographic,"أُمّ اَلْجَثَاثِيل","أم الجثاثيل",unknown,29.096389,47.509167,KW-000,,
-789595,6487313,park,اَلنُّوَيْنِيس,النوينيس,unknown,29.646111,48.020833,KW-JA,,
-789814,6487099,hypsographic,مُجَيْلِس,مجيلس,unknown,29.588611,47.746667,KW-000,,
-789906,6487011,hydrographic,ثَمَامِيَّة,ثمامية,unknown,28.599167,48.122778,KW-000,,
-789959,6486960,spot,"مَرْكَز أُمّ صَفْق","مركز أم صفق",unknown,28.658056,48.100833,KW-000,,
-789981,-1137910,hydrographic,"Hasu Al-Thabi","Hasu Al-Thabi",variant,29.75,47.666667,KW-000,,
-789776,11323516,hypsographic,"Rā’s Al-Liwān","Ra's Al-Liwan",variant,29.392778,48.387222,KW-KU,,
-789941,-1139044,hydrographic,"Khabra Umm Amarat Mahazul","Khabra Umm Amarat Mahazul",variant,29.233333,46.883333,KW-000,,
-789793,-1138623,spot,"Markaz al Mazra‘ah","Markaz al Mazra`ah",official,28.5475,48.115,KW-000,,
-789862,-1139083,hydrographic,"Umm Khurjain","Umm Khurjain",variant,28.766944,48.0325,KW-000,,
-789907,-1137912,hydrographic,"Khibret Al-Thumailah","Khibret Al-Thumailah",variant,29.366667,47.516667,KW-000,,
-789744,-1138402,hypsographic,Jadailiyat,Jadailiyat,variant,29.35,47.8,KW-000,,
-789934,6486984,hypsographic,"أُمّ اَلرُّوَيْسَات","أم الرويسات",unknown,29.583333,47.016667,KW-000,,
-789723,6487188,hydrographic,"مُشَاش هُلَيِّل","مشاش هليل",unknown,28.917778,48.011944,KW-000,,
-789605,-1137986,hypsographic,"Ar Rakhām","Ar Rakham",variant,29.659444,47.904167,KW-JA,,
-789956,-1139109,hypsographic,"Umm Rijm","Umm Rijm",variant,29.382222,47.353056,KW-000,,
-789716,6487195,hydrographic,"خَبْرَة حَوْمَة","خبرة حومة",unknown,29.583333,47.183333,KW-000,,
-789716,-1138326,hydrographic,"Khabra Hauma","Khabra Hauma",variant,29.583333,47.183333,KW-000,,
-789930,-1139051,hypsographic,"Umm ar Rimam","Umm ar Rimam",official,29.566667,47.816667,KW-000,,
-789911,-1138991,park,"Udayra’ al Ḩamḑ","Udayra' al Hamd",variant,29.583333,47.583333,KW-000,,
-789791,-1138724,spot,Muţla‘,Mutla`,variant,29.394444,47.622778,KW-000,,
-789631,11320630,park,"Aş Şābrīyah Oil Field","As Sabriyah Oil Field",variant,29.8,47.833333,KW-000,,
-789895,-1138938,hypsographic,"Khabrat Sidrah","Khabrat Sidrah",official,29.6,47.4,KW-000,,
-789789,-1138612,hypsographic,Mashyān,Mashyan,variant,29.484722,48.251389,KW-KU,,
-789696,-1138230,park,Durrah,Durrah,official,28.8,49.233333,KW-000,,
-789820,6487093,hypsographic,"ضُلَيْعَات مُسَيْعِيد","ضليعات مسيعيد",unknown,29.326667,47.398611,KW-000,,
-789986,6486933,hypsographic,"ضُلَيْع زُنَيْف","ضليع زنيف",unknown,28.999444,48.074167,KW-000,,
-789700,-1138273,hypsographic,"Jabal Fuáris","Jabal Fuaris",variant,28.625833,47.815556,KW-000,,
-789688,-1138196,hydrographic,Ḑārub,Darub,official,29.533056,48.173611,KW-000,,
-789937,6486981,hypsographic,"أُمّ اَلتَّنَك","أم التنك",unknown,29.566667,47.433333,KW-000,,
-789594,132383,settlement,"An Nugayyāt","An Nugayyat",variant,28.943056,48.198611,KW-000,,
-789729,6487183,spot,"مَرْكَز اَلْحُزَيْم","مركز الحزيم",unknown,28.541944,48.2775,KW-000,,
-789599,-1137969,park,"Arḑ ad Dasht","Ard ad Dasht",official,28.858333,48.183333,KW-000,,
-789609,-1138849,park,Rodhatain,Rodhatain,variant,29.866667,47.716667,KW-000,,
-789719,6487192,hypsographic,"رَأْس اَلْحِمَارَة","رأس الحمارة",unknown,28.580833,48.401389,KW-AH,,
-789889,11330734,hydrographic,"ميناء الشعيبة","ميناء الشعيبة",unknown,29.044722,48.159167,KW-000,,
-789646,-1138065,hydrographic,"As Sūr ash Shimālā","As Sur ash Shimala",variant,28.583333,47.85,KW-000,,
-789648,-1137903,hydrographic,Al-Srairat,Al-Srairat,variant,29.283333,48.066667,KW-000,,
-789947,-1139086,hydrographic,"Umm Negga","Umm Negga",variant,29.95,47.85,KW-000,,
-789763,6487149,spot,"خَوْر اَلْمُفَتَّح","خور المفتح",unknown,28.65,48.383333,KW-000,,
-789955,-1139108,hypsographic,"Umm Rijm","Umm Rijm",variant,29.297222,47.677778,KW-000,,
-789650,6487259,hydrographic,"خَبْرَة اَلأَطْرَاف","خبرة الأطراف",unknown,29.333333,47.516667,KW-000,,
-789703,-1138244,hypsographic,"Failakah Island","Failakah Island",variant,29.440556,48.334722,KW-KU,,
-789836,-1138699,settlement,Muqrah,Muqrah,variant,29.3375,48.010556,KW-000,,
-789951,-1139070,hypsographic,"Umm Gudair","Umm Gudair",variant,28.883333,47.716667,KW-000,,
-789971,-1139147,hypsographic,"Ra’s ‘Ushayrij","Ra's `Ushayrij",official,29.385278,47.844444,KW-KU,,
-789863,-1138813,hypsographic,"Jazīrat al Quraiyin","Jazirat al Quraiyin",variant,29.354444,47.909722,KW-KU,,
-789700,-1138270,hypsographic,"Jabal Fnáris","Jabal Fnaris",variant,28.625833,47.815556,KW-000,,
-789953,-1139072,hydrographic,"Thamīlat Umm Gudair","Thamilat Umm Gudair",variant,28.947222,47.764444,KW-000,,
-789606,-1138850,settlement,Rowda,Rowda,variant,29.324722,48.001389,KW-000,,
-789755,-1138485,spot,Khādhāma,Khadhama,variant,29.421944,47.732778,KW-000,,
-789894,-1138773,hydrographic,"Qalīb ash Shuyūkh","Qalib ash Shuyukh",variant,29.227778,47.908889,KW-000,,
-789624,-1138050,settlement,"As Shu‘aiba","As Shu`aiba",variant,29.041111,48.1375,KW-000,,
-789782,-1138587,hypsographic,Mahzool,Mahzool,variant,29.297222,46.84,KW-000,,
-789753,6487159,hydrographic,كَيْفَان,كيفان,unknown,29.316667,48.05,KW-000,,
-789872,-1138826,hydrographic,"Fasht Qushair","Fasht Qushair",variant,29.45,47.816667,KW-000,,
-789911,-1138315,park,"Udhayri‘ al Ḩamḑ","Udhayri` al Hamd",variant,29.583333,47.583333,KW-000,,
-789610,-1138839,park,Raudhatain,Raudhatain,variant,29.90479,47.721773,KW-000,,
-789658,-1137670,hydrographic,"Khabari Al-Awazem","Khabari Al-Awazem",variant,29.9,47.183333,KW-000,,
-789857,-1138806,spot,"Qulay‘at al ‘Abīd","Qulay`at al `Abid",official,28.907222,48.223611,KW-000,,
-789978,-1139173,hydrographic,"Mashash Wawi","Mashash Wawi",variant,28.55,48.15,KW-000,,
-789817,6487096,hypsographic,مُرَيْطِبَة,مريطبة,unknown,29.326389,47.657222,KW-000,,
-789772,-1138541,administrative_region,"Dowlat al Kuwait","Dowlat al Kuwait",variant,29.5,47.75,KW-000,,
-789831,-1138738,hydrographic,"Sha‘īb an Nu‘ayyim","Sha`ib an Nu`ayyim",variant,29.4,47.166667,KW-000,,
-789663,11317140,hydrographic,"Al Ayje","Al Ayje",variant,29.75,48.516667,KW-000,,
-789792,-1138621,spot,"Rijm al Mazara","Rijm al Mazara",variant,29.016667,48.033333,KW-000,,
-789634,6487275,hypsographic,اَلسَّادَّة,السادة,unknown,29.2275,47.444444,KW-000,,
-789665,-1138102,park,"Az Zaqlah","Az Zaqlah",official,29.419167,47.602778,KW-000,,
-789726,6487185,park,"حُوت 1","حوت 1",unknown,28.7,49.025,KW-000,,
-789983,6486936,hydrographic,"دَوْحَة اَلزَّوْر","دوحة الزور",unknown,28.808333,48.316667,KW-000,,
-789834,-1138736,hypsographic,"Daley Nihaideem","Daley Nihaideem",variant,29.233889,48.059722,KW-000,,
-789668,-1138120,hydrographic,"Mishāsh al Baḩrah","Mishash al Bahrah",variant,29.033333,48.066667,KW-000,,
-789852,-1138950,spot,Şubayḩīyah,Subayhiyah,variant,29.573333,48.171389,KW-JA,,
-789935,-1139053,hydrographic,"Khabrat Umm ar Ru’aysāt","Khabrat Umm ar Ru'aysat",variant,29.433333,47.033333,KW-000,,
-789869,-1138812,park,Qurainiya,Qurainiya,variant,29.456111,48.334722,KW-KU,,
-789593,6487315,settlement,اَلنِّجْفَة,النجفة,unknown,29.246389,48.075833,KW-000,,
-789685,-1137706,park,"Al Burqān","Al Burqan",official,28.918056,47.9775,KW-000,,
-789856,-1138805,hypsographic,"Ra’s al Qulay‘ah","Ra's al Qulay`ah",official,28.875,48.291667,KW-000,,
-789598,11323525,hypsographic,"Ra’s Al-Ardh","Ra's Al-Ardh",variant,29.350833,48.097778,KW-000,,
-789822,6487091,spot,"قَصْر مُشْرِف","قصر مشرف",unknown,29.283611,48.038611,KW-000,,
-789929,-1139030,hypsographic,"Umm Al-Nemmel","Umm Al-Nemmel",variant,29.381667,47.866944,KW-JA,,
-789612,11330780,settlement,الرقة,الرقة,unknown,29.145833,48.094722,KW-AH,,
-789618,-1138010,settlement,"Ash Shadādīyah","Ash Shadadiyah",official,29.268056,47.845556,KW-000,,
-789835,6487079,hydrographic,"خَوْر اَلنَّهْم","خور النهم",unknown,28.605556,48.394444,KW-AH,,
-789821,-1138393,hydrographic,"Khabāri Imsai‘d","Khabari Imsai`d",variant,29.283333,47.366667,KW-000,,
-789736,-1138916,hydrographic,Shidadiya,Shidadiya,variant,29.25,47.866667,KW-000,,
-789634,-1137889,hypsographic,Al-Saddah,Al-Saddah,variant,29.2275,47.444444,KW-000,,
-789627,-1138134,settlement,"Bandar Shuwaikh","Bandar Shuwaikh",variant,29.343611,47.946111,KW-000,,
-789615,-1138862,hydrographic,Rumaithiyeh,Rumaithiyeh,variant,29.3,48.066667,KW-000,,
-789757,-1138477,hypsographic,"Ra’s Kāz̧imah","Ra's Kazimah",official,29.3975,47.743056,KW-000,,
-789789,-1138614,hypsographic,"Maskan Island","Maskan Island",variant,29.484722,48.251389,KW-KU,,
-789934,-1139052,hypsographic,"Umm ar Ru’aysāt","Umm ar Ru'aysat",variant,29.583333,47.016667,KW-000,,
-789756,6487156,hydrographic,"دَوْحَة كَاظِمَة","دوحة كاظمة",unknown,29.383889,47.725,KW-000,,
-789973,6486946,spot,"مَخْفَر اَلْوَفْرَة","مخفر الوفرة",unknown,28.645278,47.930556,KW-000,,
-789628,6487281,park,اَلسَّبْعَة,السبعة,unknown,29.594444,48.0975,KW-000,,
-789891,-1138925,hypsographic,"Ḑulay‘ ash Shunayţī","Dulay` ash Shunayti",official,28.858333,48.041667,KW-000,,
-789602,-1138855,hypsographic,Ruhaiyah,Ruhaiyah,variant,28.533333,47.916667,KW-000,,
-789691,-1138236,hydrographic,"Khabra ad Duwish","Khabra ad Duwish",variant,28.858611,47.616389,KW-000,,
-789943,6486975,hydrographic,"خَبْرَة أُمّ إِرْطَة","خبرة أم إرطة",unknown,29.45,47.416667,KW-000,,
-789672,-1138130,hypsographic,"Banāyā al Khīrān","Banaya al Khiran",official,28.616667,48.366667,KW-000,,
-789965,-1139138,hypsographic,"Banāyā ‘Urayfijān","Banaya `Urayfijan",official,28.798889,48.196667,KW-000,,
-789700,6487211,hypsographic,"ضُلَيْعَة اَلْفَوَارِس","ضليعة الفوارس",unknown,28.625833,47.815556,KW-000,,
-789836,-1138743,settlement,Nuqrah,Nuqrah,variant,29.3375,48.010556,KW-000,,
-789822,-1138611,spot,Mashrf,Mashrf,variant,29.283611,48.038611,KW-000,,
-789799,11317867,spot,"Minā’ al Aḩmadi","Mina' al Ahmadi",variant,29.063889,48.141944,KW-000,,
-789921,-1139009,hydrographic,"Khabra Umm al Chithathin","Khabra Umm al Chithathin",variant,29.1325,47.516667,KW-000,,
-789672,-1138137,hypsographic,"Banīyat al Khawr","Baniyat al Khawr",variant,28.616667,48.366667,KW-000,,
-789624,-1138921,settlement,Shua’ibah,Shua'ibah,variant,29.041111,48.1375,KW-000,,
-789767,-1138515,hydrographic,Khwaisat,Khwaisat,variant,29.383333,47.683333,KW-000,,
-789957,121889,park,"Umm Rukaybah","Umm Rukaybah",variant,29.428333,47.753611,KW-000,,
-789793,132361,spot,"Al Mazra‘ah Police Post","Al Mazra`ah Police Post",variant,28.5475,48.115,KW-000,,
-789854,11317643,hypsographic,"راس القيد","راس القيد",unknown,29.797778,48.365833,KW-000,,
-789911,-1137600,park,"Adera Al-Hamadh","Adera Al-Hamadh",variant,29.583333,47.583333,KW-000,,
-789971,-1139151,hypsographic,"Ra’s ‘Ushayriq","Ra's `Ushayriq",variant,29.385278,47.844444,KW-KU,,
-789819,6487094,spot,"رُجْم مُصْلاَن","رجم مصلان",unknown,29.066667,47.883333,KW-000,,
-789603,145743,hypsographic,"Ar Raḩīyyah","Ar Rahiyyah",variant,29.263889,47.633333,KW-000,,
-789952,-1139103,park,"Umm Qudayr","Umm Qudayr",official,28.915,47.72,KW-000,,
-789703,-1138242,hypsographic,"Faijlaka Island","Faijlaka Island",variant,29.440556,48.334722,KW-KU,,
-789920,-1139015,hypsographic,"Umm al Jathāthīl","Umm al Jathathil",official,29.096389,47.509167,KW-000,,
-789965,-1139141,hypsographic,"Banaya ‘Urayfuān","Banaya `Urayfuan",variant,28.798889,48.196667,KW-000,,
-789627,-1138931,settlement,"Shuwaikh Port","Shuwaikh Port",variant,29.343611,47.946111,KW-000,,
-789710,6487201,park,حَمْرَان,حمران,unknown,29.489444,47.770556,KW-000,,
-789776,6487137,hypsographic,"رَأْس اَللِّيوَان","رأس الليوان",unknown,29.392778,48.387222,KW-KU,,
-789812,-1138692,hydrographic,"Qulbān Mughayrah","Qulban Mughayrah",official,29.626111,48.013333,KW-000,,
-789742,6487170,hydrographic,جِرْثَامَة,جرثامة,unknown,29.316667,47.816667,KW-000,,
-789953,-1139069,hydrographic,"Thumailet Umm Gadir","Thumailet Umm Gadir",variant,28.947222,47.764444,KW-000,,
-789957,-1139114,park,"Umm Ruqaybah","Umm Ruqaybah",official,29.428333,47.753611,KW-000,,
-789736,-1138189,hydrographic,Chadadiyah,Chadadiyah,variant,29.25,47.866667,KW-000,,
-789647,-1138794,spot,"Qasr as Sirra","Qasr as Sirra",variant,29.283333,48.066667,KW-000,,
-789819,-1138704,spot,"Rijm Musallam","Rijm Musallam",variant,29.066667,47.883333,KW-000,,
-789928,-1139032,park,"Umm al Qawāţī","Umm al Qawati",official,29.560556,47.460278,KW-000,,
-789796,11323410,hydrographic,"Khur al Milh","Khur al Milh",variant,29.966944,48.097778,KW-000,,
-789683,11317157,hydrographic,"Khor Būbyān","Khor Bubyan",variant,29.995278,48.1625,KW-000,,
-789666,-1138100,hydrographic,"Az Zagla","Az Zagla",variant,29.435556,47.643056,KW-000,,
-789767,-1138514,hydrographic,Khuwaysāt,Khuwaysat,official,29.383333,47.683333,KW-000,,
-789771,-1138530,hypsographic,"Jazīrat Kubbar","Jazirat Kubbar",official,29.072222,48.493333,KW-000,,
-789876,11323424,hypsographic,"Rā’s Allugfah","Ra's Allugfah",variant,29.474722,48.311111,KW-KU,,
-789927,-1139031,hydrographic,"Umm al Qashīsh","Umm al Qashish",official,29.35,47.8,KW-000,,
-789640,-1138058,hydrographic,"Aş Şubayḩīyah","As Subayhiyah",official,28.883333,47.916667,KW-000,,
-789850,-1138784,hydrographic,Qar‘ūţ,Qar`ut,variant,28.795,48.073056,KW-000,,
-789715,-1138335,park,Ḩawmah,Hawmah,official,29.574444,47.108889,KW-000,,
-789853,-1138798,hydrographic,Qaţqaţī,Qatqati,official,29.033333,48.1,KW-000,,
-789608,-1137992,hydrographic,"Ar Rawḑah","Ar Rawdah",official,29.916667,47.666667,KW-000,,
-789617,-1138003,hydrographic,Arţāwīyah,Artawiyah,official,28.633333,48.133333,KW-000,,
-789867,-1138525,hydrographic,"Jleeb Krainees","Jleeb Krainees",variant,28.691111,47.601389,KW-000,,
-789792,6487121,spot,"رُجْم اَلْمَزَارِع","رجم المزارع",unknown,29.016667,48.033333,KW-000,,
-789873,6487042,hydrographic,"خَبْرَة اَلرَّدِيفَة","خبرة الرديفة",unknown,28.910556,47.596111,KW-000,,
-789607,6487302,hydrographic,اَلرَّوْضَة,الروضة,unknown,29.85,47.7,KW-000,,
-789913,-1138390,hydrographic,"Khabra Idaira al Khulla","Khabra Idaira al Khulla",variant,29.569722,47.358889,KW-000,,
-789897,-1138949,hydrographic,Şubayḩ,Subayh,official,28.916667,47.9,KW-000,,
-789844,-1138766,hydrographic,"Qalamat al Manāqīsh","Qalamat al Manaqish",official,28.9525,47.5875,KW-000,,
-789776,-1138562,hypsographic,"Ra’s al Līwān","Ra's al Liwan",official,29.392778,48.387222,KW-KU,,
-789648,-1138055,hydrographic,"As Sirrah","As Sirrah",variant,29.283333,48.066667,KW-000,,
-789886,6487029,hydrographic,شَمِيمَة,شميمة,unknown,29.7,48.083333,KW-000,,
-789608,-1137989,hydrographic,"Ar Raudha","Ar Raudha",variant,29.916667,47.666667,KW-000,,
-789675,-1138146,hypsographic,"Ra’s al Barshah","Ra's al Barshah",official,29.581944,48.219444,KW-JA,,
-789703,-1138266,hypsographic,"Jazīrat Faylakah","Jazirat Faylakah",variant,29.440556,48.334722,KW-KU,,
-789681,6487230,hydrographic,"شَعِيب بِن هَدْمَة","شعيب بن هدمة",unknown,29.064722,47.6,KW-000,,
-789732,-1138378,hydrographic,"Thamīlat Ibn Hadbah","Thamilat Ibn Hadbah",official,29.033333,47.616667,KW-000,,
-789627,-1138133,settlement,"Bandar Shuwaik","Bandar Shuwaik",variant,29.343611,47.946111,KW-000,,
-789652,-1138077,hydrographic,"Aţ Ţarfāwī","At Tarfawi",official,29.761944,48.036111,KW-000,,
-789986,-1139194,hypsographic,"Dhulai Zinaif","Dhulai Zinaif",variant,28.999444,48.074167,KW-000,,
-789907,6487010,hydrographic,"خَبْرَة اَلثَّمِيلَة","خبرة الثميلة",unknown,29.366667,47.516667,KW-000,,
-789664,-1137911,hypsographic,Al-Thahar,Al-Thahar,variant,29.149167,48.043611,KW-000,,
-789620,121168,park,"Ash Shiqāyā","Ash Shiqaya",official,29.178611,46.687778,KW-000,,
-789738,-1138412,settlement,"Jalīb ash Shuyūkh","Jalib ash Shuyukh",official,29.266667,47.933333,KW-000,,
-789641,-1138060,hypsographic,"Aş Şulaybīkhāt","As Sulaybikhat",official,29.317222,47.872222,KW-000,,
-789672,-1138131,hypsographic,Banāyah,Banayah,variant,28.616667,48.366667,KW-000,,
-789771,-1138531,hypsographic,Kuber,Kuber,variant,29.072222,48.493333,KW-000,,
-789775,6487138,hydrographic,"جُون اَلْكُوَيْت","جون الكويت",unknown,29.431944,47.925556,KW-000,,
-789618,6487291,settlement,اَلشَّدَادِيَّة,الشدادية,unknown,29.268056,47.845556,KW-000,,
-789730,-1138372,hydrographic,"Mushāsh Ibn ‘Awsaj","Mushash Ibn `Awsaj",official,28.885833,48.211389,KW-000,,
-789608,6487301,hydrographic,اَلرَّوْضَة,الروضة,unknown,29.916667,47.666667,KW-000,,
-789640,-1138944,hydrographic,Subaihīya,Subaihiya,variant,28.883333,47.916667,KW-000,,
-789693,6487218,hydrographic,"خَبْرَة دُعَيْج","خبرة دعيج",unknown,29.457222,47.535,KW-000,,
-789797,-1138635,hydrographic,"Mishāsh Milah","Mishash Milah",variant,29.083333,47.983333,KW-000,,
-789799,-1138648,spot,"Mina al Hahmadi","Mina al Hahmadi",variant,29.063889,48.141944,KW-000,,
-789898,-1138952,spot,"Makhfar aş Şubayḩīyah","Makhfar as Subayhiyah",official,28.868611,47.868889,KW-000,,
-789685,-1137705,park,"Al Burgan","Al Burgan",variant,28.918056,47.9775,KW-000,,
-789650,-1137769,hydrographic,"Khibrat Ali-Atraf","Khibrat Ali-Atraf",variant,29.333333,47.516667,KW-000,,
-789653,6487256,park,اَلطَّوِيل,الطويل,unknown,28.985278,47.851667,KW-000,,
-789943,-1139063,hydrographic,"Khibret Umm Arta","Khibret Umm Arta",variant,29.45,47.416667,KW-000,,
-789767,-1137806,hydrographic,"Al Kuwaisat","Al Kuwaisat",variant,29.383333,47.683333,KW-000,,
-789632,-1138883,hydrographic,Şabrīyah,Sabriyah,variant,29.883333,47.983333,KW-000,,
-789689,132376,hypsographic,"Banīyat ad Dasht","Baniyat ad Dasht",official,28.855,48.195,KW-000,,
-789904,-1138970,hypsographic,"Tal Suwaira","Tal Suwaira",variant,29.3,47.916667,KW-000,,
-789604,-1137985,park,"Ar Rabţah","Ar Rabtah",official,28.708333,48.158333,KW-000,,
-789869,-1138823,park,Quraynīyah,Qurayniyah,official,29.456111,48.334722,KW-KU,,
-789949,-1139124,hydrographic,"Umm Ugsubba","Umm Ugsubba",variant,28.983333,48.166667,KW-000,,
-789798,-1138643,spot,"Mīnā’ ‘Abd Allāh","Mina' `Abd Allah",variant,29.016944,48.160278,KW-000,,
-789821,-1138712,hydrographic,"Khabrat Musay‘īd","Khabrat Musay`id",official,29.283333,47.366667,KW-000,,
-789664,-1137604,hypsographic,"Adh Dhahar","Adh Dhahar",variant,29.149167,48.043611,KW-000,,
-789625,-1138021,hydrographic,"Ash Shinaiti","Ash Shinaiti",variant,28.883333,48.016667,KW-000,,
-789905,505751,hydrographic,"Umm al ‘Aysh","Umm al `Aysh",official,29.025556,48.575833,KW-000,,
-789766,-1138513,spot,Khuwaysāt,Khuwaysat,official,29.376667,47.701944,KW-000,,
-789705,-1138287,hydrographic,Ghadai,Ghadai,variant,29.483333,47.816667,KW-000,,
-789619,-1138903,settlement,Shamiyyeh,Shamiyyeh,variant,29.347222,47.961667,KW-000,,
-789885,-1138894,hypsographic,"Sanām al Baqarah","Sanam al Baqarah",official,28.710278,47.785,KW-000,,
-789603,-1137977,hypsographic,Arhaiya,Arhaiya,variant,29.263889,47.633333,KW-000,,
-789865,-1138818,spot,"Makhfar al Qurayn","Makhfar al Qurayn",official,28.804167,48.034722,KW-000,,
-789847,-1138772,settlement,"Qalīb ash Shuyūkh","Qalib ash Shuyukh",variant,29.258611,47.924167,KW-000,,
-789691,-1137718,hydrographic,"Khibret Al-Dwaish","Khibret Al-Dwaish",variant,28.858611,47.616389,KW-000,,
-789703,-1138755,hypsographic,Pheleechi,Pheleechi,variant,29.440556,48.334722,KW-KU,,
-789863,-1138816,hypsographic,"Jazīrat Qurayn","Jazirat Qurayn",official,29.354444,47.909722,KW-KU,,
-789763,-1137938,spot,"Aminoil Base Camp","Aminoil Base Camp",variant,28.65,48.383333,KW-000,,
-789672,-1137688,hypsographic,"Al Banāyā","Al Banaya",variant,28.616667,48.366667,KW-000,,
-789876,6487039,hypsographic,"رَأْس اَلرُّوَيْسِيَّة","رأس الرويسية",unknown,29.474722,48.311111,KW-KU,,
-789603,-1138858,hypsographic,Ruḩayyah,Ruhayyah,variant,29.263889,47.633333,KW-000,,
-789603,6487306,hypsographic,اَلرَّحِيَّة,الرحية,unknown,29.263889,47.633333,KW-000,,
-789748,-1138449,hydrographic,"Thamīlat al Juwaysirī","Thamilat al Juwaysiri",official,29.333333,47.466667,KW-000,,
-789784,-1137831,hydrographic,"Thumailet Al-Manageesh","Thumailet Al-Manageesh",variant,28.966667,47.566667,KW-000,,
-789806,-1138674,hydrographic,Mubghar,Mubghar,variant,28.6,48.166667,KW-000,,
-789827,-1138722,park,Muţayr,Mutayr,official,29.2,46.85,KW-000,,
-789837,235357,hydrographic,"Mushāsh an Nawā‘imah","Mushash an Nawa`imah",variant,28.615833,48.048333,KW-000,,
-789612,-1137996,settlement,"Ar Riqqah","Ar Riqqah",official,29.145833,48.094722,KW-AH,,
-789803,-1138667,hydrographic,"Khabra Mitiyaha","Khabra Mitiyaha",variant,29.216667,46.95,KW-000,,
-789675,-1138182,hypsographic,"Ra’s al Burshah","Ra's al Burshah",variant,29.581944,48.219444,KW-JA,,
-789949,-1139125,hydrographic,"Umm Uqsubah","Umm Uqsubah",variant,28.983333,48.166667,KW-000,,
-789626,6487283,park,اَلشُّقَيْق,الشقيق,unknown,28.6925,47.731944,KW-000,,
-789883,-1138888,hydrographic,Şafawī,Safawi,official,28.917222,48.048056,KW-000,,
-789915,-1138392,hydrographic,Imghara,Imghara,variant,29.3,47.733333,KW-000,,
-789975,-1139166,hypsographic,"Tall Wārah","Tall Warah",official,29.016667,47.966667,KW-000,,
-789833,-1138733,hypsographic,Nahaldain,Nahaldain,variant,29.273056,47.457778,KW-000,,
-789603,-1137981,hypsographic,Arḩayyah,Arhayyah,variant,29.263889,47.633333,KW-000,,
-789766,-1137805,spot,"Al Kuwaisat","Al Kuwaisat",variant,29.376667,47.701944,KW-000,,
-789636,-1137597,settlement,"Ad Dumna","Ad Dumna",variant,29.333889,48.076111,KW-000,,
-789833,-1138395,hypsographic,Inhaidain,Inhaidain,variant,29.273056,47.457778,KW-000,,
-789724,-1138341,hydrographic,Hilu,Hilu,variant,29.033333,48.05,KW-000,,
-789843,-1138280,hypsographic,Gahailila,Gahailila,variant,29.296111,47.354444,KW-000,,
-789693,-1138220,hydrographic,"Khabrat Du‘ayj","Khabrat Du`ayj",official,29.457222,47.535,KW-000,,
-789697,-1138231,hypsographic,Duwaidat,Duwaidat,variant,28.585,48.396944,KW-000,,
-789754,-1138474,park,Kāz̧imah,Kazimah,official,29.405278,47.745,KW-000,,
-789757,6487155,hypsographic,"رَأْس كَاظِمَة","رأس كاظمة",unknown,29.3975,47.743056,KW-000,,
-789790,-1138725,hydrographic,"Khabra al Mutla","Khabra al Mutla",variant,29.402222,47.632778,KW-000,,
-789720,-1138345,hydrographic,"Bi’r Hirshan","Bi'r Hirshan",variant,28.55,48.133333,KW-000,,
-789653,-1138078,park,"Aţ Ţawīl","At Tawil",official,28.985278,47.851667,KW-000,,
-789846,-1138411,hypsographic,"Shiqqat al Jalīb","Shiqqat al Jalib",variant,29.599722,47.230833,KW-000,,
-789641,-1138959,hypsographic,Sulaibikhat,Sulaibikhat,variant,29.317222,47.872222,KW-000,,
-789674,6487235,park,"بَنِيَّات اَلسَّوَاعِدِي","بنيات السواعدي",unknown,29.115,46.948333,KW-000,,
-789703,-1138245,hypsographic,"Failaka Island","Failaka Island",variant,29.440556,48.334722,KW-KU,,
-789757,-1138459,hypsographic,"Rās Kādhamah","Ras Kadhamah",variant,29.3975,47.743056,KW-000,,
-789771,-1137545,hypsographic,"Ab Kubr Island","Ab Kubr Island",variant,29.072222,48.493333,KW-000,,
-789673,-1138136,hydrographic,"Mushāsh Banīyah","Mushash Baniyah",official,28.789167,48.140556,KW-000,,
-789736,-1138439,hydrographic,Jududiyah,Jududiyah,variant,29.25,47.866667,KW-000,,
-789896,-1138942,hypsographic,Subaibe,Subaibe,variant,29.581111,48.148056,KW-000,,
-789805,6487108,hypsographic,مُبْغِر,مبغر,unknown,28.608333,48.216667,KW-000,,
-789890,6487027,settlement,شُمَيْمَة,شميمة,unknown,29.617778,48.150556,KW-JA,,
-789782,-1138585,hypsographic,Mahazul,Mahazul,variant,29.297222,46.84,KW-000,,
-789921,6486996,hydrographic,"خَبْرَة أُمّ اَلْجَثَاثِيل","خبرة أم الجثاثيل",unknown,29.1325,47.516667,KW-000,,
-789915,-1137931,hydrographic,Amarah,Amarah,variant,29.3,47.733333,KW-000,,
-789680,-1138159,park,"Bayḑat aş Şubayḩīyah","Baydat as Subayhiyah",official,28.865556,47.9175,KW-000,,
-789661,-1138092,hydrographic,"Sha‘īb al ‘Awjā’","Sha`ib al `Awja'",official,29.55,47.683333,KW-000,,
-789955,-1139106,hypsographic,"Umm Rajam","Umm Rajam",variant,29.297222,47.677778,KW-000,,
-789902,-1138211,hypsographic,"Dhulai‘at as Sur","Dhulai`at as Sur",variant,28.570556,47.78,KW-000,,
-789880,6487035,hydrographic,"خَوْر اَلصَّبِيَّة","خور الصبية",unknown,29.641667,48.150556,KW-JA,,
-789764,-1138510,hypsographic,"Udayri‘ al Khullah","Udayri` al Khullah",variant,29.577778,47.326111,KW-000,,
-789642,-1138964,settlement,Suleibikhat,Suleibikhat,variant,29.315278,47.835833,KW-000,,
-789668,-1138121,hydrographic,"Mushāsh al Baḩrah","Mushash al Bahrah",official,29.033333,48.066667,KW-000,,
-789904,-1138971,hypsographic,"Tall Suwairah","Tall Suwairah",variant,29.3,47.916667,KW-000,,
-789765,6487147,hypsographic,"رَوْضَة خُرَيْم","روضة خريم",unknown,29.696667,47.794722,KW-000,,
-789758,6487154,hydrographic,"رَدِيفَة خَبْرَة عَيْدَا","رديفة خبرة عيدا",unknown,29.533333,47.433333,KW-000,,
-789968,-1138009,park,Asheirij,Asheirij,variant,29.363056,47.785556,KW-000,,
-789858,-1138432,hydrographic,"Jlay’at Al-Harar","Jlay'at Al-Harar",variant,28.895278,48.252222,KW-000,,
-789756,-1138460,hydrographic,"Dohat Kādhima","Dohat Kadhima",variant,29.383889,47.725,KW-000,,
-789628,-1138035,park,"As Sab‘ah","As Sab`ah",official,29.594444,48.0975,KW-000,,
-789828,6487085,park,مُطْرِبَة,مطربة,unknown,29.923333,47.258889,KW-000,,
-789631,6487278,park,"حَقْل أَلصَابِرِيَّة","حقل ألصابرية",unknown,29.8,47.833333,KW-000,,
-789930,6486988,hypsographic,"أُمّ اَلرِّمَم","أم الرمم",unknown,29.566667,47.816667,KW-000,,
-789846,6487069,hypsographic,"شِقَّة اَلْقَلِيب","شقة القليب",unknown,29.599722,47.230833,KW-000,,
-789809,-1138682,hydrographic,Mudayyarah,Mudayyarah,official,29.55,47.9,KW-000,,
-789933,6486985,park,"أُمّ اَلرُّوَيْسَات","أم الرويسات",unknown,29.55,47,KW-000,,
-789630,-1138038,park,"Aş Şābirīyah","As Sabiriyah",official,29.840278,47.920833,KW-000,,
-789691,-1138205,hydrographic,"Khabrat ad Dawīsh","Khabrat ad Dawish",variant,28.858611,47.616389,KW-000,,
-789713,-1138329,administrative_region,"Province of Hawali","Province of Hawali",variant,29.3,48.05,KW-HA,,
-789908,-1138981,hydrographic,"Thamīlat ath Tawīlah","Thamilat ath Tawilah",variant,28.661111,48.134722,KW-000,,
-789833,-1138732,hypsographic,Nahaidain,Nahaidain,variant,29.273056,47.457778,KW-000,,
-789650,-1137622,hydrographic,"Khabari al Airaf","Khabari al Airaf",variant,29.333333,47.516667,KW-000,,
-789912,-1138998,park,"Udhayri‘ al Ḩişn","Udhayri` al Hisn",variant,29.566667,47.7,KW-000,,
-789739,6487173,settlement,"جَنُوب اَلسُّرَّة","جنوب السرة",unknown,29.269167,47.978056,KW-000,,
-789651,6487258,spot,"مَرْكَز اَلأَطْرَاف","مركز الأطراف",unknown,29.323611,47.552778,KW-000,,
-789948,6486970,settlement,"أُمّ قَصْبَة","أم قصبة",unknown,28.992222,48.165556,KW-000,,
-789691,-1138428,hydrographic,"Khabrat Jilhim","Khabrat Jilhim",variant,28.858611,47.616389,KW-000,,
-789752,-1138478,settlement,Keefan,Keefan,variant,29.341389,47.963333,KW-000,,
-789906,-1138978,hydrographic,Thamāmīyah,Thamamiyah,official,28.599167,48.122778,KW-000,,
-789938,253561,hypsographic,"Khabrat Umm Ḩujūl","Khabrat Umm Hujul",variant,28.603056,47.709722,KW-000,,
-789867,-1138293,hydrographic,"Jalih Graims","Jalih Graims",variant,28.691111,47.601389,KW-000,,
-789774,-1137809,hydrographic,"Al Kuwaykib","Al Kuwaykib",variant,29.483333,47.7,KW-000,,
-789622,-1137894,hydrographic,Al-Shakk,Al-Shakk,variant,28.216944,47.917778,KW-000,,
-789633,-1138041,park,"Aş Şabīyah","As Sabiyah",official,29.6,48.116667,KW-000,,
-789661,6487248,hydrographic,"شَعِيب اَلْعَوْجَاء","شعيب العوجاء",unknown,29.55,47.683333,KW-000,,
-789952,237558,park,"Ḩaql Nafţ Umm Qadayr","Haql Naft Umm Qadayr",variant,28.915,47.72,KW-000,,
-789699,-1138214,hypsographic,"Shiqqat adh Dhuwaija","Shiqqat adh Dhuwaija",variant,29.587778,47.099444,KW-000,,
-789861,-1138300,hypsographic,Gurain,Gurain,variant,28.77,47.973056,KW-000,,
-789631,-1138882,park,"Sabriya Field","Sabriya Field",variant,29.8,47.833333,KW-000,,
-789851,-1138788,hydrographic,"Khabrat al Qaşr","Khabrat al Qasr",official,29.283333,47.3,KW-000,,
-789619,6487290,settlement,اَلشَّامِيَّة,الشامية,unknown,29.347222,47.961667,KW-000,,
-789723,-1138355,hydrographic,"Mushāsh Hulayyil","Mushash Hulayyil",official,28.917778,48.011944,KW-000,,
-789749,6487163,park,اَلْكَبْد,الكبد,unknown,29.143611,47.628056,KW-000,,
-789707,-1138306,hydrographic,"Fasht al Hadaibah","Fasht al Hadaibah",variant,29.416667,47.966667,KW-000,,
-789863,-1138296,hypsographic,Graine,Graine,variant,29.354444,47.909722,KW-KU,,
-789881,-1138877,hypsographic,"Ra’s aş Şabīyah","Ra's as Sabiyah",official,29.513056,48.164167,KW-JA,,
-789803,-1138668,hydrographic,"Khabra Mitlyaha","Khabra Mitlyaha",variant,29.216667,46.95,KW-000,,
-789925,6486993,hydrographic,"خَبْرَة أُمّ اَلْمَدَافِع","خبرة أم المدافع",unknown,29.8175,47.29,KW-000,,
-789741,-1138434,hypsographic,Jraischan,Jraischan,variant,29.966667,47.166667,KW-000,,
-789926,-1139028,hypsographic,"Jazīrat Umm al Marādim","Jazirat Umm al Maradim",official,28.680249,48.651707,KW-000,,
-789935,-1139061,hydrographic,"Khabrat Umm ar Ruwaysāt","Khabrat Umm ar Ruwaysat",official,29.433333,47.033333,KW-000,,
-789867,-1138821,hydrographic,"Qalīb Quraynīs","Qalib Quraynis",variant,28.691111,47.601389,KW-000,,
-789826,-1138616,hydrographic,"Khabrat Mataili","Khabrat Mataili",variant,29.391944,47.6025,KW-000,,
-789725,-1138358,hydrographic,Ḩunayz̧il,Hunayzil,official,29.2,48.1,KW-000,,
-789689,-1138198,hypsographic,"Banāyā ad Dasht","Banaya ad Dasht",variant,28.855,48.195,KW-000,,
-789894,6487023,hydrographic,"قَلِيب اَلشُّيُوخ","قليب الشيوخ",unknown,29.227778,47.908889,KW-000,,
-789666,-1139181,hydrographic,Zagla,Zagla,variant,29.435556,47.643056,KW-000,,
-789784,-1138656,hydrographic,"Thamilat al Minagish","Thamilat al Minagish",variant,28.966667,47.566667,KW-000,,
-789745,6487167,spot,"مَرْكَز اَلْجُلَيْدَة","مركز الجليدة",unknown,28.546667,48.202778,KW-000,,
-789865,132339,spot,"Al Qurayn Police Post","Al Qurayn Police Post",variant,28.804167,48.034722,KW-000,,
-789978,-1139174,hydrographic,"Mishāsh Wāwī","Mishash Wawi",variant,28.55,48.15,KW-000,,
-789791,-1138697,spot,Multa,Multa,variant,29.394444,47.622778,KW-000,,
-789844,6487071,hydrographic,"قَلَمَة اَلْمَنَاقِيش","قلمة المناقيش",unknown,28.9525,47.5875,KW-000,,
-789632,-1138867,hydrographic,Sābarīyah,Sabariyah,variant,29.883333,47.983333,KW-000,,
-789692,6487219,hypsographic,"دِكَاكَة مِلْوَاح","دكاكة ملواح",unknown,29.478056,47.263333,KW-000,,
-789826,-1138717,hydrographic,"Khabra Mutaili","Khabra Mutaili",variant,29.391944,47.6025,KW-000,,
-789667,-1138246,settlement,"Failakka Village","Failakka Village",variant,29.4425,48.274722,KW-KU,,
-789847,6487068,settlement,"جَلِيب اَلشُّيُوخ","جليب الشيوخ",unknown,29.258611,47.924167,KW-000,,
-789656,6487253,hypsographic,"ضُلَيْعَات اَلأَتْيَاس","ضليعات الأتياس",unknown,28.531111,47.9775,KW-000,,
-789764,6487148,hypsographic,"أُدَيْرِع اَلْخِلَّة","أديرع الخلة",unknown,29.577778,47.326111,KW-000,,
-789642,-1138960,settlement,Sulaibikhat,Sulaibikhat,variant,29.315278,47.835833,KW-000,,
-789863,-1138295,hypsographic,Grain,Grain,variant,29.354444,47.909722,KW-KU,,
-789974,-1139164,hydrographic,War,War,variant,28.983333,47.95,KW-000,,
-789949,6486969,hydrographic,"أُمّ قَصَبَة","أم قصبة",unknown,28.983333,48.166667,KW-000,,
-789976,19802844,hypsographic,Warbah,Warbah,official,29.993889,48.066667,KW-JA,,
-789699,-1138235,hypsographic,"Shiqqat aḑ Ḑuwayjah","Shiqqat ad Duwayjah",official,29.587778,47.099444,KW-000,,
-789931,-1139035,hypsographic,"Umm Al-Roos","Umm Al-Roos",variant,29.2,47.55,KW-000,,
-789630,11320620,park,"Aş Şābrīyah","As Sabriyah",variant,29.840278,47.920833,KW-000,,
-789916,6487001,park,"أُمّ اَلْعَيْش","أم العيش",unknown,29.79,47.644444,KW-000,,
-789927,-1139011,hydrographic,"Umm al Gashish","Umm al Gashish",variant,29.35,47.8,KW-000,,
-789921,-1139017,hydrographic,"Khabrat Umm al Kathāthin","Khabrat Umm al Kathathin",variant,29.1325,47.516667,KW-000,,
-789895,6487022,hypsographic,"خَبْرَة سِدْرَة","خبرة سدرة",unknown,29.6,47.4,KW-000,,
-789708,-1138309,hydrographic,"Baḩrat al Ḩafīrah","Bahrat al Hafirah",official,28.583333,48.25,KW-000,,
-789743,-1138436,settlement,Ju‘aydān,Ju`aydan,official,28.966667,47.967222,KW-000,,
-789934,-1139110,hypsographic,"Umm Ru’aysāt","Umm Ru'aysat",variant,29.583333,47.016667,KW-000,,
-789698,-1138233,settlement,Duwaydāt,Duwaydat,official,28.582778,48.399167,KW-AH,,
-789913,-1138999,hydrographic,"Khabrat Udhayri‘ al Khullah","Khabrat Udhayri` al Khullah",variant,29.569722,47.358889,KW-000,,
-789706,-1138303,hypsographic,"Abrag al Habari","Abrag al Habari",variant,29.484722,46.953333,KW-000,,
-789774,6487139,hydrographic,كُوَيْكِب,كويكب,unknown,29.483333,47.7,KW-000,,
-789610,-1138840,park,Raudhatein,Raudhatein,variant,29.90479,47.721773,KW-000,,
-789889,11330733,hydrographic,"Shuaiba Port","Shuaiba Port",variant,29.044722,48.159167,KW-000,,
-789808,-1138681,park,Mudayyarah,Mudayyarah,official,29.565,47.908333,KW-000,,
-789815,6487098,hydrographic,مُلْكَشِي,ملكشي,unknown,29.333333,47.816667,KW-000,,
-789725,-1138318,hydrographic,Hanaidhit,Hanaidhit,variant,29.2,48.1,KW-000,,
-789870,-1138824,spot,"Qurayn 1","Qurayn 1",official,28.7,48,KW-000,,
-789820,122581,hypsographic,"Ḑulay‘āt Musay‘īd","Dulay`at Musay`id",official,29.326667,47.398611,KW-000,,
-789740,-1138417,hydrographic,"Fasht al Jather","Fasht al Jather",variant,29.389444,47.733611,KW-000,,
-789736,-1138305,hydrographic,Hadadiyyah,Hadadiyyah,variant,29.25,47.866667,KW-000,,
-789843,-1138760,hypsographic,Qahloolah,Qahloolah,variant,29.296111,47.354444,KW-000,,
-789743,6487169,settlement,جُعَيْدَان,جعيدان,unknown,28.966667,47.967222,KW-000,,
-789794,-1138632,hypsographic,"Ḑulay‘ al Mijmad","Dulay` al Mijmad",official,29.450556,47.589444,KW-000,,
-789820,-1139122,hypsographic,"Ḑulay‘at Umm Sa‘īd","Dulay`at Umm Sa`id",variant,29.326667,47.398611,KW-000,,
-789664,-1138101,hypsographic,"Az̧ Z̧ahr","Az Zahr",variant,29.149167,48.043611,KW-000,,
-789890,-1138924,settlement,Shumaymah,Shumaymah,official,29.617778,48.150556,KW-JA,,
-789877,-1138853,hydrographic,"Sha‘īb ar Ruckhām","Sha`ib ar Ruckham",variant,29.733889,48.003333,KW-JA,,
-789785,-1138655,spot,Minagish,Minagish,variant,28.933333,47.6,KW-000,,
-789810,-1138685,hydrographic,"Khor al Mufatta","Khor al Mufatta",variant,28.646111,48.378889,KW-AH,,
-789662,-1137620,hydrographic,"Khabrat ‘Ā’idah","Khabrat `A'idah",official,29.562222,47.408611,KW-000,,
-789747,6487165,hydrographic,"قُلْبَان اَلْجُوَيْهِل","قلبان الجويهل",unknown,29.098611,47.827778,KW-000,,
-789939,-1139046,hydrographic,"Umm Amaret Al Ruqie","Umm Amaret Al Ruqie",variant,29.133333,47.166667,KW-000,,
-789682,-1138171,hypsographic,"Jazīrat Būbyān","Jazirat Bubyan",variant,29.769722,48.255556,KW-JA,,
-789600,-1137970,park,"Arḑ al Khawr","Ard al Khawr",official,28.645833,48.295556,KW-AH,,
-789804,-1138573,hypsographic,Ma‘alizilat,Ma`alizilat,variant,28.943056,48.095,KW-000,,
-789790,-1138617,hydrographic,"Khabrat al Maţlā‘","Khabrat al Matla`",official,29.402222,47.632778,KW-000,,
-789705,6487206,hydrographic,غُضَيّ,غضي,unknown,29.483333,47.816667,KW-000,,
-789932,-1139055,hydrographic,"Khabra Umm ar Rūs","Khabra Umm ar Rus",variant,29.216667,47.55,KW-000,,
-789961,145755,hypsographic,"Umm Tuwaynij","Umm Tuwaynij",official,29.294167,47.608333,KW-000,,
-789613,-1137998,hypsographic,"Ar Ruḩayl","Ar Ruhayl",official,29.666667,47.033333,KW-000,,
-789753,-1138464,hydrographic,Kaifan,Kaifan,variant,29.316667,48.05,KW-000,,
-789666,-1139184,hydrographic,"Khabrat Az Zaqlah","Khabrat Az Zaqlah",variant,29.435556,47.643056,KW-000,,
-789926,14020419,hypsographic,"جزيرة أم المرادم","جزيرة أم المرادم",unknown,28.680249,48.651707,KW-000,,
-789694,6487217,hydrographic,"ثَمِيلَة اَلدُّغْمَة","ثميلة الدغمة",unknown,28.816111,47.859722,KW-000,,
-789735,-1138398,hydrographic,"Khawr Iskandar","Khawr Iskandar",official,28.620278,48.385556,KW-AH,,
-789643,-1138961,hydrographic,Sulaibiya,Sulaibiya,variant,29.253333,47.787778,KW-000,,
-789796,-1138634,hydrographic,"Khor al Milah","Khor al Milah",variant,29.966944,48.097778,KW-000,,
-789763,-1138502,spot,"Khawr al Mufattaḩ","Khawr al Mufattah",official,28.65,48.383333,KW-000,,
-789770,-1138529,hypsographic,Kubaydh,Kubaydh,variant,29.105278,47.679722,KW-000,,
-789724,6487187,hydrographic,حُلْو,حلو,unknown,29.033333,48.05,KW-000,,
-789796,-1138641,hydrographic,"Khawr al Milḩah","Khawr al Milhah",variant,29.966944,48.097778,KW-000,,
-789962,6486957,park,عُرَيْفِجَان,عريفجان,unknown,28.875,48.141667,KW-000,,
-789935,-1139117,hydrographic,"Khabra Umm Ruwaisat","Khabra Umm Ruwaisat",variant,29.433333,47.033333,KW-000,,
-789659,6487250,hydrographic,"خَبْرَة اَلْعَوَازِم","خبرة العوازم",unknown,29.433333,47.483333,KW-000,,
-789789,-1138609,hypsographic,Mashjang,Mashjang,variant,29.484722,48.251389,KW-KU,,
-789861,-1138814,hypsographic,Qurayn,Qurayn,variant,28.77,47.973056,KW-000,,
-789747,123521,hydrographic,"Qulbān Al Juwayhil","Qulban Al Juwayhil",variant,29.098611,47.827778,KW-000,,
-789682,11317335,hypsographic,"Jazirat Būbyān","Jazirat Bubyan",variant,29.769722,48.255556,KW-JA,,
-789934,-1139060,hypsographic,"Umm ar Ruwaysāt","Umm ar Ruwaysat",official,29.583333,47.016667,KW-000,,
-789947,-1139092,hydrographic,"Umm Niqqā","Umm Niqqa",official,29.95,47.85,KW-000,,
-789725,-1138357,hydrographic,Ḩunayḑil,Hunaydil,variant,29.2,48.1,KW-000,,
-789976,-1139169,hypsographic,"Jazīrat Warbah","Jazirat Warbah",official,29.993889,48.066667,KW-JA,,
-789667,-1139195,settlement,Zor,Zor,variant,29.4425,48.274722,KW-KU,,
-789945,232207,spot,"Umm Niqā","Umm Niqa",variant,29.948611,47.8675,KW-000,,
-789619,-1138902,settlement,Shamiyeh,Shamiyeh,variant,29.347222,47.961667,KW-000,,
-789696,-1138228,park,Dura,Dura,variant,28.8,49.233333,KW-000,,
-789968,-1138005,park,Ashairij,Ashairij,variant,29.363056,47.785556,KW-000,,
-789845,6487070,hypsographic,"خَبْرَة اَلْقَلِيب","خبرة القليب",unknown,29.646111,47.323056,KW-000,,
-789866,-1138820,spot,"Makhfar Quraynīs","Makhfar Quraynis",official,28.690278,47.615833,KW-000,,
-789854,6487061,hypsographic,"رَأْس اَلْقَيْد","رأس القيد",unknown,29.797778,48.365833,KW-000,,
-789688,-1138209,hydrographic,Dharūb,Dharub,variant,29.533056,48.173611,KW-000,,
-789737,-1138762,spot,"Rujm al Qaḩţān","Rujm al Qahtan",variant,28.9625,47.696111,KW-000,,
-789856,-1137782,hypsographic,"Ras Al Jlay’ah","Ras Al Jlay'ah",variant,28.875,48.291667,KW-000,,
-789640,-1138056,hydrographic,"As Subaihīya","As Subaihiya",variant,28.883333,47.916667,KW-000,,
-789910,6487007,hydrographic,"ثَمِيلَة تُرْكِي","ثميلة تركي",unknown,28.781111,47.857222,KW-000,,
-789554,-1139176,park,Yah,Yah,variant,29.583333,47.666667,KW-000,,
-789616,-1138002,park,"Ḩaql ar Ruq‘","Haql ar Ruq`",official,29,47.166667,KW-000,,
-789697,-1138232,hypsographic,Duwaydāt,Duwaydat,official,28.585,48.396944,KW-000,,
-789766,-1138516,spot,Khwesat,Khwesat,variant,29.376667,47.701944,KW-000,,
-789818,-1138615,hydrographic,"Mashash Maslan","Mashash Maslan",variant,29.038889,47.953889,KW-000,,
-789750,-1138453,hydrographic,"Thamīlat al Kabd","Thamilat al Kabd",variant,29.125833,47.630278,KW-000,,
-789709,-1138313,hydrographic,Hamatiyah,Hamatiyah,variant,29.133333,47.4,KW-000,,
-789884,123149,spot,"As Sālimī Border Post","As Salimi Border Post",variant,29.1,46.679167,KW-000,,
-789703,6487208,hypsographic,"جَزِيرَة فَيْلَكَا","جزيرة فيلكا",unknown,29.440556,48.334722,KW-KU,,
-789872,6487043,hydrographic,"فَشْت قُشَيْر","فشت قشير",unknown,29.45,47.816667,KW-000,,
-789867,48560,hydrographic,"Khabrā’ Quraynīs","Khabra' Quraynis",official,28.691111,47.601389,KW-000,,
-789926,-1139027,hypsographic,"Island Umm Al-Maradem","Island Umm Al-Maradem",variant,28.680249,48.651707,KW-000,,
-789640,-1138895,hydrographic,Sbahiyyah,Sbahiyyah,variant,28.883333,47.916667,KW-000,,
-789688,6487223,hydrographic,ضَارُب,ضارب,unknown,29.533056,48.173611,KW-000,,
-789707,-1138308,hydrographic,"Fasht al Hadibah","Fasht al Hadibah",official,29.416667,47.966667,KW-000,,
-789849,-1138780,hypsographic,Qārawh,Qarawh,variant,28.817621,48.776375,KW-000,,
-789779,-1138569,hydrographic,"Khabrat al Liyāḩ","Khabrat al Liyah",official,29.616667,47.533333,KW-000,,
-789736,-1138017,hydrographic,"Ash Shīdhānīyah","Ash Shidhaniyah",variant,29.25,47.866667,KW-000,,
-789975,6486944,hypsographic,"تَلّ وَارَة","تل وارة",unknown,29.016667,47.966667,KW-000,,
-789595,11316740,park,"An Nuwaynīş","An Nuwaynis",variant,29.646111,48.020833,KW-JA,,
-789602,-1137980,hypsographic,Arḩayyah,Arhayyah,official,28.533333,47.916667,KW-000,,
-789643,-1137906,hydrographic,Al-Sulibiyyah,Al-Sulibiyyah,variant,29.253333,47.787778,KW-000,,
-789706,-1138304,hypsographic,"Abraq al Ḩabārī","Abraq al Habari",official,29.484722,46.953333,KW-000,,
-789911,-1138993,park,"Udayri‘ al Ḩamḑ","Udayri` al Hamd",official,29.583333,47.583333,KW-000,,
-789598,11323504,hypsographic,"Ra’s Al-‘Ardh","Ra's Al-`Ardh",variant,29.350833,48.097778,KW-000,,
-789727,-1138360,hypsographic,"Shiqqat al Huwaimaliya","Shiqqat al Huwaimaliya",variant,29.800833,47.188333,KW-000,,
-789893,-1138929,hydrographic,"Bandar ash Shuwaikh","Bandar ash Shuwaikh",variant,29.336389,47.890556,KW-000,,
-789777,-1138567,hypsographic,"Jāl al Liyāḩ","Jal al Liyah",official,29.4925,47.1725,KW-000,,
-789912,-1138989,park,"Udari‘ al Ḩişn","Udari` al Hisn",variant,29.566667,47.7,KW-000,,
-789891,-1138917,hypsographic,"Dulai ash Shinaiti","Dulai ash Shinaiti",variant,28.858333,48.041667,KW-000,,
-789605,-1138835,hypsographic,Rakham,Rakham,variant,29.659444,47.904167,KW-JA,,
-789754,6487158,park,كَاظِمَة,كاظمة,unknown,29.405278,47.745,KW-000,,
-789744,6487168,hypsographic,جُدَيْلِيَّات,جديليات,unknown,29.35,47.8,KW-000,,
-789901,121759,hypsographic,"Shiqqat aş Şuqayhīyah","Shiqqat as Suqayhiyah",official,29.686111,47.105833,KW-000,,
-789617,6487292,hydrographic,أَرْطَاوِيَّة,أرطاوية,unknown,28.633333,48.133333,KW-000,,
-789789,-1138610,hypsographic,"Mashjān Island","Mashjan Island",variant,29.484722,48.251389,KW-KU,,
-789981,11321215,hydrographic,"Ḩisū az̧ Z̧aby","Hisu az Zaby",official,29.75,47.666667,KW-000,,
-789749,-1138399,park,Jabd,Jabd,variant,29.143611,47.628056,KW-000,,
-789784,-1138596,hydrographic,"Thamīlat al Manāqīsh","Thamilat al Manaqish",official,28.966667,47.566667,KW-000,,
-789863,-1138535,hypsographic,"Jezirat Kurain","Jezirat Kurain",variant,29.354444,47.909722,KW-KU,,
-789759,-1138493,hydrographic,"Mushāsh Khalīfah","Mushash Khalifah",official,29.266667,48.083333,KW-000,,
-789861,6487054,hypsographic,اَلْقُرَيْن,القرين,unknown,28.77,47.973056,KW-000,,
-789971,-1138006,hypsographic,"Ras ‘Ashairij","Ras `Ashairij",variant,29.385278,47.844444,KW-KU,,
-789609,-1138851,park,"Rowdhatein Camp","Rowdhatein Camp",variant,29.866667,47.716667,KW-000,,
-789726,235789,park,"Hout Oilfield","Hout Oilfield",variant,28.7,49.025,KW-000,,
-789785,-1138658,spot,Minaqish-1,Minaqish-1,variant,28.933333,47.6,KW-000,,
-789621,-1138022,park,"Ash Shiqq","Ash Shiqq",official,29.153611,47.480556,KW-000,,
-789666,6487243,hydrographic,"خَبْرَة اَلزَّقْلَة","خبرة الزقلة",unknown,29.435556,47.643056,KW-000,,
-789741,-1138429,hypsographic,Jirīshān,Jirishan,official,29.966667,47.166667,KW-000,,
-789720,-1138322,hydrographic,"Harshan Wells","Harshan Wells",variant,28.55,48.133333,KW-000,,
-789770,-1138526,hypsographic,Kubaida,Kubaida,variant,29.105278,47.679722,KW-000,,
-789852,-1138789,spot,Qasr-al-Sabiyah,Qasr-al-Sabiyah,variant,29.573333,48.171389,KW-JA,,
-789734,6487178,hydrographic,"عُقْلَة إِبْن صُقَيَّة","عقلة إبن صقية",unknown,29.656944,47.076944,KW-000,,
-789737,6487175,spot,"رُجْم اَلْجَهْطَان","رجم الجهطان",unknown,28.9625,47.696111,KW-000,,
-789892,-1138926,hydrographic,"Mushāsh ash Shunayţī","Mushash ash Shunayti",official,28.885833,48.025,KW-000,,
-789624,-1138897,settlement,Shaabah,Shaabah,variant,29.041111,48.1375,KW-000,,
-789910,-1138986,hydrographic,"Thamīlat Turkī","Thamilat Turki",official,28.781111,47.857222,KW-000,,
-789944,-1139082,hydrographic,"Umm Khurjain","Umm Khurjain",variant,28.716667,48.183333,KW-000,,
-789624,-1138896,settlement,Shaab,Shaab,variant,29.041111,48.1375,KW-000,,
-789873,-1137883,hydrographic,"Khirbet Al-Rudaifah","Khirbet Al-Rudaifah",variant,28.910556,47.596111,KW-000,,
-789980,6486939,hydrographic,"قُلْبَان يَاسِين","قلبان ياسين",unknown,29.283333,47.65,KW-000,,
-789747,-1138448,hydrographic,Juwayhīl,Juwayhil,variant,29.098611,47.827778,KW-000,,
-789921,-1139016,hydrographic,"Khabrat Umm al Jathāthīl","Khabrat Umm al Jathathil",official,29.1325,47.516667,KW-000,,
-789737,-1138406,spot,"Rijm al Jahtán","Rijm al Jahtan",variant,28.9625,47.696111,KW-000,,
-789834,122426,hypsographic,"Ḑulay‘ an Nuhaydayn","Dulay` an Nuhaydayn",official,29.233889,48.059722,KW-000,,
-789821,6487092,hydrographic,"خَبْرَة مُسَيْعِيد","خبرة مسيعيد",unknown,29.283333,47.366667,KW-000,,
-789720,-1138344,hydrographic,"Ābār Hirshān","Abar Hirshan",official,28.55,48.133333,KW-000,,
-789595,-1137953,park,"An Nuwaynīs","An Nuwaynis",official,29.646111,48.020833,KW-JA,,
-789735,6487177,hydrographic,"خَوْر إِسْكَنْدَر","خور إسكندر",unknown,28.620278,48.385556,KW-AH,,
-789614,-1138000,settlement,"Ar Rumaythīyah","Ar Rumaythiyah",official,29.311667,48.074167,KW-000,,
-789727,-1138362,hypsographic,"Shaqqat al Huwaymilīyah","Shaqqat al Huwaymiliyah",variant,29.800833,47.188333,KW-000,,
-789825,6487088,hydrographic,اَلْمُطَوَّعِيَّة,المطوعية,unknown,29.732222,48.083611,KW-000,,
-789598,-1137972,hypsographic,"Ras al Ardh","Ras al Ardh",variant,29.350833,48.097778,KW-000,,
-789829,-1138728,hydrographic,Muţribah,Mutribah,variant,29.9,47.283333,KW-000,,
-789943,-1139081,hydrographic,"Khabrat Umm Irţah","Khabrat Umm Irtah",official,29.45,47.416667,KW-000,,
-789620,-1138033,park,"Ash Shuqayyah","Ash Shuqayyah",variant,29.178611,46.687778,KW-000,,
-789748,6487164,hydrographic,"ثَمِيلَة اَلْجُوَيْسِرِي","ثميلة الجويسري",unknown,29.333333,47.466667,KW-000,,
-789713,14100171,administrative_region,Ḩawallī,Hawalli,official,29.3,48.05,KW-HA,,
-789938,-1139075,hypsographic,"Umm Ḩujūl","Umm Hujul",official,28.603056,47.709722,KW-000,,
-789615,-1138397,hydrographic,Irmathiah,Irmathiah,variant,29.3,48.066667,KW-000,,
-789918,6486999,park,"أُمّ اَلْفَلاَ","أم الفلا",unknown,28.766667,48.175,KW-000,,
-789896,-1138941,hypsographic,Subaib,Subaib,variant,29.581111,48.148056,KW-000,,
-789820,-1138702,hypsographic,"Daley’ Musaeed","Daley' Musaeed",variant,29.326667,47.398611,KW-000,,
-789751,6487161,hydrographic,كَرَادِي,كرادي,unknown,29.3,48.016667,KW-000,,
-789798,-1137940,spot,"Aminoil Loading Terminal","Aminoil Loading Terminal",variant,29.016944,48.160278,KW-000,,
-789730,6487182,hydrographic,"مُشَاش إِبْن عَوْسَج","مشاش إبن عوسج",unknown,28.885833,48.211389,KW-000,,
-789979,6486940,hypsographic,"رَأْس اَلْيَحِي","رأس اليحي",unknown,29.403333,48.362222,KW-KU,,
-789881,11317150,hypsographic,"Rās Ḩimār","Ras Himar",variant,29.513056,48.164167,KW-JA,,
-789903,6487014,spot,"مَرْكَز اَلسُّور","مركز السور",unknown,28.560556,47.716111,KW-000,,
-789672,-1138129,hypsographic,"Banāyā al Khayrān","Banaya al Khayran",variant,28.616667,48.366667,KW-000,,
-789934,-1139116,hypsographic,"Umm Ruwaisat","Umm Ruwaisat",variant,29.583333,47.016667,KW-000,,
-789797,-1138639,hydrographic,"Mushāsh Milḩ","Mushash Milh",official,29.083333,47.983333,KW-000,,
-789761,6487151,park,خَشْمَان,خشمان,unknown,29.25,47.85,KW-000,,
-789832,-1138737,hydrographic,"North Fuwaris I","North Fuwaris I",official,28.6,47.8,KW-000,,
-789931,-1139057,hypsographic,"Umm ar Ru’ūs","Umm ar Ru'us",variant,29.2,47.55,KW-000,,
-789619,-1138900,settlement,Shamiya,Shamiya,variant,29.347222,47.961667,KW-000,,
-789857,-1138423,spot,"Jilaat al Abid","Jilaat al Abid",variant,28.907222,48.223611,KW-000,,
-789936,-1139064,hydrographic,"Khabrat Umm Arţā ad Dikākah","Khabrat Umm Arta ad Dikakah",official,29.533333,47.366667,KW-000,,
-789820,-1138711,hypsographic,"Dulay‘at Musay‘īd","Dulay`at Musay`id",variant,29.326667,47.398611,KW-000,,
-789636,-1138892,settlement,Salmiyah,Salmiyah,variant,29.333889,48.076111,KW-000,,
-789848,-1138777,park,Qarā‘ah,Qara`ah,variant,29.133333,48.1,KW-000,,
-789852,-1138871,spot,Sabīya,Sabiya,variant,29.573333,48.171389,KW-JA,,
-789621,-1138031,park,"Ash Shuq","Ash Shuq",variant,29.153611,47.480556,KW-000,,
-789847,-1138771,settlement,"Qalīb al Shuyūkh","Qalib al Shuyukh",variant,29.258611,47.924167,KW-000,,
-789642,-1138061,settlement,"Aş Şulaybīkhāt","As Sulaybikhat",official,29.315278,47.835833,KW-000,,
-789620,6487289,park,اَلشِّقَايَا,الشقايا,unknown,29.178611,46.687778,KW-000,,
-789806,-1138677,hydrographic,Mubghir,Mubghir,official,28.6,48.166667,KW-000,,
-789933,-1139059,park,"Umm ar Ruwaysāt","Umm ar Ruwaysat",official,29.55,47,KW-000,,
-789869,6487046,park,قُرَيْنِيَّة,قرينية,unknown,29.456111,48.334722,KW-KU,,
-789965,6486954,hypsographic,"بَنَايَا عُرَيْفِجَان","بنايا عريفجان",unknown,28.798889,48.196667,KW-000,,
-789852,-1138790,spot,"Qasr Al-Sobiya","Qasr Al-Sobiya",variant,29.573333,48.171389,KW-JA,,
-789626,-1138014,park,"Ash Shaqīq","Ash Shaqiq",variant,28.6925,47.731944,KW-000,,
-789906,-1138979,hydrographic,Thamamyah,Thamamyah,variant,28.599167,48.122778,KW-000,,
-789985,-1139192,hypsographic,"Ra’s az Zawr","Ra's az Zawr",official,28.743333,48.396389,KW-AH,,
-789687,-1138195,settlement,Dant,Dant,short,29.166667,48.116667,KW-000,,
-789814,-1138589,hypsographic,Majailis,Majailis,variant,29.588611,47.746667,KW-000,,
-789619,-1138011,settlement,"Ash Shāmīyah","Ash Shamiyah",official,29.347222,47.961667,KW-000,,
-789643,-1138062,hydrographic,"Aş Şulaybīyah","As Sulaybiyah",official,29.253333,47.787778,KW-000,,
-789836,-1138739,settlement,Nugra,Nugra,variant,29.3375,48.010556,KW-000,,
-789894,-1138919,hydrographic,"Jalesh al Shoukh","Jalesh al Shoukh",variant,29.227778,47.908889,KW-000,,
-789880,-1138954,hydrographic,"Khor as Subīya","Khor as Subiya",variant,29.641667,48.150556,KW-JA,,
-789892,6487025,hydrographic,"مُشَاش اَلشُّنَيْطِي","مشاش الشنيطي",unknown,28.885833,48.025,KW-000,,
-789795,6487118,hydrographic,"خَبْرَة اَلْمِجْمَد","خبرة المجمد",unknown,29.416389,47.560278,KW-000,,
-789849,-1138782,hypsographic,Qārū,Qaru,variant,28.817621,48.776375,KW-000,,
-789935,-1139111,hydrographic,"Khabrat Umm Ru’aysāt","Khabrat Umm Ru'aysat",variant,29.433333,47.033333,KW-000,,
-789768,-1138534,hypsographic,"Kura Al Maru","Kura Al Maru",variant,29.435833,47.327778,KW-000,,
-789772,-1138544,administrative_region,"Sheikhdom of Kuwait","Sheikhdom of Kuwait",variant,29.5,47.75,KW-000,,
-789707,6487204,hydrographic,"فَشْت اَلْهَدِبَة","فشت الهدبة",unknown,29.416667,47.966667,KW-000,,
-789976,-1137924,hypsographic,"Al Warbah","Al Warbah",variant,29.993889,48.066667,KW-JA,,
-789804,-1138572,hypsographic,Ma‘aizilat,Ma`aizilat,variant,28.943056,48.095,KW-000,,
-789858,-1138427,hydrographic,"Jilai‘at al Harar Bay","Jilai`at al Harar Bay",variant,28.895278,48.252222,KW-000,,
-789861,48558,hypsographic,Qarīn,Qarin,variant,28.77,47.973056,KW-000,,
-789914,6487003,hypsographic,"خَشْم اَلْعُذَيْبَة","خشم العذيبة",unknown,29.633333,47,KW-000,,
-789845,-1138767,hypsographic,"Khabrat Qalīb","Khabrat Qalib",variant,29.646111,47.323056,KW-000,,
-789636,11323795,settlement,As-Sālimiyah,As-Salimiyah,variant,29.333889,48.076111,KW-000,,
-789669,-1138112,hydrographic,"Baharat Hoshān","Baharat Hoshan",variant,30.083333,47.416667,KW-000,,
-789939,-1139076,hydrographic,"Umm ‘Imārat ar Ruq‘ī","Umm `Imarat ar Ruq`i",official,29.133333,47.166667,KW-000,,
-789724,-1138356,hydrographic,Ḩulw,Hulw,official,29.033333,48.05,KW-000,,
-789937,-1139066,hypsographic,"Umm at Tanak","Umm at Tanak",official,29.566667,47.433333,KW-000,,
-789594,6487314,settlement,اَلنُّقَيَّات,النقيات,unknown,28.943056,48.198611,KW-000,,
-789657,6487252,hypsographic,"ضُلَيْعَات اَلْعَوَازِم","ضليعات العوازم",unknown,29.050278,47.6525,KW-000,,
-789663,-1137618,hydrographic,Aich,Aich,variant,29.75,48.516667,KW-000,,
-789616,6487293,park,"حَقْل اَلرُّقْع","حقل الرقع",unknown,29,47.166667,KW-000,,
-789896,-1138955,hypsographic,Sublib,Sublib,variant,29.581111,48.148056,KW-000,,
-789652,6487257,hydrographic,اَلطَّرْفَاوِي,الطرفاوي,unknown,29.761944,48.036111,KW-000,,
-789746,-1138443,spot,"Markaz Julhum","Markaz Julhum",official,28.831667,47.601667,KW-000,,
-789836,122429,settlement,"An Nuqrah","An Nuqrah",official,29.3375,48.010556,KW-000,,
-789770,6487142,hypsographic,كُبَيْدَة,كبيدة,unknown,29.105278,47.679722,KW-000,,
-789610,-1138844,park,Rawdhatain,Rawdhatain,variant,29.90479,47.721773,KW-000,,
-789721,-1138323,park,"Hasu Al-Thabi","Hasu Al-Thabi",variant,29.7675,47.713333,KW-000,,
-789905,6487012,hydrographic,"أُمّ اَلْعَيْش","أم العيش",unknown,29.025556,48.575833,KW-000,,
-789684,-1138174,hypsographic,"Ḑulay‘ Buqay‘","Dulay` Buqay`",official,28.616667,48.166667,KW-000,,
-789759,-1138492,hydrographic,"Mishāsh Khalīfah","Mishash Khalifah",variant,29.266667,48.083333,KW-000,,
-789847,123349,settlement,"Jalīb ash Shuyūkh","Jalib ash Shuyukh",official,29.258611,47.924167,KW-000,,
-789811,6487102,hypsographic,مُغَطِّي,مغطي,unknown,29.616667,48.083333,KW-000,,
-789615,-1138861,hydrographic,Rumaithiyah,Rumaithiyah,variant,29.3,48.066667,KW-000,,
-789613,6487296,hypsographic,اَلرُّحَيْل,الرحيل,unknown,29.666667,47.033333,KW-000,,
-789781,-1138576,spot,"Madanīyah 1","Madaniyah 1",official,29.15,47.85,KW-000,,
-789611,6487298,park,رِكْسَة,ركسة,unknown,29.498056,47.473056,KW-000,,
-789738,-1138433,settlement,"Jleeb al Shuyoukh","Jleeb al Shuyoukh",variant,29.266667,47.933333,KW-000,,
-789606,-1137990,settlement,"Ar Rawḑah","Ar Rawdah",official,29.324722,48.001389,KW-000,,
-789985,-1139188,hypsographic,"Rās az Zaur","Ras az Zaur",variant,28.743333,48.396389,KW-AH,,
-789689,6487222,hypsographic,"بَنِيَّة اَلدَّشْت","بنية الدشت",unknown,28.855,48.195,KW-000,,
-789789,-1138666,hypsographic,"Jazīrat Miskān","Jazirat Miskan",official,29.484722,48.251389,KW-KU,,
-789625,6487284,hydrographic,اَلشُّنَيْطِي,الشنيطي,unknown,28.883333,48.016667,KW-000,,
-789730,-1137562,hydrographic,"Mashash Abu Awsag","Mashash Abu Awsag",variant,28.885833,48.211389,KW-000,,
-789948,-1139096,settlement,"Umm Qaşabah","Umm Qasabah",variant,28.992222,48.165556,KW-000,,
-789768,6487144,hypsographic,"كِرَاع اَلْمَرُو","كراع المرو",unknown,29.435833,47.327778,KW-000,,
-789736,-1138401,hydrographic,Jadādīyah,Jadadiyah,official,29.25,47.866667,KW-000,,
-789843,-1138761,hypsographic,Qaḩlūlah,Qahlulah,variant,29.296111,47.354444,KW-000,,
-789681,123631,hydrographic,"Sha‘īb Bin Hadmah","Sha`ib Bin Hadmah",official,29.064722,47.6,KW-000,,
-789786,-1138599,settlement,Manīfah,Manifah,official,29.160833,48.081111,KW-000,,
-789794,-1138631,hypsographic,"Dhulai‘ al Mijmad","Dhulai` al Mijmad",variant,29.450556,47.589444,KW-000,,
-789768,-1138802,hypsographic,"Qira al Maru","Qira al Maru",variant,29.435833,47.327778,KW-000,,
-789941,6486977,hydrographic,"خَبْرَة أُمّ عِمَارَة مَهْزُول","خبرة أم عمارة مهزول",unknown,29.233333,46.883333,KW-000,,
-789704,6487207,park,غُضَيّ,غضي,unknown,29.417222,47.758333,KW-000,,
-789765,-1138508,hypsographic,"Raudhat Khraim","Raudhat Khraim",variant,29.696667,47.794722,KW-000,,
-789602,6487307,hypsographic,أَرْحَيَّة,أرحية,unknown,28.533333,47.916667,KW-000,,
-789881,11316748,hypsographic,"راس الصبية","راس الصبية",unknown,29.513056,48.164167,KW-JA,,
-789898,6487019,spot,"مَخْفَر اَلصُّبَيْحِيَّة","مخفر الصبيحية",unknown,28.868611,47.868889,KW-000,,
-789660,536233,hypsographic,"Jazirat Auhah","Jazirat Auhah",variant,29.377778,48.439167,KW-KU,,
-789856,-1138764,hypsographic,Rās-al-Qalai’ah,Ras-al-Qalai'ah,variant,28.875,48.291667,KW-000,,
-789758,-1138480,hydrographic,"Radifa Khabra Aida","Radifa Khabra Aida",variant,29.533333,47.433333,KW-000,,
-789640,-1138951,hydrographic,Şubayḩīyah,Subayhiyah,variant,28.883333,47.916667,KW-000,,
-789984,6486935,hypsographic,"جَال اَلزَّوْر","جال الزور",unknown,29.512778,47.8075,KW-000,,
-789705,-1138289,hydrographic,Ghaday,Ghaday,variant,29.483333,47.816667,KW-000,,
-789605,-1137878,hypsographic,Al-Rakham,Al-Rakham,variant,29.659444,47.904167,KW-JA,,
-789665,-1137927,park,Al-Zaklah,Al-Zaklah,variant,29.419167,47.602778,KW-000,,
-789773,-1138549,hydrographic,"Kuwait Harbour","Kuwait Harbour",variant,29.416667,48.083333,KW-000,,
-789929,231706,hypsographic,"Jazīrat Umm an Namī","Jazirat Umm an Nami",variant,29.381667,47.866944,KW-JA,,
-789976,-1139154,hypsographic,"Wabra Island","Wabra Island",variant,29.993889,48.066667,KW-JA,,
-789657,-1138087,hypsographic,"Dulay‘at al ‘Awāzim","Dulay`at al `Awazim",variant,29.050278,47.6525,KW-000,,
-789690,-1138202,hydrographic,Dasmah,Dasmah,official,29.05,48.05,KW-000,,
-789601,-1137973,park,"Ardh az Zor","Ardh az Zor",variant,28.756667,48.264444,KW-AH,,
-789664,6487245,hypsographic,"ظَهْر اَلْعَدَال","ظهر العدال",unknown,29.149167,48.043611,KW-000,,
-789744,-1137786,hypsographic,"Al Judaylīyāt","Al Judayliyat",variant,29.35,47.8,KW-000,,
-789967,6486952,hydrographic,"قِطْعَة عُرَيْفِجَان","قطعة عريفجان",unknown,28.996389,48.255556,KW-000,,
-789788,6487125,spot,"مَزَار اَلْخِضْر","مزار الخضر",unknown,29.469167,48.287222,KW-KU,,
-789634,-1138045,hypsographic,"As Sadda","As Sadda",variant,29.2275,47.444444,KW-000,,
-789772,-1138557,administrative_region,Kuweit,Kuweit,variant,29.5,47.75,KW-000,,
-789763,-1138507,spot,"Khor el Muffata","Khor el Muffata",variant,28.65,48.383333,KW-000,,
-789848,6487067,park,قَرْعَة,قرعة,unknown,29.133333,48.1,KW-000,,
-789984,-1139187,hypsographic,"Jal az Zaur","Jal az Zaur",variant,29.512778,47.8075,KW-000,,
-789792,-1138622,spot,"Rujm al Mazāri‘","Rujm al Mazari`",official,29.016667,48.033333,KW-000,,
-789678,6487233,settlement,بَيَان,بيان,unknown,29.303198,48.048812,KW-000,,
-789938,6486980,hypsographic,"أُمّ حُجُول","أم حجول",unknown,28.603056,47.709722,KW-000,,
-789868,-1138822,hydrographic,"Qalīb Quraynīs","Qalib Quraynis",official,28.809167,47.798611,KW-000,,
-789803,6487110,hydrographic,"خَبْرَة اَلْمِتْيَاهَة","خبرة المتياهة",unknown,29.216667,46.95,KW-000,,
-789803,-1138619,hydrographic,"Khabrat Matyahah","Khabrat Matyahah",variant,29.216667,46.95,KW-000,,
-789800,-1138650,settlement,"Mīnā’ az Zawr","Mina' az Zawr",variant,28.7375,48.372778,KW-AH,,
-789946,-1139091,hypsographic,"Umm Niqqā","Umm Niqqa",official,30.03,47.844444,KW-000,,
-789942,-1139062,park,"Umm Arţa","Umm Arta",variant,29.434444,47.430278,KW-000,,
-789968,-1139148,park,‘Ushayriq,`Ushayriq,variant,29.363056,47.785556,KW-000,,
-789862,-1138301,hydrographic,Gurain,Gurain,variant,28.766944,48.0325,KW-000,,
-789663,6487246,hydrographic,"فَشْت اَلأَيْك","فشت الأيك",unknown,29.75,48.516667,KW-000,,
-789757,-1138456,hypsographic,"Ras Kádhama","Ras Kadhama",variant,29.3975,47.743056,KW-000,,
-789783,6487130,hydrographic,"خَوْر اَلْمَمْلاَحَة","خور المملاحة",unknown,28.651667,48.380556,KW-AH,,
-789695,-1138212,settlement,"Dhulai‘ Sa‘ūd","Dhulai` Sa`ud",variant,29.201111,48.111111,KW-000,,
-789878,-1138859,hydrographic,"Sha‘īb Rujm al Jahţān","Sha`ib Rujm al Jahtan",official,28.96,47.643333,KW-000,,
-789966,6486953,spot,"مَخْفَر عُرَيْفِجَان","مخفر عريفجان",unknown,28.848056,48.057778,KW-000,,
-789951,-1139068,hypsographic,"Umm Gadir","Umm Gadir",variant,28.883333,47.716667,KW-000,,
-789610,-1138846,park,"Rhawdatain Field","Rhawdatain Field",variant,29.90479,47.721773,KW-000,,
-789703,-1138243,hypsographic,"Jazīrat Failaka","Jazirat Failaka",variant,29.440556,48.334722,KW-KU,,
-789790,6487123,hydrographic,"خَبْرَة اَلْمَطْلاَع","خبرة المطلاع",unknown,29.402222,47.632778,KW-000,,
-789731,6487181,hydrographic,"إِبْن دَبُّوس","إبن دبوس",unknown,29.033333,48.016667,KW-000,,
-789615,-1138863,hydrographic,Rumaithiyyeh,Rumaithiyyeh,variant,29.3,48.066667,KW-000,,
-789782,-1138588,hypsographic,Mahzūl,Mahzul,official,29.297222,46.84,KW-000,,
-789861,-1138294,hypsographic,Grain,Grain,variant,28.77,47.973056,KW-000,,
-789644,6487265,hypsographic,اَلسُّلُوع,السلوع,unknown,28.703333,48.260556,KW-AH,,
-789700,-1138262,hypsographic,"Ḑulay‘at al Fawāris","Dulay`at al Fawaris",official,28.625833,47.815556,KW-000,,
-789873,-1138831,hydrographic,"Khabrat ar Radīfah","Khabrat ar Radifah",official,28.910556,47.596111,KW-000,,
-789807,-1138578,hydrographic,"Kasr Madayrah","Kasr Madayrah",variant,28.930556,48.775,KW-000,,
-789647,-1137902,spot,"Al Sorrah","Al Sorrah",variant,29.283333,48.066667,KW-000,,
-789660,-1138091,hypsographic,‘Awhah,`Awhah,variant,29.377778,48.439167,KW-KU,,
-789848,-1138778,park,Qar‘ah,Qar`ah,official,29.133333,48.1,KW-000,,
-789654,6487255,hydrographic,اَلطَّوِيل,الطويل,unknown,28.966667,47.9,KW-000,,
-789839,-1138751,hydrographic,"Palinurus Shoal","Palinurus Shoal",official,29.666667,48.666667,KW-000,,
-789771,-1138527,hypsographic,"Jazīrat Kubār","Jazirat Kubar",variant,29.072222,48.493333,KW-000,,
-789753,-1138473,hydrographic,Kayfān,Kayfan,official,29.316667,48.05,KW-000,,
-789796,-1138637,hydrographic,"Khawr al Milḩ","Khawr al Milh",official,29.966944,48.097778,KW-000,,
-789854,11317614,hypsographic,"Rā’s al Gayed","Ra's al Gayed",variant,29.797778,48.365833,KW-000,,
-789874,237553,spot,"Markaz al Radīfah","Markaz al Radifah",variant,28.916944,47.551944,KW-000,,
-789719,-1138343,hypsographic,"Ra’s al Ḩimārah","Ra's al Himarah",official,28.580833,48.401389,KW-AH,,
-789787,-1138662,hypsographic,"Ra’s al Minqāf","Ra's al Minqaf",variant,29.104444,48.139167,KW-000,,
-789855,-1138800,hypsographic,"Ra’s al Qiḩḩah","Ra's al Qihhah",official,29.428611,48.269167,KW-KU,,
-789664,-1138208,hypsographic,"Dhahar al ’Adán","Dhahar al 'Adan",variant,29.149167,48.043611,KW-000,,
-789626,-1138018,park,"Ash Shigaig","Ash Shigaig",variant,28.6925,47.731944,KW-000,,
-789748,-1138447,hydrographic,"Thamilat al Juwaisiri","Thamilat al Juwaisiri",variant,29.333333,47.466667,KW-000,,
-789634,-1138046,hypsographic,"As Sāddah","As Saddah",official,29.2275,47.444444,KW-000,,
-789981,-1139180,hydrographic,"Ḩisū az̧ Z̧abī","Hisu az Zabi",variant,29.75,47.666667,KW-000,,
-789647,6487262,spot,اَلسُّرَّة,السرة,unknown,29.283333,48.066667,KW-000,,
-789734,-1138386,hydrographic,"‘Uqlat Ibn Şuqayh","`Uqlat Ibn Suqayh",variant,29.656944,47.076944,KW-000,,
-789783,-1138592,hydrographic,"Khawr al Mamlāḩah","Khawr al Mamlahah",official,28.651667,48.380556,KW-AH,,
-789727,6487184,hypsographic,"شِقَّة اَلْهُوَيْمِلِيَّة","شقة الهويملية",unknown,29.800833,47.188333,KW-000,,
-789842,11317181,hydrographic,"Khor al Gayed","Khor al Gayed",variant,29.731111,48.369444,KW-000,,
-789944,-1139084,hydrographic,"Umm Khurjayn","Umm Khurjayn",official,28.716667,48.183333,KW-000,,
-789917,6487000,hydrographic,"خَبْرَة أُمّ اَلْعَيْش","خبرة أم العيش",unknown,29.768333,47.771944,KW-000,,
-789934,-1139118,hypsographic,"Umm Ruwaysāt","Umm Ruwaysat",variant,29.583333,47.016667,KW-000,,
-789758,-1138482,hydrographic,"Radīfat Khabrat ‘Aydā","Radifat Khabrat `Ayda",official,29.533333,47.433333,KW-000,,
-789769,6487143,hydrographic,"كُلَة پَتْچ","كلة پتچ",unknown,29.283333,48.1,KW-000,,
-789833,122600,hypsographic,"An Nuhaydayn","An Nuhaydayn",official,29.273056,47.457778,KW-000,,
-789826,121210,hydrographic,"Khabrat al Muţaylī","Khabrat al Mutayli",official,29.391944,47.6025,KW-000,,
-789764,-1138509,hypsographic,"Idaira al Khulla","Idaira al Khulla",variant,29.577778,47.326111,KW-000,,
-789796,-1137845,hydrographic,"Khor Al Mesah","Khor Al Mesah",variant,29.966944,48.097778,KW-000,,
-789850,123073,hydrographic,"Mushāsh Qar‘ūţ","Mushash Qar`ut",official,28.795,48.073056,KW-000,,
-789880,-1138876,hydrographic,Khor-as-Sabīyah,Khor-as-Sabiyah,variant,29.641667,48.150556,KW-JA,,
-789804,-1138672,hypsographic,Mu‘ayzīlāt,Mu`ayzilat,official,28.943056,48.095,KW-000,,
-789982,-1139196,hypsographic,"Banīyat az Zor","Baniyat az Zor",variant,28.760556,48.3075,KW-AH,,
-789798,-1138644,spot,"Mina Abdullah","Mina Abdullah",variant,29.016944,48.160278,KW-000,,
-789957,6486962,park,"أُمّ رُقَيْبَة","أم رقيبة",unknown,29.428333,47.753611,KW-000,,
-789622,6487287,hydrographic,"وَادِي اَلشَّقّ","وادي الشق",unknown,28.216944,47.917778,KW-000,,
-789639,11321170,hydrographic,"Sha‘īb aş Şīr","Sha`ib as Sir",official,29.883333,47.666667,KW-000,,
-789632,-1138040,hydrographic,"Aş Şābirīyah","As Sabiriyah",official,29.883333,47.983333,KW-000,,
-789755,-1138457,spot,Kadhamah,Kadhamah,variant,29.421944,47.732778,KW-000,,
-789629,11330794,settlement,Subahiya,Subahiya,variant,29.105833,48.108056,KW-AH,,
-789976,-1138749,hypsographic,Ouarba,Ouarba,variant,29.993889,48.066667,KW-JA,,
-789686,6487225,hypsographic,"ضُلَيْعَات اَلضَّبْعَة","ضليعات الضبعة",unknown,29.096667,47.562222,KW-000,,
-789619,-1137895,settlement,"Al Shamiya","Al Shamiya",variant,29.347222,47.961667,KW-000,,
-789856,-1138775,hypsographic,"Ra’s al Qalīyah","Ra's al Qaliyah",variant,28.875,48.291667,KW-000,,
-789750,-1138452,hydrographic,"Thamīlat Kabd","Thamilat Kabd",official,29.125833,47.630278,KW-000,,
-789670,-1138127,hydrographic,"Khabrat al Ba‘l","Khabrat al Ba`l",official,29.310833,47.635556,KW-000,,
-789974,-1139165,hydrographic,Wārah,Warah,official,28.983333,47.95,KW-000,,
-789606,6487303,settlement,اَلرَّوْضَة,الروضة,unknown,29.324722,48.001389,KW-000,,
-789718,6487193,hydrographic,"حَدّ اَلْحِمَارَة","حد الحمارة",unknown,28.561111,48.4175,KW-AH,,
-789652,-1138984,hydrographic,Turfaiwa,Turfaiwa,variant,29.761944,48.036111,KW-000,,
-789770,-1138528,hypsographic,Kubaydah,Kubaydah,official,29.105278,47.679722,KW-000,,
-789767,6487145,hydrographic,خُوَيْسَات,خويسات,unknown,29.383333,47.683333,KW-000,,
-789806,6487107,hydrographic,مُبْغِر,مبغر,unknown,28.6,48.166667,KW-000,,
-789636,-1138217,settlement,Dimnah,Dimnah,variant,29.333889,48.076111,KW-000,,
-789798,6487115,spot,"مِينَاء عَبْد اَللَّٰه","ميناء عبد الله",unknown,29.016944,48.160278,KW-000,,
-789925,-1139022,hydrographic,"Khabra Umm al Madafa","Khabra Umm al Madafa",variant,29.8175,47.29,KW-000,,
-789641,6487268,hypsographic,اَلصُّلَيْبِيخَات,الصليبيخات,unknown,29.317222,47.872222,KW-000,,
-789771,-1138533,hypsographic,"Kubra Island","Kubra Island",variant,29.072222,48.493333,KW-000,,
-789960,-1139121,hydrographic,"Thamīlat Umm Şafq","Thamilat Umm Safq",official,28.6625,48.138056,KW-000,,
-789756,-1138476,hydrographic,"Dawḩat Kāz̧imah","Dawhat Kazimah",official,29.383889,47.725,KW-000,,
-789837,-1138744,hydrographic,"Mushāsh an Nuwā‘imah","Mushash an Nuwa`imah",official,28.615833,48.048333,KW-000,,
-789634,-1138483,hypsographic,"Khad as Sa’ada","Khad as Sa'ada",variant,29.2275,47.444444,KW-000,,
-789712,-1138333,settlement,Hawaly,Hawaly,variant,29.332778,48.028611,KW-000,,
-789915,-1138580,hydrographic,Maghārah,Magharah,variant,29.3,47.733333,KW-000,,
-789972,6486947,settlement,"عُشَيْش اَلْجَهْرَاء","عشيش الجهراء",unknown,29.315833,47.663889,KW-000,,
-789601,-1137971,park,"Arḑ az Zawr","Ard az Zawr",official,28.756667,48.264444,KW-AH,,
-789698,6487213,settlement,دُوَيْدَات,دويدات,unknown,28.582778,48.399167,KW-AH,,
-789880,11317179,hydrographic,"Khor as̄ S̄ubiyah","Khor as Subiyah",variant,29.641667,48.150556,KW-JA,,
-789820,-1138710,hypsographic,"Ḑulay‘ Musay‘īd","Dulay` Musay`id",variant,29.326667,47.398611,KW-000,,
-789665,6487244,park,اَلزَّقْلَة,الزقلة,unknown,29.419167,47.602778,KW-000,,
-789912,6487005,park,"أُدَيْرِع اَلْحِصْن","أديرع الحصن",unknown,29.566667,47.7,KW-000,,
-789853,-1138828,hydrographic,Qutqatai,Qutqatai,variant,29.033333,48.1,KW-000,,
-789835,-1138742,hydrographic,"Khawr an Nahm","Khawr an Nahm",official,28.605556,48.394444,KW-AH,,
-789955,-1139112,hypsographic,"Umm Rujm","Umm Rujm",official,29.297222,47.677778,KW-000,,
-789779,-1137816,hydrographic,"Khibret Al-Laiyah","Khibret Al-Laiyah",variant,29.616667,47.533333,KW-000,,
-789862,6487053,hydrographic,"مُشَاش اَلْقُرَيْن","مشاش القرين",unknown,28.766944,48.0325,KW-000,,
-789686,-1138223,hypsographic,"Ḑulay‘at aḑ Ḑab‘","Dulay`at ad Dab`",variant,29.096667,47.562222,KW-000,,
-789947,-1139089,hydrographic,"Umm Nijjah","Umm Nijjah",variant,29.95,47.85,KW-000,,
-789679,235702,hydrographic,"Qulbān Barḑat an Nathil","Qulban Bardat an Nathil",variant,28.639722,48.075556,KW-000,,
-789940,-1139042,hydrographic,"Umm Amarat ash Shugg","Umm Amarat ash Shugg",variant,29.116667,47.15,KW-000,,
-789644,-1138063,hypsographic,"As Sulū‘","As Sulu`",official,28.703333,48.260556,KW-AH,,
-789810,-1138684,hydrographic,Mufatta,Mufatta,variant,28.646111,48.378889,KW-AH,,
-789682,-1138167,hypsographic,"Jazīrat Būbiyān","Jazirat Bubiyan",official,29.769722,48.255556,KW-JA,,
-789683,-1138169,hydrographic,"Khor Būbīyān","Khor Bubiyan",variant,29.995278,48.1625,KW-000,,
-789863,-1138811,hypsographic,"Jazirat Qurain","Jazirat Qurain",variant,29.354444,47.909722,KW-KU,,
-789863,-1138537,hypsographic,"Kurein Island","Kurein Island",variant,29.354444,47.909722,KW-KU,,
-789852,-1138868,spot,Sabīhīyah,Sabihiyah,variant,29.573333,48.171389,KW-JA,,
-789884,-1138890,spot,"Markaz Ḩudūd as Sālmī","Markaz Hudud as Salmi",official,29.1,46.679167,KW-000,,
-789905,11317641,hydrographic,"’Umm al Aish","'Umm al Aish",variant,29.025556,48.575833,KW-000,,
-789906,-1138977,hydrographic,Thamamiya,Thamamiya,variant,28.599167,48.122778,KW-000,,
-789609,-1137880,park,Al-Raudhatin,Al-Raudhatin,variant,29.866667,47.716667,KW-000,,
