wgdPlaceId,wgdId,type,name,fullName,nameType,latitude,longitude,administrationGroup,isHistorical,isCapital
364235,454301,settlement,Zaboj,Zaboj,official,43.0225,19.464167,ME-000,,
15068,18066,hypsographic,Vrh,Vrh,official,43.026667,18.624167,ME-000,,
365294,455541,park,Maren,Maren,official,43.23,19.582778,ME-000,,
295199,369851,hypsographic,Sovic,Sovic,official,42.55,18.468611,ME-000,,
438567,560564,hypsographic,Kape,Kape,official,42.648333,19.096111,ME-000,,
433954,554788,settlement,Orah,Orah,official,42.747222,19.896111,ME-000,,
433907,554731,hypsographic,Zavoj,Zavoj,official,42.620017,20.068091,ME-000,,
437925,559845,hypsographic,Guka,Guka,official,42.617778,18.765833,ME-000,,
442640,565062,hypsographic,Seča,Seca,official,43.098056,19.844167,ME-000,,
6127280,6137816,hypsographic,Sopot,Sopot,official,42.2625,19.0975,ME-000,,
440351,562514,hypsographic,Kršt,Krst,official,42.3725,18.885833,ME-000,,
6016925,6020012,hypsographic,Siga,Siga,official,42.874444,19.153611,ME-000,,
439652,561771,park,Paklina,Paklina,official,43.02,18.994444,ME-000,,
9065631,9065631,settlement,Rt,Rt,official,43.472778,19.147778,ME-000,,
9052937,9052937,hypsographic,Sto,Sto,official,42.842222,19.406667,ME-000,,
9048484,9048484,park,Lokva,Lokva,official,42.831667,19.732222,ME-000,,
9035309,9035309,hypsographic,Šila,Sila,official,42.573611,19.515,ME-000,,
9051246,9051246,spot,Kapa,Kapa,official,42.831111,19.265556,ME-000,,
9064302,9064302,hypsographic,Ploče,Ploce,official,42.445833,18.791944,ME-000,,
9077674,9078511,park,Budohi,Budohi,official,42.414444,19.387222,ME-000,,
-1151841,19650071,hypsographic,"Балкански Полуостров","Балкански Полуостров",unknown,44,23,S1-000,,
-1151841,-1698243,hypsographic,"Balkanski Poluostrov","Balkanski Poluostrov",official,44,23,S1-000,,
-1151841,19650073,hypsographic,"Βαλκανική Χερσόνησο","Βαλκανική Χερσόνησο",unknown,44,23,S1-000,,
-1151841,19650065,hypsographic,"Valkanikí Chersónisos","Valkaniki Chersonisos",official,44,23,S1-000,,
-1151841,19650064,hypsographic,"Balkansko Poluostrvo","Balkansko Poluostrvo",official,44,23,S1-000,,
-1151841,19650063,hypsographic,"Gadishulli Ballkanik","Gadishulli Ballkanik",official,44,23,S1-000,,
-1151841,19650069,hypsographic,"Balkan Yarımadası","Balkan Yarimadasi",official,44,23,S1-000,,
-1151841,19650066,hypsographic,"Balkanski Poluostrov","Balkanski Poluostrov",official,44,23,S1-000,,
-1151841,19650072,hypsographic,"Балканско Полуострво","Балканско Полуострво",unknown,44,23,S1-000,,
-1151841,-1698242,hypsographic,Balkans,Balkans,variant,44,23,S1-000,,
-1151841,19650067,hypsographic,"Peninsula Balcanică","Peninsula Balcanica",official,44,23,S1-000,,
-1151841,19650068,hypsographic,"Balkanski Poluotok","Balkanski Poluotok",official,44,23,S1-000,,
-1151841,-1698241,hypsographic,"Balkan Peninsula","Balkan Peninsula",colloquial,44,23,S1-000,,
-1151841,19650070,hypsographic,"Балкански Полуостров","Балкански Полуостров",unknown,44,23,S1-000,,
-107464,-163398,hypsographic,Paje,Paje,variant,42.516944,19.773889,ME-000,,
-107464,-163402,hypsographic,"Maj’ e Pajës","Maj' e Pajes",variant,42.516944,19.773889,ME-000,,
-107464,-1129193,hypsographic,"Maja e Poradisë","Maja e Poradise",variant,42.516944,19.773889,ME-000,,
-107464,9034307,hypsographic,Valušnica,Valusnica,official,42.516944,19.773889,ME-000,,
-107464,-164374,hypsographic,Popadi,Popadi,variant,42.516944,19.773889,ME-000,,
-101562,-148414,settlement,Zagrad,Zagrad,official,42.918889,19.7825,ME-000,,
-101561,-148413,settlement,Zagrad,Zagrad,official,42.75,19.091111,ME-000,,
-104180,-153175,hydrographic,Cijevna,Cijevna,official,42.351111,19.204167,ME-000,,
-104180,-153174,hydrographic,Cem,Cem,variant,42.351111,19.204167,ME-000,,
-104180,-153185,hydrographic,Cemi,Cemi,variant,42.351111,19.204167,ME-000,,
-104180,-153188,hydrographic,"Lumi i Cemit","Lumi i Cemit",official,42.351111,19.204167,ME-000,,
-102487,6033867,hypsographic,Zvjerinac,Zvjerinac,official,42.640278,19.114167,ME-000,,
-102487,-149693,hypsographic,Zverinac,Zverinac,variant,42.640278,19.114167,ME-000,,
-102483,-149689,settlement,Zvečava,Zvecava,official,42.541111,18.641667,ME-000,,
-102483,-149688,settlement,Zvečara,Zvecara,variant,42.541111,18.641667,ME-000,,
-102463,9043989,hypsographic,"Žute Kose","Zute Kose",official,43.038333,19.725,ME-000,,
-102463,460663,hypsographic,"Žula Kosa","Zula Kosa",variant,43.038333,19.725,ME-000,,
-102463,-149663,hypsographic,"Žuta Kosa","Zuta Kosa",variant,43.038333,19.725,ME-000,,
-102449,-149642,settlement,Zupci,Zupci,official,42.128056,19.1225,ME-000,,
-102433,-149622,park,Župa,Zupa,official,42.386389,18.738611,ME-000,1,
-102416,-149592,settlement,Žukovica,Zukovica,official,42.217222,18.944444,ME-000,,
-102414,-149574,hypsographic,"Punta Zucco","Punta Zucco",variant,42.322778,18.707222,ME-000,,
-102414,-149587,hypsographic,"Punta Zukovac","Punta Zukovac",variant,42.322778,18.707222,ME-000,,
-102414,-149588,hypsographic,"Rt Žukovac","Rt Zukovac",official,42.322778,18.707222,ME-000,,
-102337,-149474,settlement,Zoganji,Zoganji,variant,41.948889,19.283611,ME-000,,
-102337,-149468,settlement,Zogaj,Zogaj,variant,41.948889,19.283611,ME-000,,
-102337,-149473,settlement,Zoganje,Zoganje,variant,41.948889,19.283611,ME-000,,
-102337,-149472,settlement,Zoganj,Zoganj,official,41.948889,19.283611,ME-000,,
-102336,557242,hydrographic,"Liqeni Zoganjskoe","Liqeni Zoganjskoe",variant,41.916667,19.289722,ME-000,,
-102336,-149469,hydrographic,"Zogaj Lake","Zogaj Lake",variant,41.916667,19.289722,ME-000,,
-102336,-149471,hydrographic,"Zoganjsko Jezero","Zoganjsko Jezero",official,41.916667,19.289722,ME-000,,
-102335,557380,hydrographic,"Këneta Zogonjiskoje","Keneta Zogonjiskoje",variant,41.928056,19.292222,ME-000,,
-102335,9072965,hydrographic,"Ulcinjska Solana","Ulcinjska Solana",official,41.928056,19.292222,ME-000,,
-102335,-149470,hydrographic,"Zogajsko Blato","Zogajsko Blato",variant,41.928056,19.292222,ME-000,,
-102335,557246,hydrographic,"Këneta Zagonjsko","Keneta Zagonjsko",variant,41.928056,19.292222,ME-000,,
-102324,-149449,hydrographic,"Zminičko Jezero","Zminicko Jezero",official,43.101111,19.246389,ME-000,,
-102324,451514,hydrographic,"Zmijinje Jezero","Zmijinje Jezero",variant,43.101111,19.246389,ME-000,,
-102324,-149231,hydrographic,"Zimnićko Jezero","Zimnicko Jezero",variant,43.101111,19.246389,ME-000,,
-102323,-149448,settlement,Zminica,Zminica,official,43.093056,19.2525,ME-000,,
-102321,-149446,settlement,Zminac,Zminac,variant,43.025,19.850278,ME-000,,
-102321,-149451,settlement,Zminjac,Zminjac,official,43.025,19.850278,ME-000,,
-102301,-149423,hydrographic,Zlorečica,Zlorecica,official,42.734444,19.795833,ME-000,,
-102286,-149398,hypsographic,Žlijeb,Zlijeb,variant,42.76673,20.254277,S1-000,,
-102286,-149406,hypsographic,Žljeb,Zljeb,official,42.76673,20.254277,S1-000,,
-102283,-149401,settlement,Žlijebi,Zlijebi,official,42.483889,18.563056,ME-000,,
-102261,-149373,hydrographic,"Valle Zlatna","Valle Zlatna",variant,42.379722,18.589444,ME-000,,
-102261,9041407,hydrographic,"Uvala Morakova","Uvala Morakova",variant,42.379722,18.589444,ME-000,,
-102261,-130542,hydrographic,"Morakova Luka","Morakova Luka",variant,42.379722,18.589444,ME-000,,
-102261,-140328,hydrographic,"Slatna Bay","Slatna Bay",variant,42.379722,18.589444,ME-000,,
-102261,-149375,hydrographic,"Zlatna Luka","Zlatna Luka",official,42.379722,18.589444,ME-000,,
-102234,-149338,hypsographic,"Zla Gora","Zla Gora",official,42.821667,18.822222,ME-000,,
-102167,-149243,settlement,Žirci,Zirci,official,42.809722,19.457778,ME-000,,
-102148,28096,hypsographic,"Žijovo Planina","Zijovo Planina",variant,42.569722,19.551389,ME-000,,
-102148,-149238,hypsographic,"Žiovo Planina","Ziovo Planina",variant,42.569722,19.551389,ME-000,,
-102148,135893,hypsographic,Zijevo,Zijevo,official,42.569722,19.551389,ME-000,,
-102148,-149215,hypsographic,Žijovo,Zijovo,variant,42.569722,19.551389,ME-000,,
-102148,-149214,hypsographic,"Žijevo Planina","Zijevo Planina",variant,42.569722,19.551389,ME-000,,
-102142,-149205,settlement,Židovići,Zidovici,official,43.354444,19.317222,ME-000,,
-102044,-149082,hydrographic,Zeta,Zeta,official,42.464722,19.261389,ME-000,,
-102043,-149081,park,Zeta,Zeta,official,42.333333,19.25,ME-000,,
-102018,-149047,settlement,Zenica,Zenica,official,43.304722,19.344167,ME-000,,
-101993,-149001,hydrographic,"Potok Željeznica","Potok Zeljeznica",variant,42.1075,19.086667,ME-000,,
-101993,-148999,hydrographic,Željeznica,Zeljeznica,official,42.1075,19.086667,ME-000,,
-101940,-148923,hydrographic,"Zekiča Reka","Zekica Reka",official,43.014167,19.6625,ME-000,,
-101966,557607,hypsographic,Goleš,Goles,variant,42.6475,19.843056,ME-000,1,
-101966,-148957,hypsographic,Zeletin,Zeletin,official,42.6475,19.843056,ME-000,1,
-101965,557334,hypsographic,Zeletin,Zeletin,official,42.651944,19.833889,ME-000,,
-101965,-148956,hypsographic,Zele,Zele,variant,42.651944,19.833889,ME-000,,
-101965,-118563,hypsographic,Goleš,Goles,variant,42.651944,19.833889,ME-000,,
-101962,-148952,hypsographic,"Zelenkov Kamen","Zelenkov Kamen",official,42.9375,20.104167,ME-000,,
-101954,-148940,settlement,Zelenica,Zelenica,variant,42.451389,18.576667,ME-000,,
-101954,-148942,settlement,Zelenika,Zelenika,official,42.451389,18.576667,ME-000,,
-101941,-148924,hypsographic,"Zekova Glava","Zekova Glava",official,42.850278,19.678611,ME-000,,
-101939,-148922,settlement,Zekavice,Zekavice,official,43.2675,19.380833,ME-000,,
-101939,452251,settlement,Zekovice,Zekovice,variant,43.2675,19.380833,ME-000,,
-101917,-148894,hypsographic,Zečka,Zecka,official,42.748056,19.479722,ME-000,,
-101826,-148770,hypsographic,"Završko Brdo","Zavrsko Brdo",official,42.828333,20.121667,ME-000,,
-101816,-148757,settlement,Zavraca,Zavraca,official,42.843333,19.305,ME-000,,
-101816,9038743,settlement,Zavraci,Zavraci,variant,42.843333,19.305,ME-000,,
-101815,-148756,hypsographic,Zavorovi,Zavorovi,official,43.15,18.866667,ME-000,,
-101815,-148755,hypsographic,Zavoraci,Zavoraci,variant,43.15,18.866667,ME-000,,
-101797,-148728,hydrographic,"Zavala Bay","Zavala Bay",variant,42.278889,18.870278,ME-000,1,
-101797,-148726,hydrographic,"Sidrište Zavala","Sidriste Zavala",variant,42.278889,18.870278,ME-000,1,
-101797,-148727,hydrographic,"Uvala Zavala","Uvala Zavala",official,42.278889,18.870278,ME-000,1,
-101796,-148731,hypsographic,Zavale,Zavale,variant,42.276944,18.860556,ME-000,,
-101796,-148725,hypsographic,"Rt Zavala","Rt Zavala",official,42.276944,18.860556,ME-000,,
-101770,-148687,settlement,Zaslap,Zaslap,official,42.6775,18.593333,ME-000,,
-101738,-148652,settlement,Žari,Zari,official,43,19.625556,ME-000,,
-101694,-148586,settlement,Zankovići,Zankovici,official,42.1475,19.0525,ME-000,,
-101694,-148585,settlement,Zanković,Zankovic,variant,42.1475,19.0525,ME-000,,
-101692,26403,hydrographic,"Uvala Žanjica","Uvala Zanjica",official,42.399167,18.575833,ME-000,,
-101692,-148583,hydrographic,"Luka Žanjica","Luka Zanjica",variant,42.399167,18.575833,ME-000,,
-101692,26404,hydrographic,Žanjica,Zanjica,variant,42.399167,18.575833,ME-000,,
-101692,-148581,hydrographic,"Porto Žanjca","Porto Zanjca",variant,42.399167,18.575833,ME-000,,
-101653,-148532,settlement,Zaljutnica,Zaljutnica,official,43.018056,18.723333,ME-000,,
-101650,-148527,settlement,Zaljev,Zaljev,variant,42.067222,19.131389,ME-000,,
-101650,-148528,settlement,Zaljevo,Zaljevo,official,42.067222,19.131389,ME-000,,
-101617,-148487,hypsographic,Zakamenje,Zakamenje,official,42.694444,19.101111,ME-000,,
-101586,-148446,hypsographic,Žagrica,Zagrica,official,43.156389,18.802222,ME-000,,
-101585,-148445,settlement,Zagreda,Zagreda,official,42.526944,19.391944,ME-000,,
-101584,-148444,settlement,Zagreda,Zagreda,official,42.545556,19.070556,ME-000,,
-101566,-148421,settlement,Zagrađe,Zagrade,official,42.8675,19.938333,ME-000,,
-101565,-148420,settlement,Zagrađe,Zagrade,official,42.146667,19.021667,ME-000,,
-101565,560786,settlement,Zagrađa,Zagrada,variant,42.146667,19.021667,ME-000,,
-101547,-148393,settlement,Zagorje,Zagorje,official,42.820556,19.896667,ME-000,,
-101533,-148372,settlement,Zagorak,Zagorak,official,42.615833,19.0275,ME-000,,
-101531,-148370,settlement,Zagora,Zagora,official,42.705278,18.658056,ME-000,,
-101530,-148369,settlement,Zagora,Zagora,official,42.409167,19.065278,ME-000,,
-101529,-148368,settlement,Zagora,Zagora,official,42.3025,18.749444,ME-000,,
-101524,-148362,hypsographic,Zagon,Zagon,official,42.601667,19.522222,ME-000,,
-101496,-148322,settlement,Začir,Zacir,official,42.343333,18.996944,ME-000,,
-101469,-148276,settlement,Zabrđe,Zabrde,official,43.142222,18.772778,ME-000,,
-101466,-148273,settlement,Zabrđe,Zabrde,official,42.761944,19.784167,ME-000,,
-101441,14105861,administrative_region,Žabljak,Zabljak,official,43.157222,19.123333,ME-21,,
-101441,-148245,administrative_region,"Opština Žabljak","Opstina Zabljak",official,43.157222,19.123333,ME-21,,
-101441,14131662,administrative_region,"Општина Жабљак","Општина Жабљак",unknown,43.157222,19.123333,ME-21,,
-101441,14276976,administrative_region,Жабљак,Жабљак,unknown,43.157222,19.123333,ME-21,,
-101437,-148241,settlement,Žabljak,Zabljak,official,43.154722,19.121944,ME-21,,
-101437,-108228,settlement,"Aleksandrov Grad","Aleksandrov Grad",variant,43.154722,19.121944,ME-21,,
-101437,14131811,settlement,Жабљак,Жабљак,unknown,43.154722,19.121944,ME-21,,
-101436,-148240,settlement,Žabljak,Zabljak,official,42.317222,19.158611,ME-000,,
-101424,-148222,hydrographic,"Uvalica Žabica","Uvalica Zabica",variant,42.346389,18.698889,ME-000,,
-101424,25640,hydrographic,"Uvala Žabica","Uvala Zabica",official,42.346389,18.698889,ME-000,,
-101419,19184813,hypsographic,"Mali Zabelit","Mali Zabelit",variant,42.629487,19.66437,S1-000,,
-101419,-4851785,hypsographic,Zabel,Zabel,variant,42.629487,19.66437,S1-000,,
-101419,-148217,hypsographic,"Maj’ e Zabelit","Maj' e Zabelit",variant,42.629487,19.66437,S1-000,,
-101419,-148213,hypsographic,"Maja Zabelit","Maja Zabelit",official,42.629487,19.66437,S1-000,,
-101419,-148215,hypsographic,"Maja e Zabelit","Maja e Zabelit",official,42.629487,19.66437,S1-000,,
-101418,19227896,hypsographic,"Mali Zabelit","Mali Zabelit",variant,42.518547,19.942383,S1-000,,
-101418,-148211,hypsographic,Zabel,Zabel,official,42.518547,19.942383,S1-000,,
-101418,-148216,hypsographic,"Maj’ e Zabelit","Maj' e Zabelit",variant,42.518547,19.942383,S1-000,,
-101418,-148214,hypsographic,"Maja e Zabelit","Maja e Zabelit",official,42.518547,19.942383,S1-000,,
-101403,-148147,settlement,Vusanje,Vusanje,official,42.529444,19.840278,ME-000,,
-101403,504346,settlement,Vuthaj,Vuthaj,variant,42.529444,19.840278,ME-000,,
-101394,-148138,settlement,Vukšići,Vuksici,official,43.513333,18.984167,ME-000,,
-101390,-148133,settlement,Vuksan-Lekić,Vuksan-Lekic,variant,42.341111,19.341389,ME-000,,
-101390,-148134,settlement,Vuksanlekići,Vuksanlekici,official,42.341111,19.341389,ME-000,,
-101374,130837,settlement,Vukovići,Vukovici,variant,42.334444,19.2,ME-000,,
-101374,-148112,settlement,Vukovci,Vukovci,variant,42.334444,19.2,ME-000,,
-101374,560119,settlement,"Gornji Vukovci","Gornji Vukovci",official,42.334444,19.2,ME-000,,
-101333,554991,hypsographic,"Vojeva Planina","Vojeva Planina",variant,42.6475,19.689722,ME-000,,
-101333,-148066,hypsographic,"Vujeva Planina","Vujeva Planina",official,42.6475,19.689722,ME-000,,
-101319,-148048,hypsographic,"Vučji Krš","Vucji Krs",official,42.828056,20.251667,ME-000,,
-101292,129999,settlement,"Vučji Do","Vucji Do",variant,42.467222,18.852222,ME-000,,
-101292,-148016,settlement,"Vuči Do","Vuci Do",official,42.467222,18.852222,ME-000,,
-101288,-148012,hypsographic,Vučić,Vucic,official,42.536111,18.994167,ME-000,,
-101273,-147992,settlement,Vuča,Vuca,official,42.920833,20.275556,ME-000,,
-101255,-147965,settlement,Vrulja,Vrulja,official,43.216667,19.461667,ME-000,,
-101254,9038736,settlement,Vrujca,Vrujca,variant,42.788889,19.417222,ME-000,,
-101254,-147963,settlement,Vrujica,Vrujica,variant,42.788889,19.417222,ME-000,,
-101254,-147964,settlement,Vrujice,Vrujice,official,42.788889,19.417222,ME-000,,
-101233,-147934,hypsographic,Vrsuta,Vrsuta,official,42.153333,19.085278,ME-000,,
-101179,-147878,hypsographic,Vrnoški,Vrnoski,variant,42.600556,19.638889,S1-000,,
-101179,556396,hypsographic,"Maja e Kulla e Mbretit","Maja e Kulla e Mbretit",variant,42.600556,19.638889,S1-000,,
-101179,-147864,hypsographic,"Kulla e Mbretit","Kulla e Mbretit",variant,42.600556,19.638889,S1-000,,
-101179,-147863,hypsographic,Vrmoški,Vrmoski,official,42.600556,19.638889,S1-000,,
-101179,-125876,hypsographic,"Kull’e Mbretit","Kull'e Mbretit",variant,42.600556,19.638889,S1-000,,
-101175,-146396,hypsographic,Vermač,Vermac,variant,42.440556,18.744167,ME-000,,
-101175,-147858,hypsographic,Vrmac,Vrmac,official,42.440556,18.744167,ME-000,,
-101131,-147801,hypsographic,Vrhovi,Vrhovi,official,43.140833,19.604444,ME-000,,
-101108,-147765,settlement,Vrh,Vrh,official,43.0625,19.899722,ME-000,,
-101075,-147723,settlement,Vrela,Vrela,official,42.326667,18.9275,ME-000,,
-101075,-147728,settlement,Vrelo,Vrelo,variant,42.326667,18.9275,ME-000,,
-101028,-147669,hydrographic,Vrbnica,Vrbnica,official,43.161944,18.781667,ME-000,,
-101014,-147653,hydrographic,Vrbica,Vrbica,variant,42.439444,19.258333,ME-000,,
-101014,553688,hydrographic,Ribnica,Ribnica,official,42.439444,19.258333,ME-000,,
-101006,-147644,settlement,Vrbica,Vrbica,official,43.294167,19.285833,ME-000,,
-101005,-147643,settlement,Vrbica,Vrbica,variant,42.934167,18.488889,ME-000,,
-101005,15200,settlement,"Gornja Vrbica","Gornja Vrbica",official,42.934167,18.488889,ME-000,,
-101003,9076598,settlement,Vrbica,Vrbica,variant,42.459444,19.349444,ME-000,,
-101003,-147641,settlement,"Gornja Vrbica","Gornja Vrbica",official,42.459444,19.349444,ME-000,,
-100977,-147610,settlement,Vrba,Vrba,official,43.355833,19.121389,ME-000,,
-100975,-147608,settlement,Vrba,Vrba,official,42.25,18.911667,ME-000,,
-100973,-147606,hydrographic,"Vražje Jezero","Vrazje Jezero",official,43.083889,19.145556,ME-000,,
-100919,-147535,settlement,Vranović,Vranovic,variant,42.360833,18.731944,ME-000,,
-100919,-147537,settlement,Vranovići,Vranovici,official,42.360833,18.731944,ME-000,,
-100908,-147516,settlement,Vranjina,Vranjina,official,42.278056,19.134444,ME-000,,
-100901,-147502,settlement,Vranještica,Vranjestica,official,42.785833,19.626389,ME-000,,
-100887,-147484,settlement,Vranj,Vranj,official,42.325833,19.297778,ME-000,,
-100822,-147380,hypsographic,Volujica,Volujica,official,42.070556,19.106111,ME-000,,
-100818,-147376,hypsographic,Volujak,Volujak,official,43.264722,18.675,S1-000,,
-100811,-147367,hypsographic,"Punta Volovica","Punta Volovica",variant,42.088889,19.07,ME-000,,
-100811,-147368,hypsographic,"Rt Volovica","Rt Volovica",variant,42.088889,19.07,ME-000,,
-100811,-147381,hypsographic,"Rt Volujica","Rt Volujica",official,42.088889,19.07,ME-000,,
-100811,-147369,hypsographic,"Spitze Volovica","Spitze Volovica",variant,42.088889,19.07,ME-000,,
-100807,-147361,hydrographic,Voloder,Voloder,official,43.386944,19.176944,ME-000,,
-100767,-147302,settlement,Vojtina,Vojtina,official,43.423333,19.163056,ME-000,,
-100759,-147290,hypsographic,Vojnovac,Vojnovac,official,42.8225,19.267778,ME-000,,
-100758,-147289,settlement,"Vojno Selo","Vojno Selo",official,42.578611,19.921389,ME-000,,
-100740,-147267,settlement,Vojkovići,Vojkovici,variant,42.863333,19.4825,ME-000,,
-100740,9039275,settlement,Plašnica,Plasnica,variant,42.863333,19.4825,ME-000,,
-100740,9038745,settlement,"Bistrica Lipovska","Bistrica Lipovska",official,42.863333,19.4825,ME-000,,
-100739,-147266,settlement,Vojkovići,Vojkovici,official,42.458056,18.874444,ME-000,,
-100734,-147261,settlement,Vojinovići,Vojinovici,official,43.170833,18.8975,ME-000,,
-100697,-147206,hypsographic,Vodnik,Vodnik,official,42.414167,19.026944,ME-000,,
-100684,-147186,hypsographic,Vodice,Vodice,official,43.114167,18.655833,S1-000,,
-98372,-143873,settlement,Tomba,Tomba,official,42.076111,19.126944,ME-000,,
-100608,-147081,hypsographic,"Ravna Vlaka","Ravna Vlaka",official,42.904167,18.738333,ME-000,,
-100608,25419,hypsographic,"Ravna Glava","Ravna Glava",variant,42.904167,18.738333,ME-000,,
-100584,-147046,settlement,Vladoš,Vlados,variant,42.806111,19.518889,ME-000,,
-100584,-147047,settlement,Vladoši,Vladosi,official,42.806111,19.518889,ME-000,,
-100582,-147042,settlement,Vladni,Vladni,official,42.343056,19.286111,ME-000,,
-100582,-147043,settlement,Vladnja,Vladnja,variant,42.343056,19.286111,ME-000,,
-100582,-147041,settlement,Vladne,Vladne,variant,42.343056,19.286111,ME-000,,
-100575,-147032,settlement,Vladimir,Vladimir,official,42.006667,19.312778,ME-000,,
-100561,-147012,hypsographic,Vjetarnik,Vjetarnik,variant,42.605278,19.416111,ME-000,,
-100561,555017,hypsographic,Vjeternik,Vjeternik,official,42.605278,19.416111,ME-000,,
-100507,-146945,settlement,Vitasovići,Vitasovici,variant,42.625556,18.992778,ME-000,,
-100507,-146943,settlement,Vitasojevići,Vitasojevici,official,42.625556,18.992778,ME-000,,
-100505,-146940,hypsographic,Vitao,Vitao,variant,43.192778,18.968333,ME-000,,
-100505,560897,hypsographic,Vito,Vito,official,43.192778,18.968333,ME-000,,
-100457,-146882,hypsographic,"Visoka Glavica","Visoka Glavica",official,42.954444,18.850278,ME-000,,
-100454,-146879,hypsographic,"Visoka Glavica","Visoka Glavica",official,42.780833,18.866111,ME-000,,
-100432,-146846,settlement,"Višnjića Do","Visnjica Do",official,43.032778,18.733056,ME-000,,
-100425,-146839,settlement,Višnjica,Visnjica,official,43.313056,19.185,ME-000,,
-100420,-146834,settlement,Višnjevo,Visnjevo,official,42.564722,19.885833,ME-000,,
-100413,-146826,settlement,Višnje,Visnje,official,42.794722,19.2825,ME-000,,
-100403,504489,hypsographic,Visitor,Visitor,official,42.615556,19.892222,ME-000,,
-100403,-146813,hypsographic,"Visitor Planina","Visitor Planina",variant,42.615556,19.892222,ME-000,,
-100403,-147002,hypsographic,"Vizitor Planina","Vizitor Planina",variant,42.615556,19.892222,ME-000,,
-100403,-146812,hypsographic,Vizitor,Vizitor,variant,42.615556,19.892222,ME-000,,
-100371,-146766,settlement,Virpazar,Virpazar,official,42.245556,19.0925,ME-000,,
-100370,6012349,hypsographic,Viroštak,Virostak,variant,42.846944,18.893889,ME-000,,
-100370,-146765,hypsographic,Virovštak,Virovstak,official,42.846944,18.893889,ME-000,,
-100315,-146688,settlement,Vinicka,Vinicka,official,42.801389,19.834722,ME-000,,
-100314,-146687,settlement,Vinići,Vinici,official,42.618056,19.095833,ME-000,,
-100290,-146660,settlement,Vilusi,Vilusi,official,42.7275,18.595278,ME-000,,
-100290,-146659,settlement,Viluse,Viluse,variant,42.7275,18.595278,ME-000,,
-100273,9034283,hypsographic,Viljenica,Viljenica,official,42.539722,19.515,ME-000,,
-100273,-146613,hypsographic,Vilenica,Vilenica,variant,42.539722,19.515,ME-000,,
-100269,-146607,settlement,Vilac,Vilac,official,42.576389,19.395278,ME-000,,
-100268,-146619,hypsographic,"Mali i Vilës","Mali i Viles",variant,42.547207,19.616652,S1-000,,
-100268,-146604,hypsographic,Vila,Vila,official,42.547207,19.616652,S1-000,,
-100268,-146606,hypsographic,"Mal i Vila","Mal i Vila",variant,42.547207,19.616652,S1-000,,
-100268,19199254,hypsographic,"Mali Vilës","Mali Viles",variant,42.547207,19.616652,S1-000,,
-100268,-146612,hypsographic,Vilë,Vile,variant,42.547207,19.616652,S1-000,,
-100268,-146617,hypsographic,"Maja e Vilës","Maja e Viles",official,42.547207,19.616652,S1-000,,
-100268,-146618,hypsographic,"Mal i Vilës","Mal i Viles",variant,42.547207,19.616652,S1-000,,
-100265,-146599,settlement,Vijenac,Vijenac,official,43.329167,19.443333,ME-000,,
-100255,-146583,settlement,Vignjevići,Vignjevici,official,42.329722,18.976111,ME-000,,
-100240,-146558,settlement,Vidre,Vidre,official,43.348611,19.298611,ME-000,,
-100210,9040830,settlement,Vidno,Vidno,variant,42.813889,18.483611,ME-000,,
-100210,-146521,settlement,Vidne,Vidne,official,42.813889,18.483611,ME-000,,
-100183,-146488,hypsographic,"Vezirova Brada","Vezirova Brada",official,42.531389,19.813889,ME-000,,
-100153,-146444,hypsographic,"Rt Vesla","Rt Vesla",variant,42.364722,18.609444,ME-000,,
-100153,-146446,hypsographic,"Rt Veslo","Rt Veslo",official,42.364722,18.609444,ME-000,,
-100153,-137528,hypsographic,"Punta Remo","Punta Remo",variant,42.364722,18.609444,ME-000,,
-100153,-137529,hypsographic,"Rt Remo","Rt Remo",variant,42.364722,18.609444,ME-000,,
-100136,-146426,settlement,Veruša,Verusa,official,42.648611,19.518056,ME-000,,
-100129,-146393,hydrographic,"Tjesnac Verige","Tjesnac Verige",variant,42.468333,18.681389,ME-000,,
-100129,25904,hydrographic,Verige,Verige,official,42.468333,18.681389,ME-000,,
-100129,-126448,hydrographic,"Le Catene","Le Catene",variant,42.468333,18.681389,ME-000,,
-100129,-146394,hydrographic,"Verige Channel","Verige Channel",variant,42.468333,18.681389,ME-000,,
-100129,-146392,hydrographic,"Tesnac Verige","Tesnac Verige",variant,42.468333,18.681389,ME-000,,
-100129,9067296,hydrographic,"Prolaz Verige","Prolaz Verige",variant,42.468333,18.681389,ME-000,,
-100085,-146311,hypsographic,"Velji Vrh","Velji Vrh",official,42.378056,19.168056,ME-000,,
-100078,-146304,settlement,"Velje Selo","Velje Selo",official,42.513056,18.741111,ME-000,,
-100077,-146303,settlement,"Velje Selo","Velje Selo",official,42.034722,19.198333,ME-000,,
-100074,-146298,settlement,"Donje Velje Duboko","Donje Velje Duboko",official,42.780278,19.277222,ME-000,,
-100073,-146297,settlement,"Velje Brdo","Velje Brdo",official,42.488056,19.224444,ME-000,,
-100072,-146296,hypsographic,"Velje Brdo","Velje Brdo",official,42.825833,18.818333,ME-000,,
-100071,-146295,hypsographic,"Velje Brdo","Velje Brdo",official,42.4725,19.214444,ME-000,,
-100070,-146294,hypsographic,"Velja Trojica","Velja Trojica",official,42.269722,18.951944,ME-000,,
-100067,-146289,hypsographic,"Velja Glavica","Velja Glavica",official,42.660278,19.591389,ME-000,,
-100058,-146280,hypsographic,"Veli Vrh","Veli Vrh",variant,42.558333,18.68,ME-000,,
-100058,24953,hypsographic,"Velji Vrh","Velji Vrh",official,42.558333,18.68,ME-000,,
-100035,-146240,settlement,Velimlje,Velimlje,official,42.82,18.634167,ME-000,,
-100035,-146239,settlement,Velimje,Velimje,variant,42.82,18.634167,ME-000,,
-100030,-146232,hypsographic,"Veliki Krš","Veliki Krs",official,42.715556,19.761389,ME-000,,
-100030,9034375,hypsographic,"Veli Krš","Veli Krs",variant,42.715556,19.761389,ME-000,,
-100018,-140147,hydrographic,"Škrčko Jezero","Skrcko Jezero",variant,43.135556,19.015556,ME-000,,
-100018,-146216,hydrographic,"Veliko Škrčko Jezero","Veliko Skrcko Jezero",official,43.135556,19.015556,ME-000,,
-99926,9047970,hypsographic,Suvor,Suvor,official,43.185556,18.769167,ME-000,,
-97165,-141978,settlement,Stožer,Stozer,official,43.098889,19.511111,ME-000,,
-99991,-146183,hydrographic,"Veliko Jezero","Veliko Jezero",official,43.199167,18.7225,ME-000,,
-99971,-146158,hypsographic,"Veliki Žurim","Veliki Zurim",official,42.833056,19.180833,ME-000,,
-99968,-146155,hypsographic,"Veliki Zebalac","Veliki Zebalac",official,42.870278,19.225833,ME-000,,
-99942,-146119,hypsographic,"Veliki Vojnik","Veliki Vojnik",variant,42.956944,18.985556,ME-000,,
-99942,562598,hypsographic,"Mali Vojnik","Mali Vojnik",official,42.956944,18.985556,ME-000,,
-99940,-146117,hypsographic,"Veliki Vitao","Veliki Vitao",official,43.225833,18.757222,ME-000,,
-99940,-146229,hypsographic,"Veliko Vitao","Veliko Vitao",variant,43.225833,18.757222,ME-000,,
-99934,9047143,hydrographic,Ursulovac,Ursulovac,official,42.873889,19.694722,ME-000,,
-99934,-146111,hydrographic,"Veliki Ursulovac Jezero","Veliki Ursulovac Jezero",variant,42.873889,19.694722,ME-000,,
-99926,-146100,hypsographic,"Veliki Suvobor","Veliki Suvobor",variant,43.185556,18.769167,ME-000,,
-99921,-146093,hypsographic,"Veliki Štuoc","Veliki Stuoc",official,42.9625,18.965,ME-000,,
-99920,-146092,hypsographic,"Veliki Štulac","Veliki Stulac",variant,43.187778,19.054722,ME-000,,
-99920,9070277,hypsographic,"Veliki Štuoc","Veliki Stuoc",official,43.187778,19.054722,ME-000,,
-99908,136917,hypsographic,"Veliki Stog","Veliki Stog",official,42.932222,18.809722,ME-000,,
-99908,-146076,hypsographic,"Veliki Slog","Veliki Slog",variant,42.932222,18.809722,ME-000,,
-99896,-146064,hypsographic,"Veliki Rid","Veliki Rid",variant,42.579722,20.017222,ME-000,,
-99896,557458,hypsographic,"Veliki Hrid","Veliki Hrid",official,42.579722,20.017222,ME-000,,
-99843,-145996,hypsographic,"Veliki Lisac","Veliki Lisac",variant,42.622222,19.221111,ME-000,,
-99843,-126965,hypsographic,Lisac,Lisac,official,42.622222,19.221111,ME-000,,
-99839,9063055,hypsographic,"Velji Rebrčnik","Velji Rebrcnik",official,42.640556,19.268611,ME-000,,
-99839,9063067,hypsographic,Rebršnik,Rebrsnik,variant,42.640556,19.268611,ME-000,,
-99839,-145992,hypsographic,"Veliki Lebršnik","Veliki Lebrsnik",variant,42.640556,19.268611,ME-000,,
-99824,-145973,hypsographic,"Veliki Kovioc","Veliki Kovioc",variant,43.104444,18.786944,ME-000,,
-99824,427663,hypsographic,Kovioc,Kovioc,official,43.104444,18.786944,ME-000,,
-99767,-112974,hypsographic,Čelinac,Celinac,variant,42.465833,18.911111,ME-000,,
-99767,-145906,hypsographic,"Velji Čelinac","Velji Celinac",official,42.465833,18.911111,ME-000,,
-99766,-145905,hypsographic,"Veliki Buručkovac","Veliki Buruckovac",variant,43.068611,18.960278,ME-000,,
-99766,561216,hypsographic,Buručkovac,Buruckovac,official,43.068611,18.960278,ME-000,,
-99730,-145850,hypsographic,"Velike Pleće","Velike Plece",official,43.262222,18.761389,ME-000,,
-99644,-145750,hypsographic,"Velika Planinica","Velika Planinica",official,42.930556,18.699444,ME-000,,
-99620,131208,hydrographic,Mrko,Mrko,variant,42.2975,19.271667,ME-000,,
-99620,-145720,hydrographic,"Velika Mrka","Velika Mrka",official,42.2975,19.271667,ME-000,,
-99582,-145675,hypsographic,"Velja Kita","Velja Kita",variant,42.7775,18.780833,ME-000,,
-99582,6012117,hypsographic,"Velika Kita","Velika Kita",official,42.7775,18.780833,ME-000,,
-99576,-145667,hypsographic,"Velika Jastrebica","Velika Jastrebica",official,42.598333,18.543333,ME-000,,
-99576,147709,hypsographic,"Velika Jastrebica","Velika Jastrebica",official,42.598333,18.543333,ME-000,,
-99576,24275,hypsographic,Orjen,Orjen,variant,42.598333,18.543333,ME-000,,
-99538,-145622,hypsographic,"Velika Glavica","Velika Glavica",official,42.932778,18.916389,ME-000,,
-99499,-139974,settlement,"Sjekirica Velika","Sjekirica Velika",variant,42.664444,19.956111,ME-000,,
-99499,-145575,settlement,Velika,Velika,official,42.664444,19.956111,ME-000,,
-99495,560783,hypsographic,"Velji Grad","Velji Grad",official,42.151944,19.014722,ME-000,,
-99495,-145571,hypsographic,Veligrad,Veligrad,variant,42.151944,19.014722,ME-000,,
-99493,-145566,settlement,Veliđe,Velide,official,42.872778,19.838889,ME-000,,
-99493,-145567,settlement,Velidje,Velidje,variant,42.872778,19.838889,ME-000,,
-99493,-145565,settlement,Veliđa,Velida,variant,42.872778,19.838889,ME-000,,
-99476,-145537,settlement,Velestovo,Velestovo,official,42.525833,18.964722,ME-000,,
-99442,24968,hypsographic,"Velja Greda","Velja Greda",official,42.538333,18.605278,ME-000,,
-99442,-145463,hypsographic,"Vela Greda","Vela Greda",variant,42.538333,18.605278,ME-000,,
-99418,9033943,hypsographic,Vasojevićski,Vasojevicski,variant,42.6875,19.664444,ME-000,,
-99418,-145420,hypsographic,"Kom Vasojevićki","Kom Vasojevicki",official,42.6875,19.664444,ME-000,,
-99417,-145419,park,Vasojevići,Vasojevici,official,42.698611,19.631944,ME-000,,
-99415,-123037,settlement,"Karaula Vaškovo","Karaula Vaskovo",variant,43.094167,19.401944,ME-000,,
-99415,-145416,settlement,Vaškovo,Vaskovo,official,43.094167,19.401944,ME-000,,
-99377,-145365,settlement,Varine,Varine,official,43.178889,19.373056,ME-000,,
-99365,-145340,hypsographic,Vardar,Vardar,official,42.800278,18.679722,ME-000,,
-99364,-145339,hypsographic,Vardar,Vardar,official,42.782222,19.034444,ME-000,,
-99307,-131535,hydrographic,"Noce Bay","Noce Bay",variant,41.953889,19.161944,ME-000,,
-99307,-145255,hydrographic,"Zaliv Valdinos","Zaliv Valdinos",variant,41.953889,19.161944,ME-000,,
-99307,-132452,hydrographic,Orašac,Orasac,variant,41.953889,19.161944,ME-000,,
-99307,-145249,hydrographic,"Uvala Valdanos","Uvala Valdanos",official,41.953889,19.161944,ME-000,,
-99281,-108107,hypsographic,Ada,Ada,official,41.864167,19.361111,ME-000,,
-99281,553797,hypsographic,"Velika Ada","Velika Ada",variant,41.864167,19.361111,ME-000,,
-99281,-145208,hypsographic,"Otočić Vada","Otocic Vada",variant,41.864167,19.361111,ME-000,,
-99281,-145209,hypsographic,"Otok Vada","Otok Vada",variant,41.864167,19.361111,ME-000,,
-99268,562144,hypsographic,Uzdomir,Uzdomir,official,42.803611,18.924444,ME-000,,
-99268,-145188,hypsographic,Uzdamir,Uzdamir,variant,42.803611,18.924444,ME-000,,
-99257,-134608,settlement,Utrk,Utrk,variant,42.262222,18.973056,ME-000,,
-99257,-145174,settlement,Utrg,Utrg,official,42.262222,18.973056,ME-000,,
-99241,-145152,hypsographic,Usovište,Usoviste,official,42.750556,19.989167,ME-000,,
-99235,-145141,park,Uskoci,Uskoci,official,42.95,19.258333,ME-000,,
-99200,-145074,settlement,Unač,Unac,official,43.185,18.882222,ME-000,,
-99197,-145071,hypsographic,Umovi,Umovi,official,42.846111,19.432778,ME-000,,
-99175,-145042,settlement,Ulotina,Ulotina,official,42.683056,19.846389,ME-000,,
-99165,-145023,settlement,Ulići,Ulici,variant,42.379167,18.988889,ME-000,,
-99165,9052472,settlement,"Donji Ulići","Donji Ulici",official,42.379167,18.988889,ME-000,,
-99161,14276975,administrative_region,Улцињ,Улцињ,unknown,41.955278,19.268333,ME-20,,
-99161,19340355,administrative_region,Ulqin,Ulqin,official,41.955278,19.268333,ME-20,,
-99161,14131661,administrative_region,"Општина Улцињ","Општина Улцињ",unknown,41.955278,19.268333,ME-20,,
-99161,-145016,administrative_region,"Opština Ulcinj","Opstina Ulcinj",official,41.955278,19.268333,ME-20,,
-99161,14105860,administrative_region,Ulcinj,Ulcinj,official,41.955278,19.268333,ME-20,,
-99161,19340356,administrative_region,"Komuna e Ulqinit","Komuna e Ulqinit",official,41.955278,19.268333,ME-20,,
-99160,-145019,hydrographic,"Ulcinjski Zaliv","Ulcinjski Zaliv",variant,41.922222,19.203333,ME-000,,
-99160,-145017,hydrographic,"Ulcinj Harbor","Ulcinj Harbor",variant,41.922222,19.203333,ME-000,,
-99160,-145015,hydrographic,"Luka Ulcinj","Luka Ulcinj",official,41.922222,19.203333,ME-000,,
-99160,-145018,hydrographic,"Ulcinj Road","Ulcinj Road",variant,41.922222,19.203333,ME-000,,
-99159,-117204,settlement,Dulcigno,Dulcigno,variant,41.928333,19.206389,ME-20,,
-99159,14131810,settlement,Улцињ,Улцињ,unknown,41.928333,19.206389,ME-20,,
-99159,-145014,settlement,Ulcinj,Ulcinj,official,41.928333,19.206389,ME-20,,
-99159,19340364,settlement,Ulqin,Ulqin,official,41.928333,19.206389,ME-20,,
-99145,464388,settlement,Ujniče,Ujnice,official,43.098889,19.704444,ME-000,,
-99135,-144978,settlement,Ugnji,Ugnji,official,42.34,18.9175,ME-000,,
-99096,-144930,settlement,Ubli,Ubli,official,42.615,18.873889,ME-000,,
-99095,-144929,settlement,Ubli,Ubli,official,42.584167,19.256667,ME-000,,
-99094,-144928,settlement,Ubli,Ubli,official,42.511389,18.622778,ME-000,,
-99093,-144927,settlement,Ubli,Ubli,official,42.490556,19.395833,ME-000,,
-99090,-144921,settlement,Ubalac,Ubalac,official,42.521111,19.393611,ME-000,,
-99088,-144919,settlement,Uba,Uba,official,42.475278,18.843889,ME-000,,
-99080,-144910,hypsographic,Tvrdoš,Tvrdos,official,42.506667,19.007222,ME-000,,
-99074,-144903,hypsographic,"Tvrde Stijene","Tvrde Stijene",official,42.564444,19.447778,ME-000,,
-99072,-144901,hypsographic,Tvrdaš,Tvrdas,official,43.329722,19.388889,ME-000,,
-99072,9076866,hypsographic,Vis,Vis,variant,43.329722,19.388889,ME-000,,
-99069,-144895,settlement,Tvorilo,Tvorilo,official,42.597222,19.061389,ME-000,,
-99064,-144889,settlement,Tuzi,Tuzi,variant,42.694444,19.4925,ME-000,,
-99064,9063961,settlement,"Tuzi Ljevorečke","Tuzi Ljevorecke",official,42.694444,19.4925,ME-000,,
-99063,19340360,settlement,Тузи,Тузи,unknown,42.365556,19.331389,ME-24,,
-99063,19341659,settlement,Tuz,Tuz,official,42.365556,19.331389,ME-24,,
-99063,-144888,settlement,Tuzi,Tuzi,official,42.365556,19.331389,ME-24,,
-99050,-144873,hydrographic,Tušinja,Tusinja,official,42.950278,19.168889,ME-000,,
-99049,-144871,settlement,Tušina,Tusina,official,42.948611,19.200278,ME-000,,
-99049,-144872,settlement,Tušinja,Tusinja,variant,42.948611,19.200278,ME-000,,
-99009,-144809,hypsographic,Turjak,Turjak,official,42.863056,20.066389,ME-000,1,
-99009,-144815,hypsographic,Turjaka,Turjaka,variant,42.863056,20.066389,ME-000,1,
-99006,-144805,hypsographic,Turijak,Turijak,official,42.938056,19.680833,ME-000,,
-98996,-144795,hypsographic,Turija,Turija,official,42.963333,19.084444,ME-000,,
-98967,-144761,settlement,Tupan,Tupan,official,42.785833,18.635833,ME-000,,
-96738,-141410,settlement,Stabna,Stabna,official,43.172778,18.755833,ME-000,,
-98916,-144690,settlement,Tudorovići,Tudorovici,official,42.245,18.911667,ME-000,,
-98916,-144689,settlement,Tudorovic,Tudorovic,variant,42.245,18.911667,ME-000,,
-98912,-144684,settlement,Tuđemili,Tudemili,official,42.130833,19.145,ME-000,,
-98912,-144683,settlement,Tuđemile,Tudemile,variant,42.130833,19.145,ME-000,,
-98908,-144677,settlement,Tucanje,Tucanje,official,42.929167,19.936389,ME-000,,
-98908,-144676,settlement,Tucanj,Tucanj,variant,42.929167,19.936389,ME-000,,
-98876,-144619,settlement,Trubjela,Trubjela,official,42.744722,18.779167,ME-000,,
-98876,-144620,settlement,Trubjelo,Trubjelo,variant,42.744722,18.779167,ME-000,,
-98863,561533,hydrographic,"Uvala Trsteno","Uvala Trsteno",official,42.280278,18.786944,ME-000,,
-98863,-144603,hydrographic,"Valle Trsteno","Valle Trsteno",variant,42.280278,18.786944,ME-000,,
-98822,-144550,settlement,Trpezi,Trpezi,official,42.903889,19.995556,ME-000,,
-98822,503644,settlement,Tërpezë,Terpeze,variant,42.903889,19.995556,ME-000,,
-98791,-144503,settlement,Trojica,Trojica,official,42.404167,18.763611,ME-000,,
-98787,-144493,hypsographic,Trojan,Trojan,official,42.557222,19.756944,ME-000,,
-98787,-144539,hypsographic,"Mount Troyan","Mount Troyan",variant,42.557222,19.756944,ME-000,,
-98787,-144498,hypsographic,"Mal i Trojanit","Mal i Trojanit",variant,42.557222,19.756944,ME-000,,
-98782,-144486,hypsographic,Troglav,Troglav,official,43.031667,18.543611,S1-000,,
-98781,9047187,hypsographic,Troglav,Troglav,variant,42.848889,19.659722,ME-000,,
-98781,-144485,hypsographic,Troglava,Troglava,official,42.848889,19.659722,ME-000,,
-98764,-144456,settlement,Trnovo,Trnovo,official,42.296667,19.029722,ME-000,,
-98756,-144443,settlement,Trnovice,Trnovice,official,43.354167,19.188056,ME-000,,
-98755,554924,settlement,Trnovice,Trnovice,variant,42.856944,19.336944,ME-000,,
-98755,-144442,settlement,Trnovica,Trnovica,official,42.856944,19.336944,ME-000,,
-98741,-144424,hydrographic,"Trnovačko Jezero","Trnovacko Jezero",official,43.251111,18.726111,ME-000,,
-98683,-144355,settlement,Trmanje,Trmanje,official,42.6475,19.344722,ME-000,,
-98633,-144270,hypsographic,"Trešteno Brdo","Tresteno Brdo",official,43.213889,18.9125,ME-000,,
-98622,-144256,settlement,Trešnjevo,Tresnjevo,official,42.763889,19.799444,ME-000,,
-98621,-144255,settlement,Trešnjevo,Tresnjevo,official,42.635556,18.751389,ME-000,,
-98612,-144240,hypsographic,Treskavica,Treskavica,official,42.583056,19.998889,ME-000,,
-98609,-144237,hypsographic,Treskavac,Treskavac,official,43.076944,18.966111,ME-000,,
-98599,-144223,settlement,Trepča,Trepca,official,42.776944,19.824167,ME-000,,
-98575,561772,hypsographic,Trebjesa,Trebjesa,official,42.766667,18.964444,ME-000,,
-98575,-144195,hypsographic,"Trebješka Glava","Trebjeska Glava",variant,42.766667,18.964444,ME-000,,
-98559,-144171,settlement,Trebešin,Trebesin,variant,42.472222,18.523889,ME-000,,
-98559,-144194,settlement,Trebižin,Trebizin,variant,42.472222,18.523889,ME-000,,
-98559,-144172,settlement,Trebesinj,Trebesinj,official,42.472222,18.523889,ME-000,,
-98513,-144113,hydrographic,"Baja di Traste","Baja di Traste",variant,42.373056,18.671944,ME-000,,
-98513,-144116,hydrographic,"Zaliv Trašte","Zaliv Traste",official,42.373056,18.671944,ME-000,,
-98513,25938,hydrographic,"Zaljev Trašte","Zaljev Traste",variant,42.373056,18.671944,ME-000,,
-98512,-144114,hypsographic,"Punta Traste","Punta Traste",variant,42.357222,18.688333,ME-000,,
-98512,-144115,hypsographic,"Rt Trašte","Rt Traste",official,42.357222,18.688333,ME-000,,
-98500,-144080,settlement,Traboin,Traboin,official,42.398056,19.450556,ME-000,,
-98500,-144082,settlement,Trabojin,Trabojin,variant,42.398056,19.450556,ME-000,,
-98500,-144081,settlement,"Traboin Stari","Traboin Stari",variant,42.398056,19.450556,ME-000,,
-98473,-144030,hypsographic,Torište,Toriste,official,42.815,19.729444,ME-000,,
-98421,-143950,hypsographic,"Toplo Prisoje","Toplo Prisoje",official,42.968889,18.927222,ME-000,,
-96577,-141178,settlement,Spuž,Spuz,official,42.5075,19.194167,ME-000,,
-98396,9079888,hypsographic,Planiku,Planiku,official,42.106667,19.331944,ME-000,,
-98396,-143911,hypsographic,Tophala,Tophala,variant,42.106667,19.331944,ME-000,,
-98391,-143948,hydrographic,"Topljanski Zaliv","Topljanski Zaliv",variant,42.45,18.516667,ME-000,,
-98391,-143921,hydrographic,"Toplanski Zaliv","Toplanski Zaliv",variant,42.45,18.516667,ME-000,,
-98391,-143918,hydrographic,"Baja di Topla","Baja di Topla",variant,42.45,18.516667,ME-000,,
-98391,-143903,hydrographic,"Topaljski Zaliv","Topaljski Zaliv",official,42.45,18.516667,ME-000,,
-98391,-143919,hydrographic,"Topla Bay","Topla Bay",variant,42.45,18.516667,ME-000,,
-98391,-143922,hydrographic,"Toplanski Zaljev","Toplanski Zaljev",variant,42.45,18.516667,ME-000,,
-98391,-143924,hydrographic,"Topla Zaliv","Topla Zaliv",variant,42.45,18.516667,ME-000,,
-98391,9040844,hydrographic,"Topaljski Zaljev","Topaljski Zaljev",variant,42.45,18.516667,ME-000,,
-98388,-122956,hypsographic,Kapurran,Kapurran,variant,42.641031,19.744182,S1-000,,
-98388,19184814,hypsographic,"Mali Kapuranit","Mali Kapuranit",variant,42.641031,19.744182,S1-000,,
-98388,-122957,hypsographic,"Maja e Kapurranit","Maja e Kapurranit",variant,42.641031,19.744182,S1-000,,
-98388,-122958,hypsographic,"Maj’ e Kapurranit","Maj' e Kapurranit",variant,42.641031,19.744182,S1-000,,
-98388,505114,hypsographic,"Maja e Kapuranit","Maja e Kapuranit",official,42.641031,19.744182,S1-000,,
-98388,-143897,hypsographic,"Tomova Glava","Tomova Glava",official,42.641031,19.744182,S1-000,,
-98388,-143429,hypsographic,"Tanova Glava","Tanova Glava",variant,42.641031,19.744182,S1-000,,
-98376,-143877,settlement,Tomići,Tomici,official,42.472222,18.935278,ME-000,,
-98375,-143876,settlement,Tomići,Tomici,official,42.2525,18.999722,ME-000,,
-98367,-143867,settlement,Tomaševo,Tomasevo,official,43.063056,19.638611,ME-000,,
-98367,-138390,settlement,Šahovići,Sahovici,variant,43.063056,19.638611,ME-000,,
-98349,-143840,settlement,Tološi,Tolosi,official,42.454722,19.224167,ME-000,,
-98312,9035380,settlement,Tmušiće,Tmusice,variant,42.837222,19.966389,ME-000,,
-98312,-143796,settlement,Tmušići,Tmusici,official,42.837222,19.966389,ME-000,,
-98299,-143775,hydrographic,Tivat,Tivat,variant,42.43,18.654444,ME-000,,
-98299,-143569,hydrographic,"Baja di Teodo","Baja di Teodo",variant,42.43,18.654444,ME-000,,
-98299,-143780,hydrographic,"Tivatski Zaliv","Tivatski Zaliv",official,42.43,18.654444,ME-000,,
-98299,25935,hydrographic,"Tivatski Zaljev","Tivatski Zaljev",variant,42.43,18.654444,ME-000,,
-98299,-143779,hydrographic,"Tivat Bay","Tivat Bay",variant,42.43,18.654444,ME-000,,
-98298,-143778,administrative_region,"Opština Tivat","Opstina Tivat",official,42.405556,18.653056,ME-19,,
-98298,14105858,administrative_region,Tivat,Tivat,official,42.405556,18.653056,ME-19,,
-98298,14131660,administrative_region,"Општина Тиват","Општина Тиват",unknown,42.405556,18.653056,ME-19,,
-98298,14276974,administrative_region,Тиват,Тиват,unknown,42.405556,18.653056,ME-19,,
-98297,-143777,hydrographic,"Luka Tivat","Luka Tivat",official,42.434167,18.691944,ME-000,,
-98296,14131813,settlement,Тиват,Тиват,unknown,42.436389,18.696111,ME-19,,
-98296,-143776,settlement,Tivat,Tivat,official,42.436389,18.696111,ME-19,,
-98296,-143568,settlement,Teodo,Teodo,variant,42.436389,18.696111,ME-19,,
-98287,-143763,administrative_region,"Opština Titograd","Opstina Titograd",variant,42.5,19.333333,ME-16,,
-98287,14131775,administrative_region,"Glavni Grad Podgorica","Glavni Grad Podgorica",official,42.5,19.333333,ME-16,,
-98287,14276990,administrative_region,Подгорица,Подгорица,unknown,42.5,19.333333,ME-16,,
-98287,14105853,administrative_region,Podgorica,Podgorica,official,42.5,19.333333,ME-16,,
-98287,14131774,administrative_region,"Главни Град Подгорица","Главни Град Подгорица",unknown,42.5,19.333333,ME-16,,
-98287,9120027,administrative_region,"Opština Podgorica","Opstina Podgorica",variant,42.5,19.333333,ME-16,,
-98254,-143718,hypsographic,Tisac,Tisac,variant,42.873333,18.5425,ME-000,,
-98254,9040877,hypsographic,Tisovac,Tisovac,official,42.873333,18.5425,ME-000,,
-98237,9039515,settlement,Timar,Timar,variant,42.978333,19.191111,ME-000,,
-98237,-143685,settlement,"Donji Timar","Donji Timar",official,42.978333,19.191111,ME-000,,
-98236,-143683,hypsographic,Tikvina,Tikvina,official,42.988056,18.640556,ME-000,,
-98173,451740,settlement,Borje,Borje,official,43.166389,19.185,ME-000,,
-98135,-143662,settlement,Tijana,Tijana,variant,42.102778,19.243333,ME-000,,
-98135,-143507,settlement,Tejani,Tejani,official,42.102778,19.243333,ME-000,,
-98088,-143441,hydrographic,Tara,Tara,official,43.348611,18.839722,S1-000,,
-98066,9067078,hypsographic,Tatinac,Tatinac,official,42.448056,18.812222,ME-000,,
-98066,-143399,hypsographic,Talinac,Talinac,variant,42.448056,18.812222,ME-000,,
-98065,-143398,hypsographic,Tali,Tali,official,42.808333,19.324722,ME-000,,
-98020,-143317,settlement,Svrke,Svrke,official,42.8675,19.329167,ME-000,,
-98005,-143296,hypsographic,Svinštik,Svinstik,official,42.304444,19.011944,ME-000,,
-97991,-143279,hydrographic,Svinjača,Svinjaca,official,42.828889,19.515278,ME-000,,
-97941,-138692,settlement,"San Stefano","San Stefano",variant,42.256111,18.891389,ME-000,,
-97941,-143191,settlement,"Sveti Stefan","Sveti Stefan",official,42.256111,18.891389,ME-000,,
-97914,-143123,hypsographic,"Sveti Nikola Island","Sveti Nikola Island",variant,42.265278,18.853333,ME-000,,
-97914,-112191,hypsographic,"Otočić Budva","Otocic Budva",variant,42.265278,18.853333,ME-000,,
-97914,-138649,hypsographic,"San Nicolo","San Nicolo",variant,42.265278,18.853333,ME-000,,
-97914,-143129,hypsographic,"Ostrvo Sveti Nikola","Ostrvo Sveti Nikola",variant,42.265278,18.853333,ME-000,,
-97914,-143115,hypsographic,"Otočić Sveti Nikola","Otocic Sveti Nikola",official,42.265278,18.853333,ME-000,,
-97914,561560,hypsographic,"Sveti Nikola","Sveti Nikola",variant,42.265278,18.853333,ME-000,,
-97914,-112186,hypsographic,"Scoglio Budua","Scoglio Budua",variant,42.265278,18.853333,ME-000,,
-97912,-139368,settlement,Šenkol,Senkol,variant,41.880833,19.375,ME-000,,
-97912,-143111,settlement,"Sveti Nikola","Sveti Nikola",official,41.880833,19.375,ME-000,,
-97912,-139812,settlement,Šinkol,Sinkol,variant,41.880833,19.375,ME-000,,
-97849,-139603,settlement,Shëngjergi,Shengjergi,variant,41.950556,19.344167,ME-000,,
-97849,-139789,settlement,"Šin Ðerđ","Sin Derd",variant,41.950556,19.344167,ME-000,,
-97849,557250,settlement,"Shën Gjergji","Shen Gjergji",variant,41.950556,19.344167,ME-000,,
-97849,-142960,settlement,"Sveti Ðorđe","Sveti Dorde",official,41.950556,19.344167,ME-000,,
-97824,25667,hypsographic,"Ostrva Sveta Trojica","Ostrva Sveta Trojica",variant,42.406111,18.703889,ME-000,,
-97824,-142908,hypsographic,"Otočić Sveta Trojica","Otocic Sveta Trojica",variant,42.406111,18.703889,ME-000,,
-97824,-135881,hypsographic,"Otočić Prevlaka","Otocic Prevlaka",variant,42.406111,18.703889,ME-000,,
-97824,9067337,hypsographic,"Ostrvo Cvijeća","Ostrvo Cvijeca",variant,42.406111,18.703889,ME-000,,
-97824,25670,hypsographic,"Otok Cvijeća","Otok Cvijeca",official,42.406111,18.703889,ME-000,,
-97824,-138419,hypsographic,"Saint Trojica Island","Saint Trojica Island",variant,42.406111,18.703889,ME-000,,
-97824,-135883,hypsographic,"Prevlaka Islet","Prevlaka Islet",variant,42.406111,18.703889,ME-000,,
-97824,-142909,hypsographic,"Sveta Trojica Islet","Sveta Trojica Islet",variant,42.406111,18.703889,ME-000,,
-97824,311671,hypsographic,"Cvijetni Otok","Cvijetni Otok",variant,42.406111,18.703889,ME-000,,
-97819,-142900,hypsographic,"Rt Sveta Nedjelja","Rt Sveta Nedjelja",official,42.46,18.675278,ME-000,,
-97819,-142894,hypsographic,"Rt Sveta Nedelja","Rt Sveta Nedelja",variant,42.46,18.675278,ME-000,,
-97817,-142956,hypsographic,"Ostrvo Sveti Domenik","Ostrvo Sveti Domenik",variant,42.197778,18.936389,ME-000,,
-97817,9059794,hypsographic,"Donji Katić","Donji Katic",variant,42.197778,18.936389,ME-000,,
-97817,-142892,hypsographic,"Sveta Neđelja","Sveta Nedelja",official,42.197778,18.936389,ME-000,,
-97817,-142893,hypsographic,"Hrid Sveta Neđelja","Hrid Sveta Nedelja",variant,42.197778,18.936389,ME-000,,
-97768,-142807,hypsographic,"Suvi Pećarac","Suvi Pecarac",official,42.983333,19.368889,ME-000,,
-97768,133474,hypsographic,Pečarac,Pecarac,variant,42.983333,19.368889,ME-000,,
-97774,-142814,settlement,Suvodo,Suvodo,official,43.133611,19.203889,ME-000,,
-97769,-142808,hypsographic,"Suvi Vrh","Suvi Vrh",official,42.801944,19.180556,ME-000,,
-97739,561523,settlement,Stvara,Stvara,variant,42.375556,18.762778,ME-000,,
-97739,-142771,settlement,Sutvara,Sutvara,official,42.375556,18.762778,ME-000,,
-97736,-142767,park,Sutorman,Sutorman,official,42.16,19.099444,ME-000,,
-97736,-142531,park,"Sula Orman","Sula Orman",variant,42.16,19.099444,ME-000,,
-97735,-142766,hypsographic,Sutorina,Sutorina,official,42.466667,18.485833,ME-000,1,
-97734,-142765,hydrographic,Sutorina,Sutorina,official,42.448333,18.503889,ME-000,,
-97733,-142762,settlement,Sutomore,Sutomore,official,42.142778,19.046667,ME-000,,
-97733,-142761,settlement,Sutomor,Sutomor,variant,42.142778,19.046667,ME-000,,
-97733,-141042,settlement,Spič,Spic,variant,42.142778,19.046667,ME-000,,
-97724,-142750,settlement,Sutjel,Sutjel,official,41.930556,19.353889,ME-000,,
-97715,130875,settlement,Šošunja,Sosunja,variant,42.316111,19.224167,ME-000,,
-97715,-142738,settlement,Šušunja,Susunja,official,42.316111,19.224167,ME-000,,
-97711,-142732,settlement,Sustaš,Sustas,official,42.113056,19.119444,ME-000,,
-97711,-142733,settlement,Sustaši,Sustasi,variant,42.113056,19.119444,ME-000,,
-97672,-142681,settlement,Sušćepan,Suscepan,official,42.468056,18.5125,ME-000,,
-97648,-142649,hypsographic,Surdup,Surdup,official,42.581111,19.546389,ME-000,,
-97634,436364,hypsographic,"Šuplja Stijena","Suplja Stijena",official,43.38,19.043056,ME-000,,
-97634,-142633,hypsographic,"Šuplja Stena","Suplja Stena",variant,43.38,19.043056,ME-000,,
-97613,-142596,hypsographic,Sumor,Sumor,official,42.651667,19.643611,ME-000,,
-97601,-116042,settlement,"Donje Šume","Donje Sume",official,42.490278,19.232778,ME-000,,
-97601,-142580,settlement,Šume,Sume,variant,42.490278,19.232778,ME-000,,
-97587,-142558,settlement,Šumani,Sumani,official,43.293056,19.325833,ME-000,,
-97569,-142530,settlement,Šula,Sula,official,43.384722,19.073056,ME-000,,
-97569,-142533,settlement,Šule,Sule,variant,43.384722,19.073056,ME-000,,
-97569,-142538,settlement,Šuli,Suli,variant,43.384722,19.073056,ME-000,,
-97568,-4851782,hypsographic,"Suka e Zez","Suka e Zez",official,42.355278,19.422222,S1-000,,
-97568,-142529,hypsographic,"Maj’ e Sukzezës","Maj' e Sukzezes",variant,42.355278,19.422222,S1-000,,
-97568,-142527,hypsographic,"Ma Sukzezes","Ma Sukzezes",variant,42.355278,19.422222,S1-000,,
-97563,-140850,settlement,Sokubin,Sokubin,variant,42.013056,19.364444,ME-000,,
-97563,-142520,settlement,Sukobin,Sukobin,official,42.013056,19.364444,ME-000,,
-97505,6012350,hypsographic,"Sudina Glava","Sudina Glava",official,42.813056,18.993333,ME-000,,
-97496,-142426,hypsographic,Subra,Subra,official,42.524444,18.538056,ME-000,,
-97448,9070191,hypsographic,Štuoc,Stuoc,official,43.174444,19.053333,ME-000,,
-97448,-142363,hypsographic,Štulac,Stulac,variant,43.174444,19.053333,ME-000,,
-97448,-142362,hypsographic,Štula,Stula,variant,43.174444,19.053333,ME-000,,
-97440,9040836,hypsographic,Studeno,Studeno,official,42.466111,18.470278,S1-000,,
-97420,561769,settlement,Studenca,Studenca,variant,42.766944,18.930833,ME-000,,
-97420,-142326,settlement,Studenci,Studenci,official,42.766944,18.930833,ME-000,,
-97413,-142317,hypsographic,Studenac,Studenac,official,43.25,18.7,S1-000,,
-97406,-142310,hypsographic,Studena,Studena,official,42.850833,19.036111,ME-000,,
-97388,-142279,settlement,Stubica,Stubica,official,43.176667,18.717778,ME-000,,
-97386,-142277,settlement,Stubica,Stubica,official,42.701111,18.978611,ME-000,,
-97384,561184,settlement,Stube,Stube,official,43.038056,19.877778,ME-000,,
-97384,-142306,settlement,Stubo,Stubo,variant,43.038056,19.877778,ME-000,,
-97384,-142304,settlement,Stublo,Stublo,variant,43.038056,19.877778,ME-000,,
-97384,-142275,settlement,Stubao,Stubao,variant,43.038056,19.877778,ME-000,,
-97378,-142269,settlement,Stuba,Stuba,official,42.814444,18.890556,ME-000,,
-97344,-142218,settlement,Strug,Strug,official,42.925278,19.196667,ME-000,,
-97338,-142211,settlement,Strp,Strp,official,42.505278,18.670278,ME-000,,
-97330,-142196,settlement,Strojtenica,Strojtenica,official,43.069722,19.789167,ME-000,,
-97330,9044357,settlement,Strojtanice,Strojtanice,variant,43.069722,19.789167,ME-000,,
-97330,-142195,settlement,Strojtanica,Strojtanica,variant,43.069722,19.789167,ME-000,,
-97314,-142171,hypsographic,"Strmni Pad","Strmni Pad",official,42.912778,19.739722,ME-000,,
-97303,-142160,hypsographic,Strmenica,Strmenica,variant,42.908333,19.707778,ME-000,,
-97303,9047130,hypsographic,"Crna Glava","Crna Glava",official,42.908333,19.707778,ME-000,,
-97303,133318,hypsographic,Stromenica,Stromenica,variant,42.908333,19.707778,ME-000,,
-97240,-142070,hydrographic,"Uvala Štrbin","Uvala Strbin",official,42.137222,19.028889,ME-000,,
-97234,-142064,hypsographic,Stražnica,Straznica,variant,42.721667,19.066111,ME-000,,
-97234,6033868,hypsographic,"Ravno Brdo","Ravno Brdo",official,42.721667,19.066111,ME-000,,
-97231,-142061,hypsographic,Stražište,Straziste,official,42.793611,18.528889,ME-000,,
-97224,-142051,hypsographic,Stražica,Strazica,official,43.374444,19.279444,ME-000,,
-97184,-142005,hypsographic,Strana,Strana,official,42.616944,19.015833,ME-000,,
-97177,-141995,settlement,Strahinići,Strahinici,official,42.513889,19.116111,ME-000,,
-97171,-129288,hypsographic,"Otočić Maslinik","Otocic Maslinik",variant,42.410833,18.691389,ME-000,,
-97171,-141988,hypsographic,"Otok Stradioti","Otok Stradioti",variant,42.410833,18.691389,ME-000,,
-97171,129620,hypsographic,"Otok Stradiot","Otok Stradiot",variant,42.410833,18.691389,ME-000,,
-97171,25676,hypsographic,"Ostrvo Masliniki","Ostrvo Masliniki",variant,42.410833,18.691389,ME-000,,
-97171,-143074,hypsographic,"Ostrvo Sveti Marko","Ostrvo Sveti Marko",variant,42.410833,18.691389,ME-000,,
-97171,-138411,hypsographic,"Saint Marko Island","Saint Marko Island",variant,42.410833,18.691389,ME-000,,
-97171,-141987,hypsographic,Stradiote,Stradiote,variant,42.410833,18.691389,ME-000,,
-97171,311573,hypsographic,"Sveti Marko","Sveti Marko",official,42.410833,18.691389,ME-000,,
-97171,25677,hypsographic,"Otok Sveti Marko","Otok Sveti Marko",variant,42.410833,18.691389,ME-000,,
-97171,-138627,hypsographic,"San Marco","San Marco",variant,42.410833,18.691389,ME-000,,
-97171,-141989,hypsographic,Stradiotti,Stradiotti,variant,42.410833,18.691389,ME-000,,
-97171,9067344,hypsographic,"Otočić Stradioti","Otocic Stradioti",variant,42.410833,18.691389,ME-000,,
-97163,561300,hypsographic,"Čovića Vrh","Covica Vrh",variant,43.120833,19.503889,ME-000,,
-97163,-141976,hypsographic,Stožer,Stozer,official,43.120833,19.503889,ME-000,,
-97162,-141975,hypsographic,Stožac,Stozac,official,42.809444,19.255,ME-000,,
-97130,-141932,settlement,Stolac,Stolac,official,43.136111,18.803611,ME-000,,
-97115,-141912,hypsographic,Stojkovac,Stojkovac,variant,42.973333,18.913333,ME-000,,
-97115,562922,hypsographic,"Veliki Stojkovac","Veliki Stojkovac",official,42.973333,18.913333,ME-000,,
-97095,-141888,settlement,Štodra,Stodra,official,41.985556,19.368333,ME-000,,
-97088,-141877,hypsographic,Sto,Sto,official,42.855,19.379722,ME-000,,
-97079,-141866,settlement,Štitari,Stitari,official,43.025,18.733333,ME-000,,
-97079,-141861,settlement,Štitare,Stitare,variant,43.025,18.733333,ME-000,,
-97078,-141865,settlement,Štitari,Stitari,official,42.944444,19.834444,ME-000,,
-97077,-141864,settlement,Štitari,Stitari,official,42.441111,19.02,ME-000,,
-97037,-141804,settlement,Stijena,Stijena,official,42.519444,19.258056,ME-000,,
-97004,504865,hypsographic,Štedin,Stedin,variant,42.758333,20.187778,ME-000,,
-97004,503614,hypsographic,Shtedim,Shtedim,variant,42.758333,20.187778,ME-000,,
-97004,-141753,hypsographic,Štedin,Stedin,variant,42.758333,20.187778,ME-000,,
-97004,539317,hypsographic,Amnica,Amnica,official,42.758333,20.187778,ME-000,,
-97003,-141752,settlement,Štedim,Stedim,official,42.772222,18.904722,ME-000,,
-96998,-141746,hypsographic,Stavor,Stavor,official,42.466667,18.962778,ME-000,,
-96969,-141709,settlement,"Staro Selo","Staro Selo",official,42.717778,19.106111,ME-000,,
-96888,-141606,settlement,"Stari Bar","Stari Bar",official,42.09,19.133056,ME-000,,
-96877,-141591,hypsographic,"Starčevo Gorica","Starcevo Gorica",official,42.19,19.211111,ME-000,,
-96877,9082993,hypsographic,"Gorica e Pljakut","Gorica e Pljakut",variant,42.19,19.211111,ME-000,,
-96820,-141522,hypsographic,Starac,Starac,official,42.942222,19.347778,ME-000,,
-96819,-141521,hypsographic,Starac,Starac,official,42.627594,20.045787,ME-000,,
-96782,-141469,settlement,Staniselići,Staniselici,official,42.409722,19.106944,ME-000,,
-96782,-141470,settlement,Staniseljići,Staniseljici,variant,42.409722,19.106944,ME-000,,
-96733,-141401,hypsographic,"Srpski Rid","Srpski Rid",official,42.501944,18.815,ME-000,1,
-96723,-141381,settlement,Srpska,Srpska,official,42.374444,19.218889,ME-000,,
-96696,-141343,settlement,Sretnja,Sretnja,official,42.596944,19.1325,ME-000,,
-96693,-141339,settlement,"Sreteška Gora","Sreteska Gora",official,42.707222,19.388333,ME-000,,
-96602,-141214,settlement,Srđevac,Srdevac,official,42.9575,19.853333,ME-000,,
-96484,-141063,settlement,Spinja,Spinja,official,42.351389,19.375833,ME-000,,
-96484,-141058,settlement,Spilja,Spilja,variant,42.351389,19.375833,ME-000,,
-96469,-141070,hydrographic,"Bucht Spizza","Bucht Spizza",variant,42.131667,19.050833,ME-000,,
-96469,-141071,hydrographic,"Valle Spizza","Valle Spizza",variant,42.131667,19.050833,ME-000,,
-96469,-142764,hydrographic,"Sutomore Bay","Sutomore Bay",variant,42.131667,19.050833,ME-000,,
-96469,-141044,hydrographic,"Zaliv Spič","Zaliv Spic",official,42.131667,19.050833,ME-000,,
-96469,-141043,hydrographic,"Uvala Spič","Uvala Spic",variant,42.131667,19.050833,ME-000,,
-96469,560807,hydrographic,"Sutomorski Zaliv","Sutomorski Zaliv",variant,42.131667,19.050833,ME-000,,
-96469,-141045,hydrographic,"Spičanski Zaliv","Spicanski Zaliv",variant,42.131667,19.050833,ME-000,,
-96469,-142763,hydrographic,"Uvala Sutomore","Uvala Sutomore",variant,42.131667,19.050833,ME-000,,
-96464,-141034,hypsographic,Spas,Spas,official,42.223889,18.956111,ME-000,,
-96451,-141013,settlement,Sozina,Sozina,official,42.175,19.051944,ME-000,,
-96428,-140982,settlement,Sotonići,Sotonici,official,42.234444,19.049167,ME-000,,
-96375,556813,hypsographic,"Somica Planina","Somica Planina",variant,42.916389,19.315,ME-000,,
-96375,-140905,hypsographic,"Somina Planina","Somina Planina",official,42.916389,19.315,ME-000,,
-96374,-140904,settlement,Somina,Somina,official,42.958889,18.595,ME-000,,
-96373,-140903,hypsographic,Somina,Somina,official,43.024722,18.575556,S1-000,,
-96332,-140834,hypsographic,"Sokolova Greda","Sokolova Greda",official,42.511944,18.6675,ME-000,,
-96325,19180450,hypsographic,"Mali Sokolit","Mali Sokolit",variant,42.493417,19.558076,S1-000,,
-96325,-140790,hypsographic,Soko,Soko,variant,42.493417,19.558076,S1-000,,
-96325,-140824,hypsographic,"Maj’ e Sokolit","Maj' e Sokolit",variant,42.493417,19.558076,S1-000,,
-96325,-140823,hypsographic,"Maja e Sokolit","Maja e Sokolit",official,42.493417,19.558076,S1-000,,
-96325,-140822,hypsographic,"Maja Sokolit","Maja Sokolit",variant,42.493417,19.558076,S1-000,,
-96300,-140791,hypsographic,Soko,Soko,official,43.331389,18.873333,ME-000,,
-96263,-140743,settlement,Šobojići,Sobojici,variant,42.627778,19.067778,ME-000,,
-96263,-140737,settlement,Šobajići,Sobajici,variant,42.627778,19.067778,ME-000,,
-96263,-140736,settlement,Šobajića,Sobajica,variant,42.627778,19.067778,ME-000,,
-96263,560647,settlement,Šobaići,Sobaici,official,42.627778,19.067778,ME-000,,
-96255,-140725,hypsographic,"Sniješko Brdo","Snijesko Brdo",variant,43.041389,18.993611,ME-000,,
-96255,9070045,hypsographic,"Mliječno Brdo","Mlijecno Brdo",official,43.041389,18.993611,ME-000,,
-96236,-140694,settlement,Smriječno,Smrijecno,official,43.126389,18.775556,ME-000,,
-96228,-140685,settlement,Smrduša,Smrdusa,official,42.784167,18.701389,ME-000,,
-96218,-140673,settlement,Smrčje,Smrcje,official,42.795278,19.573611,ME-000,,
-96216,-140670,hypsographic,"Smrčeva Glavica","Smrceva Glavica",official,42.955,18.903889,ME-000,,
-96215,-140668,hypsographic,Smonik,Smonik,official,42.678333,19.277222,ME-000,,
-96187,-140632,settlement,Smokovci,Smokovci,official,42.320278,19.019444,ME-000,,
-96079,-140458,settlement,Šljuke,Sljuke,official,43.361111,19.127778,ME-000,,
-96066,-140444,settlement,Šljivansko,Sljivansko,official,43.127778,19.3,ME-000,,
-96063,-140441,hypsographic,Šljemeno,Sljemeno,variant,42.695556,19.285833,ME-000,,
-96063,9063171,hypsographic,Šljemena,Sljemena,official,42.695556,19.285833,ME-000,,
-96063,556619,hypsographic,Slemeno,Slemeno,variant,42.695556,19.285833,ME-000,,
-96061,-140437,hypsographic,Šljeme,Sljeme,official,43.115278,19.071389,ME-000,,
-95954,-140271,settlement,Slatina,Slatina,official,43.273056,19.084722,ME-000,,
-95949,-140266,settlement,Slatina,Slatina,variant,42.975,19.166667,ME-000,,
-95949,562792,settlement,"Gornja Slatina","Gornja Slatina",official,42.975,19.166667,ME-000,,
-95948,-140265,settlement,Slatina,Slatina,official,42.756667,19.776111,ME-000,,
-95947,-140263,settlement,Slatina,Slatina,official,42.586667,19.147222,ME-000,,
-95945,-140260,hypsographic,Slatina,Slatina,official,43.366557,19.454139,ME-000,,
-95945,10879745,hypsographic,Slatina,Slatina,official,43.366557,19.454139,ME-000,,
-95936,-140251,settlement,Slapci,Slapci,official,42.630556,19.0175,ME-000,,
-95936,-140246,settlement,Slap,Slap,variant,42.630556,19.0175,ME-000,,
-95907,-140202,hydrographic,"Rečica Škurda","Recica Skurda",variant,42.427222,18.768056,ME-000,,
-95907,-140203,hydrographic,"Riječica Skurda","Rijecica Skurda",variant,42.427222,18.768056,ME-000,,
-95907,-140201,hydrographic,Škurda,Skurda,official,42.427222,18.768056,ME-000,,
-95871,-140146,settlement,Skrbuša,Skrbusa,official,42.790278,19.539167,ME-000,,
-95851,-140121,hypsographic,"Skori Vrh","Skori Vrh",variant,42.733333,19.152778,ME-000,,
-95851,6033521,hypsographic,"Skorin Vrh","Skorin Vrh",official,42.733333,19.152778,ME-000,,
-95848,-140118,hypsographic,"Skorča Gora","Skorca Gora",official,42.735556,18.545556,ME-000,,
-95846,-140116,settlement,Skorač,Skorac,official,42.366111,19.386389,ME-000,,
-95840,-140106,hydrographic,Škopotnica,Skopotnica,official,43.434444,19.014444,S1-000,,
-95840,147337,hydrographic,Škopatnica,Skopatnica,variant,43.434444,19.014444,S1-000,,
-95808,-140053,settlement,Skić,Skic,official,42.606389,19.943611,ME-000,,
-95792,-140031,hypsographic,Ckara,Ckara,official,42.946389,19.5125,ME-000,,
-95792,9046990,hypsographic,Skara,Skara,variant,42.946389,19.5125,ME-000,,
-95777,-140021,settlement,Skakovac,Skakovac,variant,42.907222,19.867222,ME-000,,
-95777,-140013,settlement,Skakavac,Skakavac,official,42.907222,19.867222,ME-000,,
-95767,-139999,hydrographic,Sjevernica,Sjevernica,official,42.703611,19.377222,ME-000,,
-95765,-139992,settlement,Sjenožeta,Sjenozeta,official,42.750556,19.733611,ME-000,,
-95765,-139991,settlement,Sjenoseti,Sjenoseti,variant,42.750556,19.733611,ME-000,,
-95763,-139995,settlement,Sjerogošte,Sjerogoste,official,42.897778,19.536944,ME-000,,
-95763,-139988,settlement,Sjenogošte,Sjenogoste,variant,42.897778,19.536944,ME-000,,
-95760,-139985,settlement,Sjenice,Sjenice,official,42.465556,19.331389,ME-000,,
-95752,504485,hypsographic,Sekiticë,Sekitice,variant,42.705,19.914444,ME-000,,
-95752,-139973,hypsographic,Sjekirica,Sjekirica,official,42.705,19.914444,ME-000,,
-95734,-139945,hydrographic,Sitnica,Sitnica,official,42.388333,19.192778,ME-000,,
-95725,-139929,hypsographic,Šišman,Sisman,official,42.926944,18.891667,ME-000,,
-95722,-139926,hydrographic,"Šiško Jezero","Sisko Jezero",official,42.898056,19.671667,ME-000,,
-95692,-139890,hypsographic,Širokar,Sirokar,official,42.583889,19.607778,ME-000,1,
-95666,-139856,settlement,Šipovice,Sipovice,variant,43.021389,19.896389,ME-000,,
-95666,-139854,settlement,Šipovica,Sipovica,official,43.021389,19.896389,ME-000,,
-95650,-139832,settlement,Sipanje,Sipanje,official,43,19.936389,ME-000,,
-95647,-139828,settlement,Šipačno,Sipacno,official,42.871389,18.945556,ME-000,,
-95629,-139803,hypsographic,Sinjajevina,Sinjajevina,official,42.959444,19.333611,ME-000,,
-95629,-139804,hypsographic,"Sinjajevina Planina","Sinjajevina Planina",variant,42.959444,19.333611,ME-000,,
-95629,-139807,hypsographic,"Sinjavina Planina","Sinjavina Planina",variant,42.959444,19.333611,ME-000,,
-95629,451357,hypsographic,Sinjavina,Sinjavina,variant,42.959444,19.333611,ME-000,,
-95621,-139795,hypsographic,Šingli,Singli,variant,42.056944,19.318889,ME-000,,
-95621,9079907,hypsographic,Šimri,Simri,official,42.056944,19.318889,ME-000,,
-95621,553478,hypsographic,Širna,Sirna,variant,42.056944,19.318889,ME-000,,
-95619,-139791,settlement,Šinđon,Sindon,official,42.356944,19.040278,ME-000,,
-95619,-139786,settlement,Šindan,Sindan,variant,42.356944,19.040278,ME-000,,
-95619,-139790,settlement,Šindjon,Sindjon,variant,42.356944,19.040278,ME-000,,
-95582,-139734,hypsographic,Siljevac,Siljevac,variant,42.879722,19.057222,ME-000,,
-95582,9047922,hypsographic,"Veliki Siljevac","Veliki Siljevac",official,42.879722,19.057222,ME-000,,
-95579,9053269,hypsographic,Siljevica,Siljevica,official,42.483611,19.035833,ME-000,,
-95579,-139730,hypsographic,Siljavica,Siljavica,variant,42.483611,19.035833,ME-000,,
-95451,-139533,hypsographic,Šestarevac,Sestarevac,official,42.878333,19.811667,ME-000,,
-95449,-139531,settlement,"Donji Šestani","Donji Sestani",variant,42.184722,19.173333,ME-000,,
-95449,9055651,settlement,"Donji Murići","Donji Murici",official,42.184722,19.173333,ME-000,,
-95422,-139475,settlement,Seoštica,Seostica,official,42.575278,19.423889,ME-000,,
-95402,9034535,settlement,Seoce,Seoce,variant,42.907778,19.8375,ME-000,,
-95402,-139451,settlement,Seoca,Seoca,official,42.907778,19.8375,ME-000,,
-95401,-139450,settlement,Seoca,Seoca,official,42.731667,19.809167,ME-000,,
-95401,-139455,settlement,Seoce,Seoce,variant,42.731667,19.809167,ME-000,,
-95400,-139449,settlement,Seoca,Seoca,official,42.553333,19.281667,ME-000,,
-95399,-139448,settlement,"Gornja Seoca","Gornja Seoca",official,42.213889,19.132778,ME-000,,
-95283,-148992,hydrographic,"Zeljanovo Bay","Zeljanovo Bay",variant,42.438611,18.688333,ME-000,,
-95283,-148990,hydrographic,"Bucht Zeljano","Bucht Zeljano",variant,42.438611,18.688333,ME-000,,
-95283,-139225,hydrographic,"Uvala Seljanovo","Uvala Seljanovo",official,42.438611,18.688333,ME-000,,
-95282,-148991,hypsographic,"Spitze Zeljano","Spitze Zeljano",variant,42.438889,18.684167,ME-000,,
-95282,-139224,hypsographic,"Rt Seljanovo","Rt Seljanovo",official,42.438889,18.684167,ME-000,,
-95268,-139206,settlement,Selište,Seliste,variant,42.829167,19.544167,ME-000,,
-95268,-139201,settlement,Selišta,Selista,official,42.829167,19.544167,ME-000,,
-95267,-139205,settlement,Selište,Seliste,official,42.406667,19.423056,ME-000,,
-95265,-139210,settlement,Selište,Seliste,variant,43.490833,19.049167,ME-000,,
-95265,-139203,settlement,Selišta,Selista,official,43.490833,19.049167,ME-000,,
-95215,-139134,settlement,Selac,Selac,official,43.130278,19.351111,ME-000,,
-95208,-139121,settlement,Sekulići,Sekulici,official,42.561667,19.119722,ME-000,,
-95169,-139054,hypsographic,Sedlo,Sedlo,official,43.088056,19.053333,ME-000,,
-95132,-140085,hydrographic,Skodra,Skodra,variant,42.186386,19.296682,S1-000,,
-95132,-139000,hydrographic,"Lago di Scutar","Lago di Scutar",variant,42.186386,19.296682,S1-000,,
-95132,-126147,hydrographic,"Labeatis Lacus","Labeatis Lacus",variant,42.186386,19.296682,S1-000,,
-95132,-121326,hydrographic,"İşkodra Gölü","Iskodra Golu",variant,42.186386,19.296682,S1-000,,
-95132,-145148,hydrographic,Üsküdar,Uskudar,variant,42.186386,19.296682,S1-000,,
-95132,-140205,hydrographic,Skutariseë,Skutarisee,variant,42.186386,19.296682,S1-000,,
-95132,-140010,hydrographic,"Skadarsko Yezero","Skadarsko Yezero",variant,42.186386,19.296682,S1-000,,
-95132,-139002,hydrographic,"Lake Scutari","Lake Scutari",colloquial,42.186386,19.296682,S1-000,,
-95132,-140083,hydrographic,"Lićeni i Škoders","Liceni i Skoders",variant,42.186386,19.296682,S1-000,,
-95132,-140008,hydrographic,"Skadarsko Jesero","Skadarsko Jesero",variant,42.186386,19.296682,S1-000,,
-95132,-139001,hydrographic,"Lago di Scutari","Lago di Scutari",variant,42.186386,19.296682,S1-000,,
-95132,-139003,hydrographic,"Skadarsko Jezero","Skadarsko Jezero",official,42.186386,19.296682,S1-000,,
-95132,-139608,hydrographic,"Liqeni i Shkodrës","Liqeni i Shkodres",official,42.186386,19.296682,S1-000,,
-95132,-140086,hydrographic,"Liceni Skodrs","Liceni Skodrs",variant,42.186386,19.296682,S1-000,,
-95132,-139609,hydrographic,"Luqen i Shkodrës","Luqen i Shkodres",variant,42.186386,19.296682,S1-000,,
-95132,-139600,hydrographic,"Liceni Shcodrs","Liceni Shcodrs",variant,42.186386,19.296682,S1-000,,
-95132,-139604,hydrographic,Shkodër,Shkoder,variant,42.186386,19.296682,S1-000,,
-95132,-139005,hydrographic,"Scutari See","Scutari See",variant,42.186386,19.296682,S1-000,,
-95132,-139606,hydrographic,Shkodra,Shkodra,variant,42.186386,19.296682,S1-000,,
-95132,-139612,hydrographic,"Luqen i Shokdrës","Luqen i Shokdres",variant,42.186386,19.296682,S1-000,,
-95132,-126146,hydrographic,"Palus Labeatis","Palus Labeatis",variant,42.186386,19.296682,S1-000,,
-95132,-139607,hydrographic,"Liqen i Shkodrës","Liqen i Shkodres",variant,42.186386,19.296682,S1-000,,
-95132,-139605,hydrographic,"Lake of Shkodër","Lake of Shkoder",variant,42.186386,19.296682,S1-000,,
-95115,-4850806,hypsographic,Šćapica,Scapica,official,42.507784,19.906143,S1-000,,
-95115,-139614,hypsographic,"Maja e Siapicës","Maja e Siapices",variant,42.507784,19.906143,S1-000,,
-95115,9032299,hypsographic,"Maja Fasllicë","Maja Fasllice",official,42.507784,19.906143,S1-000,,
-95115,-138750,hypsographic,"Maja Sapit","Maja Sapit",variant,42.507784,19.906143,S1-000,,
-95115,19227897,hypsographic,"Mal Fasllisë","Mal Fasllise",variant,42.507784,19.906143,S1-000,,
-95115,-139615,hypsographic,"Maj’ e Siapicës","Maj' e Siapices",variant,42.507784,19.906143,S1-000,,
-95099,14105857,administrative_region,Šavnik,Savnik,official,42.956389,19.093889,ME-18,,
-95099,14276973,administrative_region,Шавник,Шавник,unknown,42.956389,19.093889,ME-18,,
-95099,14131659,administrative_region,"Општина Шавник","Општина Шавник",unknown,42.956389,19.093889,ME-18,,
-95099,-138916,administrative_region,"Opština Šavnik","Opstina Savnik",official,42.956389,19.093889,ME-18,,
-95098,-138915,settlement,Šavnik,Savnik,official,42.956389,19.096667,ME-18,,
-95098,14131809,settlement,Шавник,Шавник,unknown,42.956389,19.096667,ME-18,,
-95092,-138908,hypsographic,"Savino Brdo","Savino Brdo",official,42.712778,18.629167,ME-000,,
-95088,-138902,settlement,"Savin Bor","Savin Bor",official,42.951944,20.055,ME-000,,
-95059,-138861,settlement,Sasovići,Sasovici,official,42.47,18.565278,ME-000,,
-95056,557244,hydrographic,"Liqeni Shasko","Liqeni Shasko",variant,41.974167,19.334167,ME-000,,
-95056,-138858,hydrographic,"Šasko Jezero","Sasko Jezero",official,41.974167,19.334167,ME-000,,
-95056,9072827,hydrographic,"Ljićeni i Šasit","Ljiceni i Sasit",variant,41.974167,19.334167,ME-000,,
-95056,-138854,hydrographic,"Šašit Lake","Sasit Lake",variant,41.974167,19.334167,ME-000,,
-95056,-138853,hydrographic,"Liceni Šasit","Liceni Sasit",variant,41.974167,19.334167,ME-000,,
-95056,-138857,hydrographic,"Šasko Blato","Sasko Blato",variant,41.974167,19.334167,ME-000,,
-95039,-138836,settlement,Šas,Sas,official,41.991667,19.32,ME-000,,
-95027,-138815,settlement,Šarići,Sarici,official,43.254444,18.906389,ME-000,,
-95005,-138783,park,Šaranci,Saranci,official,43.1,19.3,ME-000,,
-94952,-138564,hypsographic,Šanac,Sanac,official,42.951944,19.485278,ME-000,,
-94895,-138471,settlement,Salč,Salc,official,41.970278,19.211389,ME-000,,
-94829,561024,settlement,Ržišta,Rzista,official,42.573056,19.0375,ME-000,,
-94829,-138341,settlement,Ržište,Rziste,variant,42.573056,19.0375,ME-000,,
-94822,-138332,settlement,"Ržani Do","Rzani Do",official,42.513611,18.838611,ME-000,,
-94815,-138322,settlement,Rvaši,Rvasi,official,42.371389,19.089444,ME-000,,
-94760,-138240,hypsographic,Rumija,Rumija,official,42.096944,19.2075,ME-000,,
-94710,-138170,hypsographic,"Rudo Brdo","Rudo Brdo",official,42.770833,19.729444,ME-000,,
-94698,-138156,hydrographic,Rudnica,Rudnica,official,42.955,19.576667,ME-000,,
-94697,9077385,settlement,"Donja Rudnica","Donja Rudnica",official,43.379444,19.325278,ME-000,,
-94697,-138155,settlement,Rudnica,Rudnica,variant,43.379444,19.325278,ME-000,,
-94691,-138149,settlement,Rudinice,Rudinice,official,43.070556,18.858333,ME-000,,
-94691,-138148,settlement,Rudinica,Rudinica,variant,43.070556,18.858333,ME-000,,
-94687,-138143,settlement,Rudine,Rudine,official,42.433056,19.416944,ME-000,,
-94685,-138141,hypsographic,Rudine,Rudine,official,43.363611,19.138056,ME-000,,
-94684,9043988,hypsographic,"Vlahovo Brdo","Vlahovo Brdo",official,43.038056,19.640278,ME-000,,
-94684,-138140,hypsographic,Rudine,Rudine,variant,43.038056,19.640278,ME-000,,
-94684,563588,hypsographic,"Vlaovo Brdo","Vlaovo Brdo",variant,43.038056,19.640278,ME-000,,
-94662,-138104,hypsographic,"Ruda Brda","Ruda Brda",official,42.6475,18.848056,ME-000,,
-94649,-138087,settlement,Rubeža,Rubeza,variant,42.7775,18.994722,ME-000,,
-94649,-138088,settlement,Rubeži,Rubezi,official,42.7775,18.994722,ME-000,,
-94635,-138066,hypsographic,"Rozin Vrh","Rozin Vrh",official,42.803611,19.109444,ME-000,,
-94616,-138039,administrative_region,Rožaj,Rozaj,variant,42.842778,20.150278,ME-000,,
-94616,-138038,administrative_region,"Opština Rožaje","Opstina Rozaje",official,42.842778,20.150278,ME-000,,
-94615,503051,settlement,Rozhajë,Rozhaje,variant,42.843889,20.168333,ME-17,,
-94615,14131812,settlement,Рожаје,Рожаје,unknown,42.843889,20.168333,ME-17,,
-94615,-138037,settlement,Rožaj,Rozaj,variant,42.843889,20.168333,ME-17,,
-94615,-138040,settlement,Rožaje,Rozaje,official,42.843889,20.168333,ME-17,,
-94615,2566,settlement,Roža,Roza,variant,42.843889,20.168333,ME-17,,
-94598,-138012,park,Rovca,Rovca,official,42.75,19.341667,ME-000,,
-94598,-138014,park,Rovci,Rovci,variant,42.75,19.341667,ME-000,,
-94597,-138013,settlement,Rovce,Rovce,variant,42.787778,19.889722,ME-000,,
-94597,-138011,settlement,Rovca,Rovca,official,42.787778,19.889722,ME-000,,
-94595,-138009,settlement,"Rovačko Trebaljevo","Rovacko Trebaljevo",official,42.859444,19.535278,ME-000,,
-94576,-138056,hydrographic,"Luka Roze","Luka Roze",variant,42.427222,18.555278,ME-000,,
-94576,-137977,hydrographic,"Luka Rose","Luka Rose",official,42.427222,18.555278,ME-000,,
-94575,-137975,settlement,Rose,Rose,official,42.427222,18.556667,ME-000,,
-94575,-138054,settlement,Rože,Roze,variant,42.427222,18.556667,ME-000,,
-94574,-137974,settlement,Rošca,Rosca,official,42.659722,19.011389,ME-000,,
-94523,-137894,hypsographic,Rogođed,Rogoded,official,42.786389,19.222222,ME-000,,
-94506,-137872,settlement,Rogami,Rogami,variant,42.486944,19.288611,ME-000,,
-94506,553622,settlement,"Gornji Rogami","Gornji Rogami",official,42.486944,19.288611,ME-000,,
-94439,25932,hydrographic,"Risanski Zaljev","Risanski Zaljev",variant,42.495833,18.671944,ME-000,,
-94439,559236,hydrographic,"Risajnski Zaliv","Risajnski Zaliv",variant,42.495833,18.671944,ME-000,,
-94439,-137779,hydrographic,"Golfo di Risano","Golfo di Risano",variant,42.495833,18.671944,ME-000,,
-94439,-137776,hydrographic,"Risan Bay","Risan Bay",variant,42.495833,18.671944,ME-000,,
-94439,-137781,hydrographic,"Risanski Zaliv","Risanski Zaliv",official,42.495833,18.671944,ME-000,,
-94438,-137777,settlement,Risano,Risano,variant,42.515,18.695556,ME-000,,
-94438,-137775,settlement,Risan,Risan,official,42.515,18.695556,ME-000,,
-94416,-137737,settlement,Rijeka,Rijeka,variant,42.356389,19.025278,ME-000,,
-94416,-137745,settlement,"Rijeka Crnojevića","Rijeka Crnojevica",official,42.356389,19.025278,ME-000,,
-94406,-137725,spot,"Železnička Stanica Riječani","Zeleznicka Stanica Rijecani",official,42.739444,18.628333,ME-000,1,
-94406,9052985,spot,"Postaja Riječani","Postaja Rijecani",variant,42.739444,18.628333,ME-000,1,
-94405,-137724,settlement,Riječani,Rijecani,official,42.75,18.653333,ME-000,,
-94404,-137723,settlement,Riječani,Rijecani,official,42.340556,19.055278,ME-000,,
-94355,-137662,hydrographic,"Riblje Jezero","Riblje Jezero",official,43.091667,19.150833,ME-000,,
-94299,-137589,settlement,Resnik,Resnik,official,43.041389,19.773889,ME-000,,
-94298,-137588,settlement,Resna,Resna,official,42.494444,18.878056,ME-000,,
-94246,-137517,settlement,Relezi,Relezi,variant,42.431111,19.052222,ME-000,,
-94246,-137516,settlement,Releza,Releza,official,42.431111,19.052222,ME-000,,
-94235,-137495,settlement,Redice,Redice,official,42.878889,19.298056,ME-000,,
-94203,-137452,settlement,Reč,Rec,official,41.921111,19.363611,ME-000,,
-94190,-137434,hypsographic,Razvršje,Razvrsje,official,43.201667,19.269722,ME-000,,
-94144,-137375,park,Ravno,Ravno,official,43.159444,18.684167,ME-000,,
-94108,-137337,settlement,"Donji Ravni","Donji Ravni",official,42.768611,19.444722,ME-000,,
-94036,-137218,settlement,Ratiševina,Ratisevina,official,42.479444,18.505833,ME-000,,
-94019,-138004,hypsographic,"Rt Rotac","Rt Rotac",variant,42.122778,19.0625,ME-000,,
-94019,350768,hypsographic,Ratac,Ratac,variant,42.122778,19.0625,ME-000,,
-94019,-137191,hypsographic,"Rt Ratac","Rt Ratac",official,42.122778,19.0625,ME-000,,
-94019,-136533,hypsographic,Raca,Raca,variant,42.122778,19.0625,ME-000,,
-94019,-137210,hypsographic,Ratec,Ratec,variant,42.122778,19.0625,ME-000,,
-94010,-137178,spot,Rašulja,Rasulja,official,42.891389,18.846667,ME-000,,
-93998,-137163,settlement,Rastovac,Rastovac,official,42.835278,18.944722,ME-000,,
-93992,553460,settlement,Rastiš,Rastis,official,42.038333,19.332778,ME-000,,
-93992,-137156,settlement,"Gornji Rastiš","Gornji Rastis",variant,42.038333,19.332778,ME-000,,
-93992,556309,settlement,"Donji Rastiš","Donji Rastis",variant,42.038333,19.332778,ME-000,,
-93992,-137157,settlement,Rastiša,Rastisa,variant,42.038333,19.332778,ME-000,,
-93975,-137134,settlement,Rasovo,Rasovo,official,43.060833,19.783611,ME-000,,
-93974,-137133,hypsographic,"Rasovi Vrh","Rasovi Vrh",variant,43.040556,19.546944,ME-000,,
-93974,9043990,hypsographic,"Rusova Vlaka","Rusova Vlaka",official,43.040556,19.546944,ME-000,,
-93971,9056875,hypsographic,Rasotac,Rasotac,variant,42.224444,19.007222,ME-000,,
-93971,-137129,hypsographic,Rasovatac,Rasovatac,official,42.224444,19.007222,ME-000,,
-93965,-137122,hypsographic,Rasova,Rasova,official,43.008889,19.270278,ME-000,1,
-93946,-137097,settlement,Raško,Rasko,official,42.825833,19.39,ME-000,,
-93946,-137087,settlement,Raška,Raska,variant,42.825833,19.39,ME-000,,
-93828,-136927,settlement,Rakonje,Rakonje,official,43.021667,19.738889,ME-000,,
-93804,-136900,settlement,Rakita,Rakita,variant,42.979167,19.676667,ME-000,,
-93804,9038775,settlement,"Donja Rakita","Donja Rakita",official,42.979167,19.676667,ME-000,,
-93730,-136794,settlement,Radulić,Radulic,variant,42.982778,19.886944,ME-000,,
-93730,-136795,settlement,Radulići,Radulici,official,42.982778,19.886944,ME-000,,
-93706,-136761,settlement,Radovići,Radovici,official,42.396389,18.670833,ME-000,,
-93706,-136759,settlement,Radović,Radovic,variant,42.396389,18.670833,ME-000,,
-93684,-136735,hypsographic,Radoštak,Radostak,official,42.494167,18.57,ME-000,,
-93656,-136701,settlement,Radomir,Radomir,official,42.271111,19.014444,ME-000,,
-93651,-136691,settlement,"Radojeva Glava","Radojeva Glava",official,43.077778,19.843889,ME-000,,
-93632,-136663,settlement,Radmanci,Radmanci,official,42.926944,19.9675,ME-000,,
-93632,9035390,settlement,Radmance,Radmance,variant,42.926944,19.9675,ME-000,,
-93620,25704,hypsographic,Radiševica,Radisevica,variant,42.39,18.668056,ME-000,,
-93620,-136647,hypsographic,Radišević,Radisevic,official,42.39,18.668056,ME-000,,
-93593,-136606,settlement,Radetina,Radetina,official,42.893056,20.2575,ME-000,,
-93575,-136580,settlement,Radeća,Radeca,official,42.517778,19.280278,ME-000,,
-93553,-136548,settlement,Raći,Raci,official,42.517222,19.377778,ME-000,,
-93553,-136542,settlement,Raće,Race,variant,42.517222,19.377778,ME-000,,
-93553,-136544,settlement,Raćesi,Racesi,variant,42.517222,19.377778,ME-000,,
-93536,-136519,settlement,Rabiklje,Rabiklje,variant,43.305,19.3825,ME-000,,
-93536,-136521,settlement,Rabitlje,Rabitlje,official,43.305,19.3825,ME-000,,
-93506,-136462,hypsographic,"Pusti Lisac","Pusti Lisac",official,42.688056,18.794722,ME-000,,
-93488,9240105,settlement,"Pušonjski Do","Pusonjski Do",variant,43.163611,19.33,ME-000,,
-93488,-136431,settlement,"Pušanjski Do","Pusanjski Do",official,43.163611,19.33,ME-000,,
-93429,-136347,hydrographic,"Zaliv Pržno","Zaliv Przno",variant,42.383611,18.682778,ME-000,,
-93429,-136346,hydrographic,"Uvala Pržna","Uvala Przna",official,42.383611,18.682778,ME-000,,
-93429,9060495,hydrographic,"Uvala Pržno","Uvala Przno",variant,42.383611,18.682778,ME-000,,
-93371,-136266,settlement,Provalija,Provalija,official,43.064167,19.113611,ME-000,,
-93371,-136268,settlement,Provalije,Provalije,variant,43.064167,19.113611,ME-000,,
-93355,-136245,settlement,"Proseni Do","Proseni Do",official,42.53,18.854444,ME-000,,
-93320,-136185,settlement,Progonovići,Progonovici,official,42.430833,19.068889,ME-000,,
-93298,-136157,settlement,Prnjavor,Prnjavor,official,42.598056,19.950556,ME-000,,
-93268,9049925,hypsographic,"Previjansko Brdo","Previjansko Brdo",official,42.963611,19.77,ME-000,,
-93268,-136118,hypsographic,"Privijansko Brdo","Privijansko Brdo",variant,42.963611,19.77,ME-000,,
-93257,-136105,settlement,Pristan,Pristan,official,42.425556,18.601667,ME-000,,
-93254,-108375,settlement,Aprcovici,Aprcovici,variant,43.153611,18.733611,ME-000,,
-93254,-136099,settlement,"Prisojni Orah","Prisojni Orah",official,43.153611,18.733611,ME-000,,
-93247,-136091,settlement,Prisoja,Prisoja,official,42.619722,19.521944,ME-000,,
-93228,460411,settlement,Pripčići,Pripcici,official,43.005556,19.738611,ME-000,,
-93228,-136067,settlement,Pripčiće,Pripcice,variant,43.005556,19.738611,ME-000,,
-93192,-136011,settlement,Prijevor,Prijevor,official,42.493889,18.453056,ME-000,,
-93191,-136010,settlement,Prijevor,Prijevor,official,42.290556,18.815,ME-000,,
-93190,-136009,settlement,Prijevor,Prijevor,variant,42.203333,18.956111,ME-000,,
-93190,-136016,settlement,Prijevorac,Prijevorac,official,42.203333,18.956111,ME-000,,
-93189,-136006,settlement,Prijeradi,Prijeradi,official,42.355,18.782778,ME-000,,
-93158,-135969,settlement,Prifta,Prifta,official,42.401944,19.390556,ME-000,,
-93158,-135970,settlement,Prifti,Prifti,variant,42.401944,19.390556,ME-000,,
-93153,-135963,hydrographic,Pridvorica,Pridvorica,official,42.973889,19.031667,ME-000,,
-93147,-135956,settlement,Pridvorica,Pridvorica,official,42.964722,19.064444,ME-000,,
-93093,-135878,settlement,Prevlaka,Prevlaka,official,42.335278,19.098611,ME-000,,
-93090,-135873,settlement,Previš,Previs,official,42.978611,19.094444,ME-000,,
-93063,452824,hypsographic,Preslež,Preslez,variant,43.264167,19.102778,ME-000,,
-93063,-135804,hypsographic,Preslijež,Preslijez,official,43.264167,19.102778,ME-000,,
-93024,-135748,settlement,"Prentin Do","Prentin Do",official,42.602222,18.826389,ME-000,,
-93015,-135732,settlement,Premćani,Premcani,official,43.120278,19.371389,ME-000,,
-93015,-135742,settlement,Prenćani,Prencani,variant,43.120278,19.371389,ME-000,,
-92996,-135703,park,Prekovac,Prekovac,variant,42.964722,18.557778,ME-000,1,
-92996,495862,park,Brekovac,Brekovac,official,42.964722,18.557778,ME-000,1,
-92994,-135699,settlement,Prekornica,Prekornica,official,42.303333,18.958056,ME-000,,
-92993,-135698,hypsographic,Prekornica,Prekornica,official,42.670833,19.190556,ME-000,,
-92962,559387,settlement,Predi,Predi,official,42.517222,18.886944,ME-000,,
-92962,-135653,settlement,Prediš,Predis,variant,42.517222,18.886944,ME-000,,
-92938,-135617,hypsographic,"Prčja Glava","Prcja Glava",official,42.345833,18.735833,ME-000,,
-92938,-135614,hypsographic,"Mount Prčija","Mount Prcija",variant,42.345833,18.735833,ME-000,,
-92938,-135615,hypsographic,"Prčija Glava","Prcija Glava",variant,42.345833,18.735833,ME-000,,
-92932,-135608,settlement,Prčanj,Prcanj,official,42.4575,18.742222,ME-000,,
-92932,-133760,settlement,Perzagno,Perzagno,variant,42.4575,18.742222,ME-000,,
-92897,-135537,settlement,Praga,Praga,official,42.880833,19.023056,ME-000,,
-92895,-135533,settlement,Pračica,Pracica,official,43.404167,19.109167,ME-000,,
-92894,-135532,settlement,Praćevac,Pracevac,official,42.850833,19.787778,ME-000,,
-92890,-135527,settlement,Požnja,Poznja,official,42.830278,19.326389,ME-000,,
-92882,-135510,settlement,Požeginje,Pozeginje,variant,43.102222,19.871389,ME-000,,
-92882,-135509,settlement,Požeginja,Pozeginja,official,43.102222,19.871389,ME-000,,
-92859,-135472,settlement,"Donja Povija","Donja Povija",official,42.683056,19.010278,ME-000,,
-92859,560439,settlement,"Gornja Povija","Gornja Povija",variant,42.683056,19.010278,ME-000,,
-92853,452346,settlement,Trlica,Trlica,variant,43.344444,19.369722,ME-000,,
-92853,9076881,settlement,Podtrlica,Podtrlica,official,43.344444,19.369722,ME-000,,
-92853,-135461,settlement,Potrlice,Potrlice,variant,43.344444,19.369722,ME-000,,
-92853,-135460,settlement,Potrlica,Potrlica,variant,43.344444,19.369722,ME-000,,
-92853,-135462,settlement,Potrljica,Potrljica,variant,43.344444,19.369722,ME-000,,
-92845,-134775,settlement,Podpeć,Podpec,variant,43.26,19.358889,ME-000,,
-92845,-134781,settlement,Podpeće,Podpece,variant,43.26,19.358889,ME-000,,
-92845,-135451,settlement,Potpeće,Potpece,official,43.26,19.358889,ME-000,,
-92833,-135428,hypsographic,"Potočka Gora","Potocka Gora",official,42.835556,19.613611,ME-000,,
-92815,-135406,settlement,Potkrajci,Potkrajci,official,43.070556,19.774722,ME-000,,
-92815,-135405,settlement,Potkrajće,Potkrajce,variant,43.070556,19.774722,ME-000,,
-92812,-135399,hypsographic,"Maja Potkajs","Maja Potkajs",official,42.523333,19.791667,ME-000,,
-92793,-135357,settlement,Pošćenje,Poscenje,official,42.974444,19.065833,ME-000,,
-92777,-135322,settlement,Poroča,Poroca,official,42.921944,20.024722,ME-000,,
-92777,9034533,settlement,Poroče,Poroce,variant,42.921944,20.024722,ME-000,,
-92755,19193085,hypsographic,"Mali Vajushës","Mali Vajushes",variant,42.516064,19.760061,S1-000,,
-92755,-135212,hypsographic,"Maj’ e Popadiës","Maj' e Popadies",variant,42.516064,19.760061,S1-000,,
-92755,-135224,hypsographic,"Maja Popodija","Maja Popodija",variant,42.516064,19.760061,S1-000,,
-92755,-133141,hypsographic,Paje,Paje,variant,42.516064,19.760061,S1-000,,
-92755,-135210,hypsographic,Popadi,Popadi,variant,42.516064,19.760061,S1-000,,
-92755,-133142,hypsographic,"Maj’ e Pajës","Maj' e Pajes",variant,42.516064,19.760061,S1-000,,
-92755,-135286,hypsographic,"Maja e Vajushës","Maja e Vajushes",official,42.516064,19.760061,S1-000,,
-92755,556918,hypsographic,Popadija,Popadija,official,42.516064,19.760061,S1-000,,
-92730,-135254,settlement,"Popov Do","Popov Do",official,43.373333,19.101944,ME-000,,
-92690,-135195,settlement,Ponor,Ponor,official,42.934444,19.996111,ME-000,,
-92681,-135182,settlement,Ponikvica,Ponikvica,official,42.745278,18.823611,ME-000,,
-92681,-135183,settlement,Ponikvice,Ponikvice,variant,42.745278,18.823611,ME-000,,
-92663,-135157,settlement,Ponari,Ponari,official,42.316667,19.1825,ME-000,,
-92663,-135194,settlement,Ponor,Ponor,variant,42.316667,19.1825,ME-000,,
-92626,-135096,settlement,Poljice,Poljice,official,43.007778,18.547222,ME-000,,
-92618,-135083,settlement,Poljica,Poljica,variant,42.56,19.282222,ME-000,,
-92618,-135094,settlement,Poljice,Poljice,official,42.56,19.282222,ME-000,,
-92614,-135078,settlement,"Polje Crkvičko","Polje Crkvicko",official,43.322222,18.895833,ME-000,,
-92605,-135064,settlement,Polje,Polje,official,42.082778,19.106667,ME-000,,
-92487,-134873,settlement,Podvrš,Podvrs,official,42.818056,18.517222,ME-000,,
-92485,-134871,settlement,Podvraće,Podvrace,official,42.634722,19.070833,ME-000,,
-92411,-134770,settlement,Podostrog,Podostrog,official,42.302778,18.839167,ME-000,,
-92346,-134683,settlement,Podi,Podi,official,42.463611,18.543333,ME-000,,
-92342,-134679,settlement,Podhum,Podhum,variant,42.308333,19.340833,ME-000,,
-92342,-131184,settlement,Nanhelm,Nanhelm,variant,42.308333,19.340833,ME-000,,
-92342,9079899,settlement,Pothum,Pothum,official,42.308333,19.340833,ME-000,,
-92306,-134635,settlement,Podgorica,Podgorica,official,42.441111,19.263611,ME-16,,
-92306,17268621,settlement,Подгорица,Подгорица,unknown,42.441111,19.263611,ME-16,,
-92306,-143762,settlement,Titograd,Titograd,variant,42.441111,19.263611,ME-16,,
-92293,-134620,park,Podgora,Podgora,official,43.378889,19.087222,ME-000,,
-92285,-134611,settlement,Podgora,Podgora,official,43.198611,19.154167,ME-000,,
-92284,-134610,settlement,Podgor,Podgor,official,42.260278,18.978889,ME-000,,
-92281,-134604,settlement,Podglavica,Podglavica,official,42.524167,19.175833,ME-000,,
-92259,-134573,settlement,Podbožur,Podbozur,official,42.737222,18.688056,ME-000,,
-92246,-134552,settlement,Poda,Poda,official,42.943611,19.8525,ME-000,,
-92245,-134551,settlement,Poda,Poda,official,42.363611,18.81,ME-000,,
-92234,-134539,settlement,Počekovići,Pocekovici,official,42.801667,18.505833,ME-000,,
-92224,-134524,settlement,Pobretiće,Pobretice,official,43.062778,19.835833,ME-000,,
-92224,-134525,settlement,Pobretići,Pobretici,variant,43.062778,19.835833,ME-000,,
-92224,-134514,settlement,Pobratići,Pobratici,variant,43.062778,19.835833,ME-000,,
-92217,129630,settlement,Pobro,Pobro,variant,42.356389,18.736389,ME-000,,
-92217,-134530,settlement,Pobrgje,Pobrgje,variant,42.356389,18.736389,ME-000,,
-92217,-134532,settlement,Pobrjge,Pobrjge,variant,42.356389,18.736389,ME-000,,
-92217,-134516,settlement,Pobrđe,Pobrde,official,42.356389,18.736389,ME-000,,
-92213,-134511,settlement,Pobori,Pobori,official,42.326389,18.829167,ME-000,,
-92213,9096921,settlement,"Donji Pobori","Donji Pobori",variant,42.326389,18.829167,ME-000,,
-92213,9096922,settlement,"Gornji Pobori","Gornji Pobori",variant,42.326389,18.829167,ME-000,,
-92211,-134509,settlement,Poblaće,Poblace,official,43.510556,19.202778,ME-000,,
-92203,14276988,administrative_region,Плужине,Плужине,unknown,43.174167,18.816944,ME-15,,
-92203,14131773,administrative_region,"Општина Плужине","Општина Плужине",unknown,43.174167,18.816944,ME-15,,
-92203,14105852,administrative_region,Plužine,Pluzine,official,43.174167,18.816944,ME-15,,
-92203,-134498,administrative_region,"Opština Plužine","Opstina Pluzine",official,43.174167,18.816944,ME-15,,
-92201,-134496,settlement,Plužine,Pluzine,official,43.152778,18.839444,ME-15,,
-92201,14131806,settlement,Плужине,Плужине,unknown,43.152778,18.839444,ME-15,,
-92170,-134449,hypsographic,Ploča,Ploca,official,42.721667,19.080556,ME-000,,
-92159,14131772,administrative_region,"Општина Пљевља","Општина Пљевља",unknown,43.333333,19.333333,ME-14,,
-92159,14276987,administrative_region,Пљевља,Пљевља,unknown,43.333333,19.333333,ME-14,,
-92159,14105851,administrative_region,Pljevlja,Pljevlja,official,43.333333,19.333333,ME-14,,
-92159,-134430,administrative_region,"Opština Pljevlja","Opstina Pljevlja",official,43.333333,19.333333,ME-14,,
-92158,14131805,settlement,Пљевља,Пљевља,unknown,43.352222,19.354167,ME-14,,
-92158,-134429,settlement,Pljevlja,Pljevlja,official,43.352222,19.354167,ME-14,,
-92158,-134383,settlement,Plevlja,Plevlja,variant,43.352222,19.354167,ME-14,,
-92158,-134431,settlement,Pljevlje,Pljevlje,variant,43.352222,19.354167,ME-14,,
-92158,-134384,settlement,Plevlje,Plevlje,variant,43.352222,19.354167,ME-14,,
-92158,-127137,settlement,Ljevlja,Ljevlja,variant,43.352222,19.354167,ME-14,,
-92134,-134390,settlement,Pliješevina,Plijesevina,official,43.345556,19.210278,ME-000,,
-92133,-134389,hypsographic,Pliješa,Plijesa,official,43.233889,19.4025,ME-000,,
-90883,-132581,hypsographic,Orlina,Orlina,official,42.853056,18.776667,ME-000,,
-92090,504349,hydrographic,"Liqeni i Plavës","Liqeni i Plaves",variant,42.596111,19.926111,ME-000,,
-92090,-134334,hydrographic,"Plavsko Jezero","Plavsko Jezero",official,42.596111,19.926111,ME-000,,
-92090,-134333,hydrographic,"Plavsko Blato","Plavsko Blato",variant,42.596111,19.926111,ME-000,,
-92069,-134302,administrative_region,"Opština Plav","Opstina Plav",official,42.586111,19.928333,ME-000,,
-92068,-134301,settlement,Plav,Plav,official,42.596944,19.945556,ME-13,,
-92068,504338,settlement,Plavë,Plave,variant,42.596944,19.945556,ME-13,,
-92068,14131803,settlement,Плав,Плав,unknown,42.596944,19.945556,ME-13,,
-92066,-134294,hydrographic,Platnica,Platnica,variant,42.848889,19.529722,ME-000,,
-92066,133524,hydrographic,Plašnica,Plasnica,official,42.848889,19.529722,ME-000,,
-92064,-134291,hypsographic,"Platamona Point","Platamona Point",variant,42.2675,18.78,ME-000,,
-92064,-134292,hypsographic,"Punta Platamone","Punta Platamone",variant,42.2675,18.78,ME-000,,
-92064,-134290,hypsographic,"Rt Platamon","Rt Platamon",variant,42.2675,18.78,ME-000,,
-92064,561528,hypsographic,"Rt Platamuni","Rt Platamuni",official,42.2675,18.78,ME-000,,
-92042,-134255,hypsographic,Planinik,Planinik,official,42.778056,19.148611,ME-000,,
-92039,-134252,hypsographic,Planinica,Planinica,official,42.701111,19.970833,ME-000,,
-92029,-134242,hypsographic,Planinica,Planinica,official,42.630556,19.505556,ME-000,,
-91996,-134196,settlement,Plana,Plana,official,42.859167,19.501111,ME-000,,
-91980,-134172,park,Pješivci,Pjesivci,official,42.628333,18.969722,ME-000,,
-91976,-134167,settlement,Bajice,Bajice,official,42.394167,18.893056,ME-000,,
-91974,-134159,spot,"Pivski Manastir","Pivski Manastir",official,43.11,18.818611,ME-000,,
-91974,-134148,spot,"Manastir Piva","Manastir Piva",variant,43.11,18.818611,ME-000,,
-91973,-134158,park,"Župa Pivska","Zupa Pivska",official,43,18.9,ME-000,,
-91972,-134157,hypsographic,"Planina Pivska","Planina Pivska",official,43.166667,18.916667,ME-000,,
-91965,-134149,hydrographic,"Izvor Pive","Izvor Pive",official,43.111389,18.818333,ME-000,,
-91964,-134147,hydrographic,Piva,Piva,official,43.348333,18.839444,S1-000,,
-91959,-134136,settlement,Pistula,Pistula,official,41.950278,19.254167,ME-000,,
-91958,-134133,settlement,Pištet,Pistet,variant,42.562222,18.743056,ME-000,,
-91958,-134134,settlement,Pišteti,Pisteti,variant,42.562222,18.743056,ME-000,,
-91958,559681,settlement,"Velji Pištet","Velji Pistet",official,42.562222,18.743056,ME-000,,
-91943,503637,hypsographic,Piskavicë,Piskavice,variant,42.888056,20.088611,ME-000,,
-91943,9034577,hypsographic,"Crni krš","Crni krs",variant,42.888056,20.088611,ME-000,,
-91943,-134112,hypsographic,Piskavica,Piskavica,official,42.888056,20.088611,ME-000,,
-91940,-134105,hypsographic,Piševo,Pisevo,official,42.726111,19.862778,ME-000,,
-91935,-134100,settlement,Pišče,Pisce,official,43.156667,18.905833,ME-000,,
-91923,-134081,hypsographic,"Pirni Do","Pirni Do",official,43.149444,18.898611,ME-000,,
-91906,-134055,park,Piperi,Piperi,official,42.55,19.316667,ME-000,,
-91884,-134022,settlement,Pilatovci,Pilatovci,official,42.855556,18.491111,ME-000,,
-91882,-134017,settlement,Pikale,Pikale,variant,42.404722,19.378611,ME-000,,
-91882,-134020,settlement,Pikalji,Pikalji,variant,42.404722,19.378611,ME-000,,
-91882,-134019,settlement,Pikalja,Pikalja,official,42.404722,19.378611,ME-000,,
-91882,-134018,settlement,Pikalj,Pikalj,variant,42.404722,19.378611,ME-000,,
-91876,-134011,hypsographic,"Rt Pijavica","Rt Pijavica",official,42.448889,18.655556,ME-000,,
-91858,-126018,hypsographic,Kurozeb,Kurozeb,official,42.755278,19.241389,ME-000,,
-91858,-133973,hypsographic,"Petrov Vrh","Petrov Vrh",variant,42.755278,19.241389,ME-000,,
-91842,-133944,settlement,Petrovic,Petrovic,variant,42.742222,18.516111,ME-000,,
-91842,-133950,settlement,Petrovići,Petrovici,official,42.742222,18.516111,ME-000,,
-91842,-133906,settlement,Petrovac,Petrovac,variant,42.742222,18.516111,ME-000,,
-91840,-133948,settlement,Petrovići,Petrovici,official,42.528056,19.299167,ME-000,,
-91834,-133937,settlement,"Petrov Do","Petrov Do",official,42.431389,18.891667,ME-000,,
-91827,9066429,settlement,Jasikovica,Jasikovica,variant,42.729167,19.416389,ME-000,,
-91827,-133929,settlement,"Petrova Ravan","Petrova Ravan",official,42.729167,19.416389,ME-000,,
-91824,-133926,hypsographic,"Petrova Ponta","Petrova Ponta",official,42.213611,19.187778,ME-000,,
-91818,-133919,hydrographic,"Uvala Petrovac","Uvala Petrovac",official,42.204167,18.939722,ME-000,1,
-91807,-133904,settlement,Petrovac,Petrovac,variant,42.205556,18.9425,ME-000,,
-91807,350811,settlement,"Petrovac na Moru","Petrovac na Moru",official,42.205556,18.9425,ME-000,,
-91779,-133855,settlement,Petnik,Petnik,variant,42.833056,19.904722,ME-000,,
-91779,-133858,settlement,Petnjik,Petnjik,official,42.833056,19.904722,ME-000,,
-91756,-133831,settlement,Petine,Petine,official,43.418889,19.057222,ME-000,,
-91740,-133806,park,Pešter,Pester,official,43.052778,19.963889,ME-000,,
-91740,504171,park,Peshter,Peshter,variant,43.052778,19.963889,ME-000,,
-91724,554874,hydrographic,"Pašić Jezero","Pasic Jezero",variant,42.855833,19.688889,ME-000,,
-91724,-133784,hydrographic,"Pešić Jezero","Pesic Jezero",variant,42.855833,19.688889,ME-000,,
-91724,-133783,hydrographic,"Pešića Jezero","Pesica Jezero",official,42.855833,19.688889,ME-000,,
-91717,-133765,settlement,Pešca,Pesca,official,42.828889,19.864722,ME-000,,
-91673,-133682,settlement,Perasto,Perasto,variant,42.486944,18.699167,ME-000,,
-91673,-133681,settlement,Perast,Perast,official,42.486944,18.699167,ME-000,,
-91653,-133651,settlement,Pelinkovići,Pelinkovici,official,42.005556,19.235,ME-000,,
-91651,-133648,settlement,"Pelev Brijeg","Pelev Brijeg",official,42.582222,19.396111,ME-000,,
-91635,-133615,settlement,Pejovići,Pejovici,official,42.521944,18.870278,ME-000,,
-91625,-133595,settlement,Pečurica,Pecurica,variant,42.030278,19.173056,ME-000,,
-91625,-133597,settlement,Pečurici,Pecurici,variant,42.030278,19.173056,ME-000,,
-91625,-133596,settlement,Pečurice,Pecurice,official,42.030278,19.173056,ME-000,,
-91611,-133579,hydrographic,"Uvala Pečin","Uvala Pecin",official,42.161944,18.988611,ME-000,,
-91597,-133561,settlement,Pećarska,Pecarska,official,43.101667,19.822778,ME-000,,
-91583,-133542,hypsographic,Pazua,Pazua,variant,42.576389,18.577778,ME-000,,
-91583,24252,hypsographic,"Reovačka Greda","Reovacka Greda",official,42.576389,18.577778,ME-000,,
-91580,-133538,settlement,Pažići,Pazici,official,42.558333,19.105278,ME-000,,
-91556,-133504,settlement,"Pavino Polje","Pavino Polje",official,43.1375,19.628611,ME-000,,
-91543,-133489,hydrographic,"Paučinska Reka","Paucinska Reka",official,42.934167,20.200833,ME-000,,
-91542,-133329,settlement,Paočina,Paocina,variant,42.936389,20.146111,ME-000,,
-91542,-133488,settlement,Paučina,Paucina,official,42.936389,20.146111,ME-000,,
-91542,-108804,settlement,Bagočina,Bagocina,variant,42.936389,20.146111,ME-000,,
-91541,-133492,settlement,Pauiče,Pauice,variant,43.318889,19.285,ME-000,,
