wgdPlaceId,wgdId,type,name,fullName,nameType,latitude,longitude,administrationGroup,isHistorical,isCapital
179941,223989,hydrographic,"Petit Litiri","Petit Litiri",official,48.378399,-4.887768,FR-BRE,,
178927,222903,hypsographic,"La Lentille","La Lentille",official,48.166667,-4.55,FR-BRE,,
179928,223974,hypsographic,"Les Grands Laz","Les Grands Laz",official,48.4,-4.9,FR-BRE,,
178145,221942,hypsographic,Kefinel,Kefinel,official,48.377649,-4.993317,FR-BRE,,
179760,223780,hypsographic,"Pointe Saint-Nicolas","Pointe Saint-Nicolas",official,47.630556,-3.483333,FR-BRE,,
179893,223929,hydrographic,"Basse Vieille Maison","Basse Vieille Maison",official,48.416667,-4.8,FR-BRE,,
177743,221473,hydrographic,"Raz de Bannes","Raz de Bannes",official,49.688013,-1.748837,FR-000,,
179972,224026,hypsographic,"Ar Vaz Wenn","Ar Vaz Wenn",official,48.057245,-4.991661,FR-BRE,,
177950,221718,hypsographic,"Karreg Ar Morlean","Karreg Ar Morlean",official,48.416667,-5,FR-BRE,,
177749,221479,hydrographic,"La Platrière","La Platriere",official,49.680968,-1.746376,FR-NOR,,
179933,223981,hypsographic,"Le Bœuf","Le Boeuf",official,48.394191,-4.897387,FR-BRE,,
179793,223815,hypsographic,"Basse des Bozmen","Basse des Bozmen",official,48.315418,-4.82435,FR-BRE,,
178608,222564,hydrographic,"Basse d’Ys","Basse d'Ys",official,48.15,-4.6,FR-BRE,,
179956,224010,hypsographic,Madiou,Madiou,official,48.056746,-5.02308,FR-BRE,,
179837,223866,hydrographic,"Basse Saint-Paul","Basse Saint-Paul",official,48.416667,-4.816667,FR-BRE,,
179951,224002,hypsographic,"Men Braz","Men Braz",official,48.408911,-4.942827,FR-BRE,,
178028,221807,hydrographic,"Roche de la Valette","Roche de la Valette",official,49.347803,-0.475257,FR-NOR,,
178944,222921,hypsographic,"Pointe de Kerroux","Pointe de Kerroux",official,48.184832,-4.552915,FR-BRE,,
178064,221844,hypsographic,"Baz Hir","Baz Hir",official,48.416667,-4.983333,FR-BRE,,
178186,221996,hydrographic,"Passe de la Chimère","Passe de la Chimere",official,48.373663,-4.921997,FR-BRE,,
178887,222861,hypsographic,Castel-ar-Roch,Castel-ar-Roch,official,48.083333,-4.583333,FR-BRE,,
178107,221895,settlement,"La Brèche-d’Hermanville","La Breche-d'Hermanville",official,49.29694,-0.30083,FR-NOR,,
179968,224022,hypsographic,"Basse d’Ar Men","Basse d'Ar Men",official,48.05025,-4.997335,FR-BRE,,
179813,223837,hypsographic,"Grande Vinotière","Grande Vinotiere",official,48.365501,-4.806746,FR-BRE,,
177667,221379,hypsographic,"Le Trépied","Le Trepied",official,48.278543,-4.6943,FR-BRE,,
177947,221716,settlement,Villiers-sur-Port,Villiers-sur-Port,official,49.33986,-0.782327,FR-NOR,,
177885,221638,hypsographic,"La Pierre Noire","La Pierre Noire",official,49.720833,-1.473333,FR-000,,
179791,223813,hydrographic,"Bozmen Occidental","Bozmen Occidental",official,48.319415,-4.834832,FR-BRE,,
177855,221604,hydrographic,"Anse du Brick","Anse du Brick",official,49.670375,-1.488417,FR-NOR,,
179971,224025,hypsographic,"Kornog Ar Goueled","Kornog Ar Goueled",official,48.05,-5,FR-BRE,,
178194,222004,settlement,"La Haute Ecarde","La Haute Ecarde",official,49.248721,-0.249514,FR-NOR,,
178500,222436,hypsographic,"Pointe Penn-an-Enez","Pointe Penn-an-Enez",official,48,-4.583333,FR-BRE,,
178134,221930,hypsographic,"Roche du Loup","Roche du Loup",official,48.383333,-5,FR-BRE,,
178880,222854,hypsographic,Duellou,Duellou,official,48.083333,-4.6,FR-BRE,,
179776,223797,hypsographic,"Roche de l’Oursin","Roche de l'Oursin",official,48.329419,-4.847585,FR-BRE,,
177688,221405,hypsographic,"Roche Pollux","Roche Pollux",official,48.316667,-4.6,FR-BRE,,
177981,221750,hypsographic,"Gor Ar Raz","Gor Ar Raz",official,48.416667,-4.966667,FR-BRE,,
177887,221641,hydrographic,"Les Rospects","Les Rospects",official,48.325217,-4.762447,FR-BRE,,
178555,222508,hypsographic,"Pointe Koummoudog","Pointe Koummoudog",official,48.033333,-4.716667,FR-BRE,,
178516,222457,hypsographic,"Basse du Loc’h","Basse du Loc'h",official,48.017417,-4.633166,FR-BRE,,
178889,222864,hypsographic,Danou,Danou,official,48.083333,-4.583333,FR-BRE,,
177883,221636,hydrographic,"Basse du Cap Lévi","Basse du Cap Levi",official,49.708993,-1.47504,FR-000,,
179926,223972,hydrographic,"Chenal des Laz","Chenal des Laz",official,48.402623,-4.899198,FR-BRE,,
179827,223852,hypsographic,"Basse Occidentale du Courleau","Basse Occidentale du Courleau",official,48.383333,-4.833333,FR-BRE,,
179773,223794,hypsographic,"Roche du Passage","Roche du Passage",official,48.316667,-4.85,FR-BRE,,
177953,221722,hypsographic,"Men Courgant","Men Courgant",official,48.425849,-4.994191,FR-BRE,,
177765,221497,hydrographic,"Rocher de Nacqueville","Rocher de Nacqueville",official,49.682515,-1.723578,FR-NOR,,
178198,222008,hydrographic,"La Vieille Noire","La Vieille Noire",official,48.356829,-4.919915,FR-BRE,,
177832,221578,hypsographic,"Le Chat","Le Chat",official,48.333333,-4.683333,FR-BRE,,
177686,221402,hydrographic,"Plateau des Fillettes","Plateau des Fillettes",official,48.328336,-4.590662,FR-BRE,,
179910,223951,hypsographic,"Grand Courleau","Grand Courleau",official,48.373288,-4.841515,FR-BRE,,
179812,223835,hypsographic,"Petite Vinotière","Petite Vinotiere",official,48.366667,-4.783333,FR-BRE,,
178507,222444,hypsographic,"Pointe Ar C’hastell","Pointe Ar C'hastell",official,48.017897,-4.622361,FR-BRE,,
179805,223828,hypsographic,"Pointe du Grognon","Pointe du Grognon",official,47.652409,-3.485421,FR-BRE,,
178163,221963,hydrographic,"Basse Ven","Basse Ven",official,48.383333,-4.933333,FR-BRE,,
178126,221921,hypsographic,"Roche de la Mouette","Roche de la Mouette",official,48.383333,-5.016667,FR-BRE,,
178983,222961,hypsographic,"Roche Nord Béniguet","Roche Nord Beniguet",official,48.35,-4.85,FR-BRE,,
177994,221766,hypsographic,"Basse Linah","Basse Linah",official,48.416667,-5,FR-BRE,,
178151,221948,hypsographic,"Roche Barbe Bleue","Roche Barbe Bleue",official,48.366667,-5.016667,FR-BRE,,
178567,222521,hypsographic,"Ar Gaouenn","Ar Gaouenn",official,48.033333,-4.75,FR-BRE,,
178002,221777,hypsographic,"Ar Staon Vraz","Ar Staon Vraz",official,48.416667,-5,FR-BRE,,
178860,222832,hydrographic,"Basse du Nord-Ouest","Basse du Nord-Ouest",official,48.05,-4.733333,FR-BRE,,
179940,223988,hydrographic,"Ar C’héo Braz","Ar C'heo Braz",official,48.383333,-4.883333,FR-BRE,,
178959,222938,hydrographic,"Porz Kregin","Porz Kregin",official,48.182167,-4.551999,FR-BRE,,
178626,222583,hypsographic,"La Corne Nord-Ouest de la Chèvre","La Corne Nord-Ouest de la Chevre",official,48.15,-4.583333,FR-BRE,,
178195,222005,hypsographic,"Ar C’hal Bonchou","Ar C'hal Bonchou",official,48.350833,-4.952582,FR-BRE,,
177677,221391,hypsographic,"L’ Astrolabe","L' Astrolabe",official,48.263447,-4.772552,FR-BRE,,
177797,221534,spot,"Carrières du Becquet","Carrieres du Becquet",official,49.648611,-1.559444,FR-NOR,,
179930,223976,hypsographic,"Les Petits Laz","Les Petits Laz",official,48.416667,-4.9,FR-BRE,,
178478,222381,hydrographic,"Étang de Laoual","Etang de Laoual",official,48.045888,-4.69669,FR-BRE,,
178161,221961,hydrographic,"Roc’h Louet","Roc'h Louet",official,48.387414,-4.953165,FR-BRE,,
180429,224553,hydrographic,"Ar Guéveur","Ar Gueveur",official,48.031084,-4.85812,FR-BRE,,
180316,224422,hypsographic,"Korneien Halen","Korneien Halen",official,48.05,-4.933333,FR-BRE,,
180470,224602,hypsographic,Béguélan,Beguelan,official,48.066667,-4.783333,FR-BRE,,
180340,224448,hydrographic,"Goban Doun","Goban Doun",official,48.033333,-4.916667,FR-BRE,,
180425,224549,hydrographic,"An Ifluskou","An Ifluskou",official,48.030835,-4.866802,FR-BRE,,
180468,224599,hypsographic,"Ar Forc’hog","Ar Forc'hog",official,48.072976,-4.79163,FR-BRE,,
180465,224593,hydrographic,"Masklou Greiz","Masklou Greiz",official,48.016667,-4.766667,FR-BRE,,
180331,224439,hypsographic,Helored,Helored,official,48.05,-4.933333,FR-BRE,,
180364,224474,hydrographic,"Baz C’haro","Baz C'haro",official,48.05,-4.883333,FR-BRE,,
180424,224548,hydrographic,"Ar Fournig","Ar Fournig",official,48.033333,-4.866667,FR-BRE,,
180460,224586,hydrographic,Plassou-Normand,Plassou-Normand,official,48.040631,-4.822226,FR-BRE,,
180326,224433,hypsographic,"An Trousk","An Trousk",official,48.05,-4.933333,FR-BRE,,
180289,224389,hypsographic,"Kornog Al Leue","Kornog Al Leue",official,48.033333,-4.966667,FR-BRE,,
180351,224461,hydrographic,"Ar Gouelvanig","Ar Gouelvanig",official,48.041141,-4.882896,FR-BRE,,
180455,224581,hypsographic,Ar-Vaz-Du,Ar-Vaz-Du,official,48.05,-4.833333,FR-BRE,,
180245,224339,hypsographic,"La Sournoise","La Sournoise",official,48.05,-4.966667,FR-BRE,,
180301,224402,hydrographic,"Ar C’hole","Ar C'hole",official,48.05,-4.933333,FR-BRE,,
180323,224430,hypsographic,"An Dréaliou","An Drealiou",official,48.05,-4.95,FR-BRE,,
180374,224489,hypsographic,Kozebog,Kozebog,official,48.05,-4.866667,FR-BRE,,
180350,224460,hydrographic,"Ar Fot","Ar Fot",official,48.041953,-4.897824,FR-BRE,,
180469,224601,hypsographic,"Basse Triton","Basse Triton",official,48.083333,-4.783333,FR-BRE,,
180329,224437,hypsographic,Vorleanog,Vorleanog,official,48.05,-4.933333,FR-BRE,,
180446,224571,hydrographic,"An Dantog","An Dantog",official,48.038267,-4.827785,FR-BRE,,
180471,224603,hydrographic,"Les Barillets","Les Barillets",official,48.066667,-4.783333,FR-BRE,,
180294,224393,hypsographic,"Louzaouennou Keinok","Louzaouennou Keinok",official,48.033333,-4.95,FR-BRE,,
180334,224442,hypsographic,Salaün,Salaun,official,48.033333,-4.916667,FR-BRE,,
180421,224544,hypsographic,Bigoudou,Bigoudou,official,48.05,-4.833333,FR-BRE,,
180346,224456,hypsographic,"Ar Forc’hog","Ar Forc'hog",official,48.033333,-4.9,FR-BRE,,
180249,224344,hypsographic,"Morwezenn Sud","Morwezenn Sud",official,48.05,-4.966667,FR-BRE,,
180464,224591,hydrographic,"Kornog Braz","Kornog Braz",official,48.016667,-4.766667,FR-BRE,,
180466,224594,hypsographic,"Ar Vaz","Ar Vaz",official,48.066667,-4.8,FR-BRE,,
180375,224490,hypsographic,"Penn Gamm","Penn Gamm",official,48.05,-4.866667,FR-BRE,,
180356,224466,hydrographic,"Ar Boufe","Ar Boufe",official,48.05,-4.883333,FR-BRE,,
180275,224374,hypsographic,"Al Leue Bihan","Al Leue Bihan",official,48.042327,-4.964793,FR-BRE,,
180442,224567,hydrographic,"Ar Gouelvan","Ar Gouelvan",official,48.033333,-4.833333,FR-BRE,,
180303,224404,hydrographic,"An Amouig","An Amouig",official,48.043379,-4.951686,FR-BRE,,
180451,224577,hypsographic,"Ar Moedog","Ar Moedog",official,48.05,-4.816667,FR-BRE,,
180344,224454,hypsographic,"Kornog Viktoria","Kornog Viktoria",official,48.033333,-4.9,FR-BRE,,
180412,224534,hydrographic,"Ar Vaz Krenn","Ar Vaz Krenn",official,48.051686,-4.860733,FR-BRE,,
180247,224342,hypsographic,"Morwezenn Nord","Morwezenn Nord",official,48.05,-4.966667,FR-BRE,,
180457,224584,hypsographic,Plumbara,Plumbara,official,48.05,-4.816667,FR-BRE,,
180373,224487,hypsographic,"Penn Wenn","Penn Wenn",official,48.05,-4.866667,FR-BRE,,
180283,224383,hypsographic,"Ar Vegegez","Ar Vegegez",official,48.05,-4.966667,FR-BRE,,
180462,224589,hypsographic,"Roche Douarmeurus","Roche Douarmeurus",official,48.033333,-4.8,FR-BRE,,
180303,224421,hydrographic,"An Namouic","An Namouic",variant,48.043379,-4.951686,FR-BRE,,
180414,224536,hydrographic,"An Ezodi","An Ezodi",official,48.05,-4.85,FR-BRE,,
180362,224472,hydrographic,"Ar Reoreien","Ar Reoreien",official,48.05,-4.883333,FR-BRE,,
180330,224438,hydrographic,"Ar Boullennou","Ar Boullennou",official,48.05,-4.933333,FR-BRE,,
180361,224471,hypsographic,"An Arrou Doun","An Arrou Doun",official,48.05,-4.883333,FR-BRE,,
180463,224590,hydrographic,"Tête du Chat","Tete du Chat",official,48.033333,-4.8,FR-BRE,,
180372,224486,hydrographic,"Men Mankig","Men Mankig",official,48.053997,-4.88427,FR-BRE,,
180287,224387,hypsographic,"Al Leue Brat","Al Leue Brat",official,48.05,-4.966667,FR-BRE,,
180337,224445,hypsographic,"Men Hervé","Men Herve",official,48.041266,-4.910733,FR-BRE,,
180271,224370,hydrographic,"Ar Barrou","Ar Barrou",official,48.05,-4.966667,FR-BRE,,
180347,224457,hypsographic,"Penn Gualc’h","Penn Gualc'h",official,48.05,-4.9,FR-BRE,,
180423,224547,hydrographic,"Passe des Millinou","Passe des Millinou",official,48.033333,-4.866667,FR-BRE,,
180398,224519,hypsographic,Cornoc-an-ar-Braden,Cornoc-an-ar-Braden,official,48.054685,-4.846877,FR-BRE,,
180348,224458,hydrographic,"Ar Fot Braz","Ar Fot Braz",official,48.044316,-4.893754,FR-BRE,,
180353,224463,hydrographic,Yann-ar-Gall,Yann-ar-Gall,official,48.05,-4.883333,FR-BRE,,
180297,224398,hypsographic,"Ar C’hornog Gwenn","Ar C'hornog Gwenn",official,48.033333,-4.933333,FR-BRE,,
180467,224597,hypsographic,Kéréon,Kereon,official,48.072663,-4.799938,FR-BRE,,
180417,224540,hydrographic,"Ar Vaz Elven","Ar Vaz Elven",official,48.05,-4.85,FR-BRE,,
180359,224469,hypsographic,"An Eurudi","An Eurudi",official,48.054809,-4.89644,FR-BRE,,
183944,228578,hypsographic,"Le Goëland","Le Goeland",official,47.692222,-3.363889,FR-BRE,,
183996,229449,hydrographic,"Anse de Goëren","Anse de Goeren",variant,47.696944,-3.355,FR-BRE,,
184190,228855,settlement,Kerblaizy,Kerblaizy,official,47.713611,-3.381667,FR-BRE,,
184345,229063,settlement,Lanveur,Lanveur,official,47.746111,-3.390833,FR-BRE,,
183602,228179,hypsographic,"Roches de Daniel","Roches de Daniel",official,47.6876,-3.335797,FR-BRE,,
184291,228991,settlement,Quilisoy,Quilisoy,official,47.725,-3.381389,FR-BRE,,
184073,228720,settlement,Ty-Douan,Ty-Douan,official,47.729444,-3.341667,FR-BRE,,
184134,228790,hydrographic,"Basse de la Paille","Basse de la Paille",official,47.692222,-3.403889,FR-BRE,,
184036,228682,settlement,"Le Driasker","Le Driasker",official,47.709722,-3.35,FR-BRE,,
184148,228806,hypsographic,"Plage de Kerguélen","Plage de Kerguelen",official,47.703333,-3.402778,FR-BRE,,
184043,228689,settlement,"Mezat de Kerzo","Mezat de Kerzo",official,47.711666,-3.347222,FR-BRE,,
184191,228856,settlement,"La Nourriguel","La Nourriguel",official,47.715112,-3.37269,FR-BRE,,
184189,228854,settlement,"Le Ménez","Le Menez",official,47.711945,-3.385,FR-BRE,,
183759,228353,settlement,Kerbel,Kerbel,official,47.7,-3.333333,FR-BRE,,
184181,228846,hypsographic,"Plage de Toulhars","Plage de Toulhars",official,47.706944,-3.378333,FR-BRE,,
184285,228984,settlement,"Les Quatre Chemins","Les Quatre Chemins",official,47.71687,-3.38638,FR-BRE,,
183794,228392,settlement,Lomener,Lomener,official,47.7,-3.441667,FR-BRE,,
183780,228376,hypsographic,"La Pierre d’Orge","La Pierre d'Orge",official,47.7,-3.4,FR-BRE,,
183789,228387,hydrographic,"Plateau de Kerpape","Plateau de Kerpape",official,47.698554,-3.415472,FR-BRE,,
184185,228850,hypsographic,"Plage de Larmor","Plage de Larmor",official,47.704722,-3.381944,FR-BRE,,
184015,228657,hydrographic,"La Paix","La Paix",official,47.699485,-3.365203,FR-BRE,,
184284,228983,hypsographic,"Les Sœurs","Les Soeurs",official,47.703105,-3.47466,FR-BRE,,
184298,229002,hypsographic,"Pointe de l’Espérance","Pointe de l'Esperance",official,47.742222,-3.342222,FR-BRE,,
184127,228782,hydrographic,"Banc du Turc","Banc du Turc",official,47.722222,-3.360556,FR-BRE,,
184196,228861,settlement,Laudé,Laude,official,47.722253,-3.409683,FR-BRE,,
184124,228779,hydrographic,L’Anéno,L'Aneno,official,47.721944,-3.356944,FR-BRE,,
184292,229206,settlement,Keramzec,Keramzec,variant,47.716946,-3.3775,FR-BRE,,
183790,228388,settlement,Kergalan,Kergalan,official,47.711307,-3.415199,FR-BRE,,
184022,228666,hypsographic,"Île aux Souris","Ile aux Souris",official,47.701975,-3.357251,FR-BRE,,
183761,228356,settlement,"Prad Foene","Prad Foene",official,47.7,-3.330556,FR-BRE,,
184047,228693,hydrographic,"Anse de Driasker","Anse de Driasker",official,47.7125,-3.351389,FR-BRE,,
184131,228787,hypsographic,"Le Pot","Le Pot",official,47.713056,-3.365833,FR-BRE,,
184288,228987,settlement,"Le Fons","Le Fons",official,47.723611,-3.398333,FR-BRE,,
184346,229064,settlement,Kervarhic,Kervarhic,official,47.747778,-3.383889,FR-BRE,,
183791,228389,hydrographic,"Basse des Chats","Basse des Chats",official,47.7,-3.427778,FR-BRE,,
184292,228992,settlement,Keramezec,Keramezec,official,47.716946,-3.3775,FR-BRE,,
183770,228366,hydrographic,"Basse du Cheval","Basse du Cheval",official,47.691667,-3.375,FR-BRE,,
183757,228351,settlement,Locmalo,Locmalo,official,47.707917,-3.34727,FR-BRE,,
184341,229058,settlement,Kerjulaude,Kerjulaude,official,47.743889,-3.387222,FR-BRE,,
184162,228821,hydrographic,"Les Saisies","Les Saisies",official,47.699102,-3.386839,FR-BRE,,
184028,228673,hydrographic,"Les Sœurs","Les Soeurs",official,47.703333,-3.3625,FR-BRE,,
183765,228360,settlement,"Le Guennic","Le Guennic",official,47.715234,-3.308206,FR-BRE,,
183953,228588,settlement,Porh-Gâvres,Porh-Gavres,variant,47.691014,-3.353171,FR-BRE,,
184065,228714,settlement,Sainte-Catherine,Sainte-Catherine,official,47.722161,-3.344678,FR-BRE,,
184077,228725,settlement,Pen-Mané,Pen-Mane,official,47.731885,-3.345126,FR-BRE,,
184173,228836,hydrographic,L’Écrevisse,L'Ecrevisse,official,47.705,-3.374167,FR-BRE,,
184199,228864,settlement,Quéhellec,Quehellec,official,47.727094,-3.400976,FR-BRE,,
183605,228182,park,"Polygone de Gàvres","Polygone de Gavres",official,47.695833,-3.325,FR-BRE,,
183957,228592,settlement,Porh-Pus,Porh-Pus,official,47.690556,-3.357778,FR-BRE,,
184165,228824,hydrographic,"Basse Kaléri","Basse Kaleri",official,47.701111,-3.381944,FR-BRE,,
184150,228808,hydrographic,"Petite Paille","Petite Paille",official,47.696111,-3.402222,FR-BRE,,
184055,228702,hydrographic,"Banc de Kerzo","Banc de Kerzo",official,47.716667,-3.356389,FR-BRE,,
184119,228773,hydrographic,"Banc Saint-Michel","Banc Saint-Michel",official,47.729167,-3.353889,FR-BRE,,
184286,228985,settlement,Kercavès,Kercaves,official,47.718759,-3.394189,FR-BRE,,
184136,228792,hydrographic,"Le Château","Le Chateau",official,47.698056,-3.417222,FR-BRE,,
184316,229022,settlement,Kervénanec,Kervenanec,official,47.735589,-3.39062,FR-BRE,,
184291,399409,settlement,Quélisoy,Quelisoy,variant,47.725,-3.381389,FR-BRE,,
183753,228344,hydrographic,"Baie de Locmalo","Baie de Locmalo",official,47.703834,-3.336861,FR-BRE,,
183996,228636,hydrographic,"Anse de Goërem","Anse de Goerem",official,47.696944,-3.355,FR-BRE,,
184063,228712,settlement,"Le Loc’h","Le Loc'h",official,47.718182,-3.336401,FR-BRE,,
184056,228703,hypsographic,"Pointe de Kerzo","Pointe de Kerzo",official,47.716667,-3.349444,FR-BRE,,
184052,228699,hypsographic,"Le Pain de Sucre","Le Pain de Sucre",official,47.709722,-3.363333,FR-BRE,,
184070,228718,settlement,Ker-Michel,Ker-Michel,official,47.729167,-3.339722,FR-BRE,,
184342,229059,settlement,Merville,Merville,official,47.743889,-3.373611,FR-BRE,,
184295,228998,park,"Port de Pêche","Port de Peche",official,47.727981,-3.362559,FR-BRE,,
184187,228852,settlement,Locqueltas,Locqueltas,official,47.704445,-3.388889,FR-BRE,,
184427,229156,settlement,"Le Plessis","Le Plessis",official,47.757495,-3.333528,FR-BRE,,
184201,228866,settlement,"Le Moulin Neuf","Le Moulin Neuf",official,47.735278,-3.401389,FR-BRE,,
184190,229205,settlement,Kerblaisy,Kerblaisy,variant,47.713611,-3.381667,FR-BRE,,
184012,228653,hypsographic,"La Pesquerez","La Pesquerez",official,47.699444,-3.358056,FR-BRE,,
184008,228649,hydrographic,"Les Truies","Les Truies",official,47.685627,-3.386452,FR-BRE,,
184197,228862,settlement,Kerbrient,Kerbrient,official,47.730294,-3.410806,FR-BRE,,
184289,228988,settlement,Kerhoas,Kerhoas,official,47.724269,-3.388206,FR-BRE,,
183788,228386,hydrographic,"Anse de Kerguélen","Anse de Kerguelen",official,47.7,-3.408333,FR-BRE,,
184169,228831,hydrographic,"Basse de la Passe Ouest","Basse de la Passe Ouest",official,47.698056,-3.378056,FR-BRE,,
184182,228847,settlement,Toulhars,Toulhars,official,47.710424,-3.376736,FR-BRE,,
183957,398887,settlement,Porh-Puns,Porh-Puns,variant,47.690556,-3.357778,FR-BRE,,
184019,228662,hypsographic,"Le Soulard","Le Soulard",official,47.701111,-3.3575,FR-BRE,,
184414,229143,settlement,Lann-Kergreiz,Lann-Kergreiz,official,47.752502,-3.334778,FR-BRE,,
184194,228859,settlement,Quéhello-Congard,Quehello-Congard,official,47.714653,-3.404979,FR-BRE,,
184186,228851,settlement,"La Rue des Roseaux","La Rue des Roseaux",official,47.705556,-3.396111,FR-BRE,,
184200,228865,settlement,"Le Vieux Moulin","Le Vieux Moulin",official,47.730202,-3.397696,FR-BRE,,
184349,229067,settlement,"La Ville en Bois","La Ville en Bois",official,47.758889,-3.3575,FR-BRE,,
184030,228675,hydrographic,"La Potée de Beurre","La Potee de Beurre",official,47.704444,-3.364167,FR-BRE,,
184026,228670,hydrographic,"Le Cabon","Le Cabon",official,47.703056,-3.359444,FR-BRE,,
184311,229015,settlement,Kermélo,Kermelo,official,47.736111,-3.387222,FR-BRE,,
184074,228722,settlement,Ty-Lann-ar-Guip,Ty-Lann-ar-Guip,official,47.73,-3.340556,FR-BRE,,
184176,228839,hypsographic,"Le Toulhars","Le Toulhars",official,47.706944,-3.3725,FR-BRE,,
184344,229062,settlement,"L’Eau Courante","L'Eau Courante",official,47.7525,-3.366389,FR-BRE,,
184161,228820,hydrographic,"Le Coteron","Le Coteron",official,47.698611,-3.4,FR-BRE,,
183774,228370,hydrographic,"Banc des Truies","Banc des Truies",official,47.678357,-3.397847,FR-BRE,,
183953,398890,settlement,Porh-Guerh,Porh-Guerh,variant,47.691014,-3.353171,FR-BRE,,
183792,228390,hydrographic,"Anse de Stole","Anse de Stole",official,47.7,-3.433333,FR-BRE,,
184130,228785,hydrographic,"Le Cochon","Le Cochon",official,47.714444,-3.366111,FR-BRE,,
184188,228853,settlement,Kerderff,Kerderff,official,47.706644,-3.389792,FR-BRE,,
184041,228687,settlement,"Les Deux Moulins","Les Deux Moulins",official,47.708837,-3.332187,FR-BRE,,
184293,228994,settlement,Zanflamme,Zanflamme,official,47.719444,-3.372778,FR-BRE,,
184290,228989,settlement,"Cité de Kermélo","Cite de Kermelo",official,47.728027,-3.38205,FR-BRE,,
184343,229060,settlement,Carnel,Carnel,official,47.739444,-3.3675,FR-BRE,,
184287,228986,settlement,Kergoulédec,Kergouledec,official,47.721354,-3.397735,FR-BRE,,
183597,228174,hydrographic,"Basse de Gâvres","Basse de Gavres",official,47.675158,-3.34795,FR-BRE,,
184420,229150,settlement,"Les Chantiers","Les Chantiers",official,47.7575,-3.339444,FR-BRE,,
184165,228825,hydrographic,"Basse des Saisies","Basse des Saisies",variant,47.701111,-3.381944,FR-BRE,,
184424,229154,settlement,Kerhono,Kerhono,official,47.759444,-3.35,FR-BRE,,
184348,229066,settlement,Kerforn,Kerforn,official,47.752915,-3.388196,FR-BRE,,
184296,229000,settlement,"La Perrière","La Perriere",official,47.733611,-3.361667,FR-BRE,,
184039,228685,settlement,L’Avancée,L'Avancee,official,47.709722,-3.342778,FR-BRE,,
184283,228982,hydrographic,"Anse de Kerroc’h","Anse de Kerroc'h",official,47.702784,-3.46399,FR-BRE,,
184411,229139,settlement,"Cité du Priatec","Cite du Priatec",official,47.750833,-3.343333,FR-BRE,,
184076,228724,settlement,Nézenel,Nezenel,official,47.73025,-3.342079,FR-BRE,,
184347,229065,settlement,"Le Mir","Le Mir",official,47.750143,-3.390139,FR-BRE,,
183793,228391,settlement,Keradehuen,Keradehuen,official,47.722742,-3.404764,FR-BRE,,
184322,229028,settlement,Keryvaland,Keryvaland,official,47.739929,-3.388339,FR-BRE,,
184350,229068,settlement,Kerentrech,Kerentrech,official,47.756731,-3.359481,FR-BRE,,
184180,228844,hypsographic,"Roches de Toulhars","Roches de Toulhars",official,47.709722,-3.372222,FR-BRE,,
184317,229023,settlement,Kerbernès,Kerbernes,official,47.738056,-3.398889,FR-BRE,,
183868,228496,hydrographic,"Le Cheval","Le Cheval",official,47.688058,-3.381687,FR-BRE,,
184346,229229,settlement,Kervaric,Kervaric,variant,47.747778,-3.383889,FR-BRE,,
184061,228710,settlement,Kerchicane,Kerchicane,official,47.715278,-3.339444,FR-BRE,,
184020,228663,hydrographic,"Les Réaux","Les Reaux",official,47.702222,-3.352778,FR-BRE,,
184320,229026,settlement,Quéhellio-Sachoy,Quehellio-Sachoy,official,47.739722,-3.386389,FR-BRE,,
184115,228770,hydrographic,Pengarne,Pengarne,official,47.731944,-3.352222,FR-BRE,,
184309,229013,settlement,Kerolay,Kerolay,official,47.735171,-3.379439,FR-BRE,,
183953,398888,settlement,Porh-Guer,Porh-Guer,official,47.691014,-3.353171,FR-BRE,,
184033,228678,settlement,Pen-er-Run,Pen-er-Run,official,47.705666,-3.347025,FR-BRE,,
188523,234780,settlement,Kergantic,Kergantic,official,47.731417,-3.459216,FR-BRE,,
188518,234775,hydrographic,"Basse Blanche","Basse Blanche",official,47.723611,-3.5,FR-BRE,,
188532,234791,hydrographic,"Étang du Loc’h","Etang du Loc'h",official,47.761929,-3.504176,FR-BRE,,
188517,234774,hypsographic,"Pointe du Courégan","Pointe du Couregan",official,47.716667,-3.483333,FR-BRE,,
188527,234784,spot,Fort-Bloqué,Fort-Bloque,official,47.734398,-3.504387,FR-BRE,,
188529,234786,hydrographic,"Étang de Lannénec","Etang de Lannenec",official,47.741663,-3.487464,FR-BRE,,
188519,234776,hydrographic,"Grand Cochon","Grand Cochon",official,47.718689,-3.513669,FR-BRE,,
188521,234778,settlement,"Petit Cochon","Petit Cochon",official,47.724167,-3.516667,FR-BRE,,
195217,243832,hypsographic,"Pointe de Rospico","Pointe de Rospico",official,47.783333,-3.758333,FR-BRE,,
200687,250485,settlement,Drouillet,Drouillet,official,44.9625,-0.531944,FR-NAQ,,
195196,243809,hypsographic,"Pointe de Karhermen","Pointe de Karhermen",official,47.798058,-3.721707,FR-BRE,,
200689,250487,settlement,Antony,Antony,official,44.956277,-0.533411,FR-NAQ,,
193204,240927,hydrographic,"Basse an Iliz","Basse an Iliz",official,47.752518,-3.607644,FR-BRE,,
195221,243835,hydrographic,"Basse Trémorvan","Basse Tremorvan",official,47.783333,-3.772222,FR-BRE,,
193199,240922,hydrographic,"Basse Porsac’h","Basse Porsac'h",official,47.758333,-3.590278,FR-BRE,,
195183,255304,settlement,Kerfany-les-Pins,Kerfany-les-Pins,official,47.805556,-3.716667,FR-BRE,,
195097,243689,hydrographic,"Basse de Karsèkol","Basse de Karsekol",official,47.762485,-3.644298,FR-BRE,,
195255,243882,hypsographic,"Le Taquet","Le Taquet",official,47.783536,-3.817691,FR-BRE,,
195204,243818,hydrographic,"Tout ar Betine","Tout ar Betine",official,47.775,-3.75,FR-BRE,,
193171,240894,settlement,Kerbigot,Kerbigot,official,47.775472,-3.51893,FR-BRE,,
195219,243833,hypsographic,"Les Cochons de Rospico","Les Cochons de Rospico",official,47.786867,-3.764356,FR-BRE,,
195198,243812,hypsographic,"Pointe de Riec","Pointe de Riec",official,47.797222,-3.723611,FR-BRE,,
195177,243783,hypsographic,"Percée Île","Percee Ile",official,47.780556,-3.708333,FR-BRE,,
193207,240931,hydrographic,"Basse la Croix","Basse la Croix",official,47.767243,-3.617781,FR-BRE,,
195098,243690,hydrographic,"Rivière de Brigneau","Riviere de Brigneau",official,47.783333,-3.666667,FR-BRE,,
195254,243880,hypsographic,"Men an Tréas","Men an Treas",official,47.775,-3.825,FR-BRE,,
193213,240938,hypsographic,"Karreg Bras","Karreg Bras",official,47.761992,-3.628764,FR-BRE,,
193196,240919,hydrographic,"Basse Saint-Modé","Basse Saint-Mode",official,47.766667,-3.563889,FR-BRE,,
195183,243789,settlement,Kerfany,Kerfany,variant,47.805556,-3.716667,FR-BRE,,
195174,243780,hypsographic,Men-Tout,Men-Tout,official,47.775,-3.683333,FR-BRE,,
200688,250486,settlement,Vallier,Vallier,official,44.95915,-0.545833,FR-NAQ,,
195179,243785,hydrographic,"Le Trèpied","Le Trepied",official,47.778772,-3.738936,FR-BRE,,
193179,240902,settlement,Keranquernat,Keranquernat,official,47.772912,-3.542579,FR-BRE,,
193162,240886,settlement,Guidel-Plage,Guidel-Plage,official,47.767677,-3.521801,FR-BRE,,
195197,243811,hypsographic,Beg-ar-Véchen,Beg-ar-Vechen,official,47.799985,-3.733914,FR-BRE,,
195253,243879,hydrographic,"Ar Garreg Vras","Ar Garreg Vras",official,47.7625,-3.8,FR-BRE,,
195256,243884,hypsographic,"Karreg Chili","Karreg Chili",official,47.78613,-3.821138,FR-BRE,,
195270,243905,hypsographic,"Karreg Lernec","Karreg Lernec",official,47.791667,-3.85,FR-BRE,,
195271,243908,hydrographic,Vilvic,Vilvic,official,47.8,-3.858333,FR-BRE,,
195281,243932,hypsographic,"Plages de Trévignon","Plages de Trevignon",official,47.825,-3.858333,FR-BRE,,
195282,243934,hypsographic,"La Tépot","La Tepot",official,47.812098,-3.875306,FR-BRE,,
195283,243935,hydrographic,"Korvenn Trevignon","Korvenn Trevignon",official,47.7875,-3.876389,FR-BRE,,
195284,243936,hypsographic,"Karreg an Eskob","Karreg an Eskob",official,47.791667,-3.877778,FR-BRE,,
199315,248827,settlement,"Le Taffeters","Le Taffeters",official,46.150279,-1.285777,FR-NAQ,,
199740,249356,hydrographic,"Banc de la Rade","Banc de la Rade",official,45.9875,-1.195833,FR-NAQ,,
198497,247888,hydrographic,"Les Laouennou","Les Laouennou",official,47.665278,-3.916667,FR-BRE,,
199714,249328,settlement,"La Nouette","La Nouette",official,45.978168,-1.278167,FR-NAQ,,
199341,248859,settlement,Saint-Maurice,Saint-Maurice,official,46.165279,-1.180556,FR-NAQ,,
198487,247876,hydrographic,"Les Soldats","Les Soldats",official,47.804185,-3.887009,FR-BRE,,
199323,248840,hydrographic,"Plateau de Chaveau","Plateau de Chaveau",official,46.122222,-1.266667,FR-NAQ,,
199415,248947,settlement,"Le Chaume","Le Chaume",official,46.103333,-1.109722,FR-NAQ,,
199675,249286,hydrographic,"Anse de la Maleconche","Anse de la Maleconche",official,45.991335,-1.302944,FR-NAQ,,
199358,248878,settlement,"Les Minimes","Les Minimes",official,46.142944,-1.160444,FR-NAQ,,
199335,248853,settlement,"Cité de la Vacherie","Cite de la Vacherie",official,46.165278,-1.195833,FR-NAQ,,
199414,248945,settlement,"Le Pavé","Le Pave",official,46.102778,-1.108333,FR-NAQ,,
199317,248830,hydrographic,"Anse de l’Oubye","Anse de l'Oubye",official,46.15,-1.266667,FR-NAQ,,
198485,247873,hypsographic,Flaharn,Flaharn,official,47.795843,-3.880603,FR-BRE,,
199319,248835,settlement,"Les Rivauds","Les Rivauds",official,46.171999,-1.204112,FR-NAQ,,
198893,248307,hypsographic,"Île de Brunec","Ile de Brunec",official,47.728729,-3.998938,FR-BRE,,
199732,249346,hydrographic,"La Longe","La Longe",official,46.016667,-1.25,FR-NAQ,,
198486,247875,hypsographic,"Karreg Tangi","Karreg Tangi",official,47.791667,-3.894444,FR-BRE,,
199603,249213,settlement,Chassiron,Chassiron,official,46.041427,-1.402759,FR-NAQ,,
199444,248980,spot,"Digue du Bout Blanc","Digue du Bout Blanc",official,46.148611,-1.166667,FR-NAQ,,
198863,248275,hydrographic,"Prunenoe Bihan","Prunenoe Bihan",official,47.7,-3.975,FR-BRE,,
199343,248861,settlement,Vendôme,Vendome,official,46.175,-1.158333,FR-NAQ,,
199700,249313,settlement,Bretagne,Bretagne,official,45.987055,-1.310407,FR-NAQ,,
198500,254992,hydrographic,"Le Pignon","Le Pignon",official,47.677778,-3.916667,FR-BRE,,
199384,248910,settlement,"Cité de Bongraine","Cite de Bongraine",official,46.139463,-1.140148,FR-NAQ,,
199412,248942,hydrographic,"Plateau d’Angoulins","Plateau d'Angoulins",official,46.090501,-1.154889,FR-NAQ,,
199620,249232,settlement,Planginot,Planginot,official,46.018944,-1.353555,FR-NAQ,,
199333,248851,settlement,"Cité Oncor","Cite Oncor",official,46.169444,-1.195833,FR-NAQ,,
199609,249220,settlement,"La Morelière","La Moreliere",official,46.043834,-1.397037,FR-NAQ,,
199359,248879,settlement,Bellevue,Bellevue,official,46.140185,-1.149444,FR-NAQ,,
199344,248862,settlement,Fétilly,Fetilly,official,46.175,-1.155556,FR-NAQ,,
199396,248925,hydrographic,"Plateau de Duraignes","Plateau de Duraignes",official,46.120833,-1.169444,FR-NAQ,,
199443,248979,settlement,"Cité du Prieuré","Cite du Prieure",official,46.17686,-1.146791,FR-NAQ,,
199362,248883,settlement,Lafond,Lafond,official,46.172791,-1.144514,FR-NAQ,,
199442,248977,settlement,"La Courbe","La Courbe",official,46.140796,-1.129889,FR-NAQ,,
199435,248970,hydrographic,"Marais Doux","Marais Doux",official,46.127778,-1.116667,FR-NAQ,,
199622,249234,settlement,"Les Bouilassiers","Les Bouilassiers",official,46.008887,-1.334277,FR-NAQ,,
199754,249373,hydrographic,"Le Porterat","Le Porterat",official,45.976332,-1.149277,FR-NAQ,,
198780,248188,hydrographic,"Laon Ejen Hir","Laon Ejen Hir",official,47.695649,-3.949617,FR-BRE,,
199312,248825,settlement,"Les Caillaux","Les Caillaux",official,46.158333,-1.275,FR-NAQ,,
199753,249372,hydrographic,"Le Charenton","Le Charenton",official,45.9815,-1.156944,FR-NAQ,,
198505,247896,hydrographic,"Ar C’hardennou Krenn","Ar C'hardennou Krenn",official,47.683333,-3.925,FR-BRE,,
199641,249253,settlement,"La Sablière","La Sabliere",official,45.996704,-1.367186,FR-NAQ,,
199429,248964,hydrographic,"Marais de l’Île","Marais de l'Ile",official,46.130556,-1.111111,FR-NAQ,,
199422,248956,hydrographic,"Marais du Pont de la Pierre","Marais du Pont de la Pierre",official,46.118112,-1.110667,FR-NAQ,,
199447,248985,spot,"Digue des Minimes","Digue des Minimes",official,46.147222,-1.1625,FR-NAQ,,
199363,248885,settlement,"Cité de Beauregard","Cite de Beauregard",official,46.170306,-1.131389,FR-NAQ,,
199325,248842,hydrographic,"Roche d’Amour","Roche d'Amour",official,46.120833,-1.225,FR-NAQ,,
199446,248983,spot,"Digue Lazaret","Digue Lazaret",official,46.143056,-1.170833,FR-NAQ,,
199318,248833,spot,"Môle d’Escale President Christian Morch","Mole d'Escale President Christian Morch",official,46.161682,-1.227694,FR-NAQ,,
199627,249239,vegetation,"Bois de l’Achenau","Bois de l'Achenau",official,45.993279,-1.382166,FR-NAQ,,
199316,248829,hypsographic,"Roches de Chaveau","Roches de Chaveau",official,46.1375,-1.275,FR-NAQ,,
198896,248311,hypsographic,"Rochers Leuriou","Rochers Leuriou",official,47.754719,-4.000892,FR-BRE,,
199633,249245,settlement,Chaucre,Chaucre,official,45.98624,-1.374666,FR-NAQ,,
199357,248877,hydrographic,"Marais Perdus","Marais Perdus",official,46.152778,-1.154167,FR-NAQ,,
199328,248846,hypsographic,"Roche du Sud","Roche du Sud",official,46.108333,-1.245833,FR-NAQ,,
199310,248822,hypsographic,"Plage Nord","Plage Nord",official,46.158333,-1.266667,FR-NAQ,,
199402,248931,hydrographic,"Anse de Godechaud","Anse de Godechaud",official,46.125388,-1.128778,FR-NAQ,,
199729,249343,hydrographic,"Le Boyard","Le Boyard",official,46,-1.216667,FR-NAQ,,
199393,248920,hydrographic,"Marais de Aytré","Marais de Aytre",official,46.130556,-1.125,FR-NAQ,,
199379,248905,settlement,Vautreuil,Vautreuil,official,46.141667,-1.144444,FR-NAQ,,
199617,249228,settlement,"La Bétaudière","La Betaudiere",official,46.019943,-1.375833,FR-NAQ,,
198783,248191,hydrographic,"Klud ar Yar","Klud ar Yar",official,47.713473,-3.948394,FR-BRE,,
199342,248860,settlement,"La Genette","La Genette",official,46.162498,-1.169722,FR-NAQ,,
199368,248891,hydrographic,"Canal de Marans","Canal de Marans",official,46.15625,-1.141222,FR-NAQ,,
198857,248269,hypsographic,"Men Goë","Men Goe",official,47.693056,-3.991667,FR-BRE,,
198847,248259,hydrographic,"Kastrell Razed","Kastrell Razed",official,47.716667,-3.95,FR-BRE,,
199367,248890,settlement,Saint-Eloi,Saint-Eloi,official,46.179167,-1.136111,FR-NAQ,,
199450,248989,settlement,"La Sauvagère","La Sauvagere",official,46.141667,-1.1625,FR-NAQ,,
199418,248951,settlement,"La Manon","La Manon",official,46.104167,-1.115278,FR-NAQ,,
198875,248289,hydrographic,"La Bombe","La Bombe",official,47.713889,-3.9875,FR-BRE,,
199751,249370,hydrographic,"Passage du Sud","Passage du Sud",official,45.983333,-1.175,FR-NAQ,,
198866,248279,hydrographic,"Les Méaban","Les Meaban",official,47.707476,-3.964837,FR-BRE,,
199749,249365,hydrographic,"Roches du Sud-Est","Roches du Sud-Est",official,45.983333,-1.183333,FR-NAQ,,
199426,248961,hypsographic,"La Plage d’Aytré","La Plage d'Aytre",official,46.120833,-1.122222,FR-NAQ,,
199717,249331,hydrographic,"Passage de l’Ouest","Passage de l'Ouest",official,45.9875,-1.233333,FR-NAQ,,
198852,248264,hypsographic,Pen-a-Men,Pen-a-Men,official,47.723876,-3.954569,FR-BRE,,
199406,248937,hypsographic,"Pointe des Chirats","Pointe des Chirats",official,46.102376,-1.131181,FR-NAQ,,
199311,248824,hypsographic,"Plage Sud","Plage Sud",official,46.155556,-1.266667,FR-NAQ,,
199613,249224,settlement,"La Michelière","La Micheliere",official,46.017832,-1.376889,FR-NAQ,,
198500,247891,hydrographic,"Basse an Ero","Basse an Ero",variant,47.677778,-3.916667,FR-BRE,,
199404,248934,hydrographic,"Marais du Chay","Marais du Chay",official,46.108333,-1.130556,FR-NAQ,,
199372,248898,settlement,Tasdon,Tasdon,official,46.145054,-1.146444,FR-NAQ,,
199346,248864,settlement,"Cité Franc-Espoir","Cite Franc-Espoir",official,46.172222,-1.161111,FR-NAQ,,
198887,248300,hydrographic,"Basse Krenn","Basse Krenn",official,47.729167,-3.977778,FR-BRE,,
199308,248817,settlement,"La Pallisse","La Pallisse",official,46.169444,-1.283333,FR-NAQ,,
198508,247899,settlement,"Le Lué","Le Lue",official,47.686111,-3.945833,FR-BRE,,
199327,248844,hydrographic,"Plateau du Lavardin","Plateau du Lavardin",official,46.120833,-1.2375,FR-NAQ,,
199411,248941,hydrographic,"Port de Peche","Port de Peche",official,46.104167,-1.119444,FR-NAQ,,
199646,249258,settlement,"Le Trait d’Union","Le Trait d'Union",official,45.976724,-1.340704,FR-NAQ,,
199337,248855,hydrographic,"Marais de Vaugouin","Marais de Vaugouin",official,46.158333,-1.1875,FR-NAQ,,
199321,248837,settlement,"Les Sablons","Les Sablons",official,46.166667,-1.208333,FR-NAQ,,
198860,248273,hypsographic,"Prunenoe Braz","Prunenoe Braz",official,47.695833,-3.975,FR-BRE,,
198880,248293,hypsographic,"Île de Guiriden","Ile de Guiriden",official,47.724459,-3.972109,FR-BRE,,
199703,249316,settlement,Foulerot,Foulerot,official,45.984371,-1.310259,FR-NAQ,,
198786,248194,hydrographic,"Kastrell Bargen","Kastrell Bargen",official,47.708645,-3.950009,FR-BRE,,
199607,249218,settlement,"La Gautrie","La Gautrie",official,46.039943,-1.400722,FR-NAQ,,
198891,248305,hypsographic,"Les Pierres Noires","Les Pierres Noires",official,47.731834,-3.985046,FR-BRE,,
199386,248912,hydrographic,"Le Platin","Le Platin",official,46.120833,-1.133333,FR-NAQ,,
199371,248897,hydrographic,"Marais de Tasdon","Marais de Tasdon",official,46.149113,-1.136999,FR-NAQ,,
198885,248299,hypsographic,"Île de Bananec","Ile de Bananec",official,47.722644,-3.991042,FR-BRE,,
199419,248952,settlement,"Les Coudrans","Les Coudrans",official,46.105556,-1.115833,FR-NAQ,,
199661,249272,hypsographic,"Pointe des Normands","Pointe des Normands",official,46.007331,-1.327833,FR-NAQ,,
199313,248826,settlement,"La Croix d’Yon","La Croix d'Yon",official,46.153945,-1.292667,FR-NAQ,,
199381,248907,settlement,Besselue,Besselue,official,46.136111,-1.147222,FR-NAQ,,
199656,249268,hydrographic,"Marais du Douhet","Marais du Douhet",official,45.997111,-1.329222,FR-NAQ,,
199356,248875,settlement,"La Ville en Bois","La Ville en Bois",official,46.150872,-1.155478,FR-NAQ,,
199340,248858,settlement,"Cité de Port-Neuf","Cite de Port-Neuf",official,46.157666,-1.180166,FR-NAQ,,
198782,248190,hydrographic,"Laon Ejen Ront","Laon Ejen Ront",official,47.699518,-3.945129,FR-BRE,,
198741,248145,hydrographic,"Les Ruellou","Les Ruellou",official,47.68836,-3.957289,FR-BRE,,
199390,248917,hypsographic,"Le Chay","Le Chay",official,46.108333,-1.138889,FR-NAQ,,
199336,248854,settlement,Vaugouin,Vaugouin,official,46.1625,-1.191667,FR-NAQ,,
199875,249515,hypsographic,"Plage de la Clavette","Plage de la Clavette",official,46.191667,-1.327778,FR-NAQ,,
199839,249475,settlement,Marillac,Marillac,official,46.141667,-1.166667,FR-NAQ,,
199897,249538,settlement,Lavaud,Lavaud,official,46.221721,-1.439499,FR-NAQ,,
199818,249450,hydrographic,"Roche des Basques","Roche des Basques",official,46.054167,-1.191667,FR-NAQ,,
200685,250483,settlement,Peyronnet,Peyronnet,official,44.975,-0.533333,FR-NAQ,,
200237,249969,settlement,"Le Rigalet","Le Rigalet",official,45.060714,-0.61976,FR-NAQ,,
200109,249822,settlement,"Le Limpou","Le Limpou",official,43.481027,-1.466644,FR-NAQ,,
200697,250495,hydrographic,"Jalle de la Bécassine","Jalle de la Becassine",official,44.933333,-0.552778,FR-NAQ,,
200140,249855,hydrographic,"Lac du Boucau","Lac du Boucau",official,43.525,-1.520833,FR-NAQ,,
199878,249518,settlement,"La Noue","La Noue",official,46.156241,-1.331149,FR-NAQ,,
200289,250033,settlement,Pachan,Pachan,official,44.986966,-0.555404,FR-NAQ,,
200258,249995,hydrographic,"Marais Léotard","Marais Leotard",official,45.016667,-0.555556,FR-NAQ,,
199850,249488,hydrographic,"Anse de la Fertalière","Anse de la Fertaliere",official,46.2,-1.202778,FR-NAQ,,
200120,249834,settlement,"Les Arenes","Les Arenes",official,43.497222,-1.4875,FR-NAQ,,
200125,249839,settlement,Larmagnan,Larmagnan,official,43.505556,-1.5,FR-NAQ,,
199911,249552,settlement,"La Passe","La Passe",official,46.202866,-1.460026,FR-NAQ,,
200210,249938,hydrographic,"Roches du Moulin","Roches du Moulin",official,43.670773,-1.466846,FR-NAQ,,
199877,249517,hydrographic,"Pertuis Breton","Pertuis Breton",official,46.25,-1.366667,FR-NAQ,,
199890,249530,settlement,"Le Chaffaud","Le Chaffaud",official,46.199539,-1.384741,FR-NAQ,,
200083,249795,hydrographic,"Plage de la Loge","Plage de la Loge",official,46.244444,-1.475,FR-NAQ,,
199840,249477,settlement,"Les Guiardes","Les Guiardes",official,46.170833,-1.183333,FR-NAQ,,
200254,249991,settlement,"Le Fourat","Le Fourat",official,45.019315,-0.536646,FR-NAQ,,
218121,272773,settlement,Géraud,Geraud,official,47.242361,-2.285318,FR-PDL,,
199814,19423179,settlement,Île-d’Aix,Ile-d'Aix,official,46.012325,-1.174833,FR-NAQ,,
200198,249925,hydrographic,"Roches de la Barre","Roches de la Barre",official,43.566667,-1.583333,FR-NAQ,,
199891,249531,hypsographic,"Pointe du Grouin","Pointe du Grouin",official,46.230751,-1.407986,FR-NAQ,,
200230,249962,vegetation,"Forêt Communale de Messanges","Foret Communale de Messanges",official,43.816667,-1.4,FR-NAQ,,
200201,249929,hydrographic,"Roches du Doigt-Mordu","Roches du Doigt-Mordu",official,43.658333,-1.558333,FR-NAQ,,
199910,249551,settlement,"Les Prises","Les Prises",official,46.199311,-1.445832,FR-NAQ,,
218120,272772,settlement,Cavaro,Cavaro,official,47.245467,-2.298305,FR-PDL,,
200699,250497,settlement,Trabuchet,Trabuchet,official,44.940278,-0.555556,FR-NAQ,,
200692,250490,hydrographic,Jallère,Jallere,official,44.897222,-0.538889,FR-NAQ,,
200168,249886,settlement,Romatet,Romatet,official,43.527396,-1.472358,FR-NAQ,,
200257,249994,settlement,"Port Lopès","Port Lopes",official,45.028572,-0.576428,FR-NAQ,,
200153,249871,settlement,Saint-Esprit,Saint-Esprit,official,43.494413,-1.464437,FR-NAQ,,
200188,249908,hydrographic,"Étang du Turc","Etang du Turc",official,43.564881,-1.455745,FR-NAQ,,
199906,249547,hydrographic,"Roche du Fier","Roche du Fier",official,46.258333,-1.438889,FR-NAQ,,
200320,250065,settlement,Ragouil,Ragouil,official,44.97146,-0.555309,FR-NAQ,,
199791,249421,hydrographic,"Fosse d’Enet","Fosse d'Enet",official,46.004167,-1.15,FR-NAQ,,
200100,249813,settlement,Lahubiague,Lahubiague,official,43.48353,-1.486124,FR-NAQ,,
199844,249481,settlement,"Le Treuil Bâton","Le Treuil Baton",official,46.199211,-1.160012,FR-NAQ,,
200698,250496,hydrographic,"Jalle de la Violette","Jalle de la Violette",official,44.938889,-0.552778,FR-NAQ,,
200113,249826,settlement,Mousserolles,Mousserolles,official,43.484908,-1.463369,FR-NAQ,,
199854,249493,hypsographic,"Pointe de la Queille","Pointe de la Queille",official,46.182418,-1.215042,FR-NAQ,,
200692,254803,hydrographic,"La Jallère","La Jallere",variant,44.897222,-0.538889,FR-NAQ,,
200193,249916,hypsographic,"Dunes du Métro","Dunes du Metro",official,43.570833,-1.488889,FR-NAQ,,
200686,250484,hydrographic,"Jalle d’Alesme","Jalle d'Alesme",official,44.955556,-0.545833,FR-NAQ,,
200204,249932,hydrographic,"Roches du Champ des Vaches","Roches du Champ des Vaches",official,43.680556,-1.516667,FR-NAQ,,
199876,249516,hydrographic,"Banc du Préau","Banc du Preau",official,46.233333,-1.308333,FR-NAQ,,
199796,249427,hydrographic,"Anse du Saillant","Anse du Saillant",official,46.021314,-1.169685,FR-NAQ,,
200077,249789,settlement,"Le Gillieux","Le Gillieux",official,46.238215,-1.552407,FR-NAQ,,
200122,249836,settlement,"Allees Marines","Allees Marines",official,43.494444,-1.483333,FR-NAQ,,
200250,249986,settlement,"La Tuilière","La Tuiliere",official,45.027383,-0.523968,FR-NAQ,,
200695,250493,hydrographic,"Jalle d’Olive","Jalle d'Olive",official,44.945926,-0.551237,FR-NAQ,,
199866,249505,settlement,Bellevue,Bellevue,official,46.183334,-1.316667,FR-NAQ,,
200691,250489,settlement,Jourdane,Jourdane,official,44.945833,-0.536111,FR-NAQ,,
199848,249486,settlement,"Le Plomb","Le Plomb",official,46.200001,-1.2,FR-NAQ,,
199908,249549,hydrographic,"Anse du Martray","Anse du Martray",official,46.19021,-1.475268,FR-NAQ,,
200040,249744,hypsographic,"Pointe Blanche","Pointe Blanche",official,46.228549,-1.480984,FR-NAQ,,
199886,249526,settlement,"Le Roulant","Le Roulant",official,46.18974,-1.376852,FR-NAQ,,
199895,249536,settlement,Déramée,Deramee,official,46.223374,-1.435541,FR-NAQ,,
199874,249513,hypsographic,"Plage de l’Arénault","Plage de l'Arenault",official,46.186264,-1.318209,FR-NAQ,,
200207,249935,hydrographic,"Roches Duprat","Roches Duprat",official,43.668871,-1.495825,FR-NAQ,,
200294,250039,hydrographic,"Estey du Moine","Estey du Moine",official,44.986111,-0.5375,FR-NAQ,,
200126,249840,settlement,"La Hargouette","La Hargouette",official,43.515704,-1.503761,FR-NAQ,,
200225,249955,hydrographic,"Étang Blanc","Etang Blanc",official,43.711111,-1.3625,FR-NAQ,,
200093,249806,settlement,Beyris,Beyris,official,43.479102,-1.499692,FR-NAQ,,
199913,249554,hydrographic,"Chenal des Eveillards","Chenal des Eveillards",official,46.2125,-1.45,FR-NAQ,,
200171,249889,settlement,Lahillade,Lahillade,official,43.531184,-1.480018,FR-NAQ,,
199853,249492,hydrographic,"Anse de Pampin","Anse de Pampin",official,46.185333,-1.206625,FR-NAQ,,
199843,249480,settlement,"Le Lignon","Le Lignon",official,46.185723,-1.141667,FR-NAQ,,
199894,249534,settlement,"Le Peux","Le Peux",official,46.225488,-1.431541,FR-NAQ,,
200190,249910,hydrographic,"Étang de Beyres","Etang de Beyres",official,43.565238,-1.427141,FR-NAQ,,
200694,250492,hydrographic,Castelnau,Castelnau,official,44.925,-0.544444,FR-NAQ,,
199845,249483,settlement,"La Genilliere","La Genilliere",official,46.193955,-1.172413,FR-NAQ,,
200182,249902,hydrographic,"Lac de Lahoun","Lac de Lahoun",official,43.555556,-1.488889,FR-NAQ,,
200103,249816,settlement,Marracq,Marracq,official,43.478184,-1.484419,FR-NAQ,,
199888,249528,settlement,"La Moulinatte","La Moulinatte",official,46.202981,-1.400741,FR-NAQ,,
200696,250494,settlement,"Haras du Labouret","Haras du Labouret",official,44.948954,-0.55019,FR-NAQ,,
200255,249992,settlement,Mirambeau,Mirambeau,official,45.025091,-0.566387,FR-NAQ,,
200228,249960,hydrographic,"Étang d’Hardy","Etang d'Hardy",official,43.720208,-1.363571,FR-NAQ,,
200249,249984,settlement,"Croûte Charlus","Croute Charlus",official,45.033532,-0.53722,FR-NAQ,,
200118,249832,settlement,Lachepaillet,Lachepaillet,official,43.491774,-1.4874,FR-NAQ,,
199880,249520,settlement,"La Grainetière","La Grainetiere",official,46.188999,-1.342852,FR-NAQ,,
200262,254808,hydrographic,"La Maqueline","La Maqueline",variant,44.992581,-0.55957,FR-NAQ,,
199864,249503,hypsographic,Sablanceaux,Sablanceaux,official,46.160333,-1.261111,FR-NAQ,,
199892,249532,hypsographic,"Pointe de Cande","Pointe de Cande",official,46.216667,-1.433333,FR-NAQ,,
199802,249432,hypsographic,"Pointe Sainte-Eulard","Pointe Sainte-Eulard",official,46.025752,-1.167667,FR-NAQ,,
200158,249876,settlement,Saint-Etienne,Saint-Etienne,official,43.505556,-1.466667,FR-NAQ,,
200297,250042,hypsographic,"Pointe de Pachan","Pointe de Pachan",official,44.983333,-0.547222,FR-NAQ,,
199879,249519,settlement,"Les Grenettes","Les Grenettes",official,46.160369,-1.357148,FR-NAQ,,
200043,249752,hydrographic,"Conche des Baleines","Conche des Baleines",official,46.245834,-1.534967,FR-NAQ,,
200690,250488,spot,"Digue du Caillou","Digue du Caillou",official,44.963889,-0.544444,FR-NAQ,,
200307,250052,settlement,Despartins,Despartins,official,44.97595,-0.554586,FR-NAQ,,
200042,249747,settlement,"Les Moulins de la Boire","Les Moulins de la Boire",official,46.207158,-1.51426,FR-NAQ,,
200184,249904,hydrographic,"Lac Long","Lac Long",official,43.558333,-1.479167,FR-NAQ,,
200300,250045,hydrographic,"Jalle de Capet","Jalle de Capet",official,44.980556,-0.547222,FR-NAQ,,
199814,249446,settlement,"Île d’Aix","Ile d'Aix",variant,46.012325,-1.174833,FR-NAQ,,
200191,249913,hydrographic,"Étang d’Yrieu","Etang d'Yrieu",official,43.569444,-1.416667,FR-NAQ,,
199885,249525,settlement,"Le Morinant","Le Morinant",official,46.189666,-1.371203,FR-NAQ,,
200211,249939,hydrographic,"Roches du Champ de Talère","Roches du Champ de Talere",official,43.650481,-1.492846,FR-NAQ,,
199912,249553,settlement,"Le Martray","Le Martray",official,46.201282,-1.48698,FR-NAQ,,
200194,249917,hypsographic,"Plage d’Ondres","Plage d'Ondres",official,43.579167,-1.4875,FR-NAQ,,
200136,249851,hydrographic,"Lac de Chiberia","Lac de Chiberia",official,43.513037,-1.521725,FR-NAQ,,
200262,250000,hydrographic,Maqueline,Maqueline,official,44.992581,-0.55957,FR-NAQ,,
200260,249997,hydrographic,"Marais Capel","Marais Capel",official,45.009722,-0.545833,FR-NAQ,,
200224,249954,hydrographic,"Étang de Pinsolle","Etang de Pinsolle",official,43.771792,-1.40662,FR-NAQ,,
200311,250056,settlement,Peyau,Peyau,official,44.980517,-0.536111,FR-NAQ,,
200163,249881,settlement,Saint-Bernard,Saint-Bernard,official,43.507253,-1.484907,FR-NAQ,,
199798,249428,hydrographic,"Le Grand Fauchon","Le Grand Fauchon",official,46.015333,-1.155125,FR-NAQ,,
199860,249499,hydrographic,"Anse Notre-Dame","Anse Notre-Dame",official,46.143888,-1.295222,FR-NAQ,,
200292,250037,settlement,Sainte-Barbe,Sainte-Barbe,official,44.987442,-0.538889,FR-NAQ,,
200242,249974,settlement,"La Reuille","La Reuille",official,45.050793,-0.604881,FR-NAQ,,
199882,249522,settlement,"Village Océanique","Village Oceanique",official,46.172407,-1.356481,FR-NAQ,,
200693,250491,hydrographic,"Estey de Truquet","Estey de Truquet",official,44.925,-0.544444,FR-NAQ,,
200187,249907,hydrographic,"Étang de Garros","Etang de Garros",official,43.558333,-1.461111,FR-NAQ,,
209103,261419,hypsographic,"Roches de Bornor","Roches de Bornor",official,47.291936,-3.214045,FR-BRE,,
209071,261386,hypsographic,"Île de Bourhig","Ile de Bourhig",variant,47.289377,-3.119267,FR-BRE,,
209088,261404,hypsographic,"Pointe du Grand Village","Pointe du Grand Village",official,47.296115,-3.183354,FR-BRE,,
209125,19262069,hydrographic,"Anse de Vazen","Anse de Vazen",variant,47.321868,-3.241135,FR-BRE,,
209071,19256357,hypsographic,"Île de Bourhic","Ile de Bourhic",official,47.289377,-3.119267,FR-BRE,,
209046,261361,hypsographic,"Pointe de Kerzo","Pointe de Kerzo",official,47.296386,-3.068477,FR-BRE,,
209058,19260921,hydrographic,"Port de Lost-Kah","Port de Lost-Kah",variant,47.288486,-3.113776,FR-BRE,,
209077,261392,hydrographic,"Port de Pouldon","Port de Pouldon",official,47.290086,-3.139634,FR-BRE,,
209120,261439,hydrographic,"Port Coton","Port Coton",official,47.307821,-3.240563,FR-BRE,,
209081,19262033,hydrographic,"Port Gwenn","Port Gwenn",official,47.298333,-3.161944,FR-BRE,,
209127,261446,hydrographic,"Port de Donnant","Port de Donnant",official,47.325644,-3.237847,FR-BRE,,
209063,261378,hypsographic,"Pointe de Bourhig","Pointe de Bourhig",variant,47.288537,-3.116641,FR-BRE,,
209094,261410,hydrographic,"Port Kérel","Port Kerel",official,47.296906,-3.203729,FR-BRE,,
209058,261373,hydrographic,"Port Lost-Kah","Port Lost-Kah",official,47.288486,-3.113776,FR-BRE,,
209141,261460,hydrographic,"Port de Kerledan","Port de Kerledan",variant,47.338293,-3.254289,FR-BRE,,
209131,19262336,hydrographic,"Port Cheul","Port Cheul",variant,47.329814,-3.244934,FR-BRE,,
209125,261444,hydrographic,"Anse du Vazen","Anse du Vazen",official,47.321868,-3.241135,FR-BRE,,
209157,261477,hypsographic,"Île en Oulm","Ile en Oulm",official,47.359946,-3.263598,FR-BRE,,
209141,19281374,hydrographic,"Port de Kerlédan","Port de Kerledan",official,47.338293,-3.254289,FR-BRE,,
209116,261433,hydrographic,"Port de Goulphar","Port de Goulphar",variant,47.301352,-3.229541,FR-BRE,,
209138,19256501,hypsographic,"Baz Vélec","Baz Velec",official,47.337346,-3.258797,FR-BRE,,
209116,261434,hydrographic,"Port Goulphar","Port Goulphar",official,47.301352,-3.229541,FR-BRE,,
209159,261479,spot,"Grotte de l’Apothicairerie","Grotte de l'Apothicairerie",official,47.362713,-3.261477,FR-BRE,,
209043,261358,hydrographic,"Port Maria","Port Maria",official,47.293727,-3.075448,FR-BRE,,
209085,19287007,hydrographic,"Port Herlin","Port Herlin",variant,47.300811,-3.167537,FR-BRE,,
209108,261424,hypsographic,"Îles de Domois","Iles de Domois",official,47.295989,-3.22722,FR-BRE,,
209019,261333,hypsographic,"Pointe d’Arzic","Pointe d'Arzic",official,47.287375,-3.076214,FR-BRE,,
209143,261462,hypsographic,"Île aux Goëlands","Ile aux Goelands",variant,47.339146,-3.255193,FR-BRE,,
209053,19262028,hydrographic,"Port An-Dro","Port An-Dro",variant,47.307156,-3.063962,FR-BRE,,
209085,261400,hydrographic,"Plage d’Herlin","Plage d'Herlin",official,47.300811,-3.167537,FR-BRE,,
209153,261473,hypsographic,"Île er Hastellic","Ile er Hastellic",variant,47.351703,-3.261962,FR-BRE,,
209143,19262337,hypsographic,"Île aux Goélands","Ile aux Goelands",official,47.339146,-3.255193,FR-BRE,,
209063,19256354,hypsographic,"Pointe de Talifer-Bourhic","Pointe de Talifer-Bourhic",official,47.288537,-3.116641,FR-BRE,,
209149,261468,hydrographic,"Port de Borderun","Port de Borderun",official,47.347283,-3.255278,FR-BRE,,
209138,261457,hypsographic,"Baz Veleg","Baz Veleg",variant,47.337346,-3.258797,FR-BRE,,
209153,19262340,hypsographic,"Îles er Hastellic","Iles er Hastellic",official,47.351703,-3.261962,FR-BRE,,
209097,261413,hypsographic,"Pointe de Castel Bornor","Pointe de Castel Bornor",variant,47.294294,-3.207226,FR-BRE,,
209053,19255079,hydrographic,"Port Andro","Port Andro",official,47.307156,-3.063962,FR-BRE,,
209081,261396,hydrographic,"Port Guen","Port Guen",variant,47.298333,-3.161944,FR-BRE,,
209118,261436,hydrographic,"Basse Coton","Basse Coton",official,47.304167,-3.243611,FR-BRE,,
209131,261450,hydrographic,"Port Skeul","Port Skeul",variant,47.329814,-3.244934,FR-BRE,,
209053,261368,hydrographic,"Port an Dro","Port an Dro",variant,47.307156,-3.063962,FR-BRE,,
209131,19256492,hydrographic,"Port Scheul","Port Scheul",official,47.329814,-3.244934,FR-BRE,,
209038,261352,hydrographic,"Port Blanc","Port Blanc",official,47.288457,-3.076424,FR-BRE,,
209129,261448,hypsographic,"Le Four","Le Four",official,47.315558,-3.25203,FR-BRE,,
209058,267360,hydrographic,"Port Loscan","Port Loscan",variant,47.288486,-3.113776,FR-BRE,,
209097,19256373,hypsographic,"Pointe de Bornor","Pointe de Bornor",official,47.294294,-3.207226,FR-BRE,,
209005,261319,hypsographic,"Pointe des Canons","Pointe des Canons",official,47.281628,-3.087939,FR-BRE,,
209050,261365,hydrographic,"Basse de la Rade","Basse de la Rade",official,47.299763,-3.048809,FR-BRE,,
212719,265924,hydrographic,"Basse er Pondeu","Basse er Pondeu",official,47.455556,-3.067222,FR-BRE,,
212666,265857,hydrographic,"Petit Flèrn","Petit Flern",variant,47.393574,-3.258615,FR-BRE,,
212715,265918,hypsographic,"Er Pondeu","Er Pondeu",official,47.452652,-3.073775,FR-BRE,,
213073,266348,hypsographic,Spernig,Spernig,official,47.535278,-3.156111,FR-BRE,,
213116,266399,hypsographic,Poul-Haut,Poul-Haut,variant,47.620556,-3.212222,FR-BRE,,
212665,19260278,hypsographic,Léonéguet,Leoneguet,official,47.391667,-3.263333,FR-BRE,,
212663,265854,hypsographic,"Le Cochon","Le Cochon",official,47.391006,-3.245265,FR-BRE,,
212811,266027,hydrographic,"Basse de Furet","Basse de Furet",official,47.481667,-3.083889,FR-BRE,,
212694,265887,hydrographic,"Port Fouquet","Port Fouquet",official,47.361045,-3.171802,FR-BRE,,
212711,265911,hypsographic,"Roche du Hoche","Roche du Hoche",official,47.436828,-3.09234,FR-BRE,,
213122,266408,hydrographic,"Basse Lèno","Basse Leno",variant,47.625833,-3.239444,FR-BRE,,
212665,265856,hypsographic,Leonegez,Leonegez,variant,47.391667,-3.263333,FR-BRE,,
212816,266031,hypsographic,"Pointe Riberen","Pointe Riberen",official,47.483006,-3.09472,FR-BRE,,
213091,266369,hypsographic,"Basse an Tréac’h","Basse an Treac'h",official,47.56,-3.148889,FR-BRE,,
212660,19260335,hypsographic,"Îles des Poulains","Iles des Poulains",official,47.388621,-3.251174,FR-BRE,,
213110,266391,hydrographic,Tréourig,Treourig,official,47.612675,-3.192215,FR-BRE,,
213067,266341,hypsographic,"Men Bihan","Men Bihan",official,47.527925,-3.164111,FR-BRE,,
213048,266321,hydrographic,"Baie de Plouharnel","Baie de Plouharnel",official,47.58564,-3.121754,FR-BRE,,
213129,266414,hypsographic,"Barre d’Étel","Barre d'Etel",official,47.642859,-3.216162,FR-BRE,,
213076,266351,hydrographic,"Revidi Vras","Revidi Vras",official,47.532606,-3.15609,FR-BRE,,
212696,267369,hydrographic,"Basse Balloène","Basse Balloene",official,47.37474,-3.144009,FR-BRE,,
213089,266367,hypsographic,"Basse Corvec","Basse Corvec",official,47.547313,-3.162577,FR-BRE,,
212840,266058,hypsographic,"Plage de Sables Blancs","Plage de Sables Blancs",official,47.56643,-3.12412,FR-BRE,,
212664,265855,hypsographic,"Les Chambres","Les Chambres",official,47.392753,-3.251668,FR-BRE,,
212828,266046,hypsographic,"Beg Quilvi","Beg Quilvi",official,47.525247,-3.127621,FR-BRE,,
213075,266350,hydrographic,"Revidi Vihan","Revidi Vihan",official,47.534165,-3.156228,FR-BRE,,
212831,266049,hypsographic,"Pierres Noires","Pierres Noires",official,47.503225,-3.10969,FR-BRE,,
213071,266346,hypsographic,"Roche Guillo","Roche Guillo",official,47.535,-3.173056,FR-BRE,,
212689,265882,hypsographic,"Pointe de Kerzo","Pointe de Kerzo",official,47.37213,-3.20098,FR-BRE,,
212768,265979,hypsographic,"Le Trépied","Le Trepied",official,47.453723,-3.090327,FR-BRE,,
213924,267368,settlement,Bruté,Brute,official,47.348297,-3.184847,FR-BRE,,
213054,266327,settlement,Saint-Colomban,Saint-Colomban,official,47.572644,-3.095522,FR-BRE,,
213283,266575,hydrographic,"Étang de Berringue","Etang de Berringue",official,47.705283,-3.196008,FR-BRE,,
213084,266362,hypsographic,"Men Melein","Men Melein",official,47.542189,-3.169254,FR-BRE,,
213074,266349,hypsographic,"Roche Guédic","Roche Guedic",official,47.537178,-3.156553,FR-BRE,,
212656,265845,hypsographic,"Roc’h Toul","Roc'h Toul",official,47.367089,-3.262958,FR-BRE,,
213082,266359,hypsographic,"En Hoh","En Hoh",official,47.540913,-3.149653,FR-BRE,,
212705,265904,hypsographic,"Les Sśurs","Les Ssurs",variant,47.22224,-3.027708,FR-BRE,,
212788,266000,hydrographic,"Basse Saint Clément","Basse Saint Clement",official,47.464571,-3.105963,FR-BRE,,
212672,265863,hydrographic,"Basse Occidental des Poulains","Basse Occidental des Poulains",official,47.390735,-3.276604,FR-BRE,,
212666,19260334,hydrographic,"Petite Flaharn","Petite Flaharn",official,47.393574,-3.258615,FR-BRE,,
212696,265889,hydrographic,"Basse Baloen","Basse Baloen",variant,47.37474,-3.144009,FR-BRE,,
212720,265927,hypsographic,"Houarn Marc’h","Houarn Marc'h",official,47.46205,-3.057444,FR-BRE,,
213114,266396,hydrographic,"La Roche Sèche","La Roche Seche",official,47.6225,-3.196111,FR-BRE,,
212701,265898,hydrographic,"Port Yorc’h","Port Yorc'h",official,47.324245,-3.120924,FR-BRE,,
212705,17270652,hypsographic,"Les Sœurs","Les Soeurs",official,47.22224,-3.027708,FR-BRE,,
213055,266328,settlement,Carnac-Plage,Carnac-Plage,official,47.574586,-3.064877,FR-BRE,,
213068,266343,hypsographic,"Beg en Aud","Beg en Aud",variant,47.529232,-3.161032,FR-BRE,,
213063,266336,hypsographic,"Karreg Beaumer","Karreg Beaumer",official,47.565643,-3.04867,FR-BRE,,
212692,265885,hydrographic,"Port Jean","Port Jean",official,47.364374,-3.189836,FR-BRE,,
213083,266360,hydrographic,"Pen Goc’h","Pen Goc'h",official,47.542157,-3.156121,FR-BRE,,
212835,266053,hydrographic,Lizeu,Lizeu,official,47.530623,-3.128693,FR-BRE,,
213287,266579,hydrographic,"Étang de Kervran","Etang de Kervran",official,47.686231,-3.266986,FR-BRE,,
212838,266056,hypsographic,"Pointe de Kerhostin","Pointe de Kerhostin",official,47.538512,-3.130423,FR-BRE,,
212842,266060,hypsographic,Pen-er-Lé,Pen-er-Le,official,47.573686,-3.119476,FR-BRE,,
213060,266333,hydrographic,"Port en Dro","Port en Dro",official,47.568421,-3.077513,FR-BRE,,
213279,266571,hydrographic,"Le Loc’h","Le Loc'h",official,47.705,-3.2075,FR-BRE,,
212837,266055,hydrographic,"Roh Brennig","Roh Brennig",official,47.535357,-3.130355,FR-BRE,,
212787,265999,hypsographic,"Er Vargod","Er Vargod",official,47.465833,-3.096389,FR-BRE,,
212684,265877,hydrographic,"Basse de Sauzon","Basse de Sauzon",official,47.380446,-3.210676,FR-BRE,,
212777,265989,hypsographic,"Roc’h er Vy","Roc'h er Vy",official,47.46345,-3.073442,FR-BRE,,
213087,266365,hydrographic,"Basse Lédan","Basse Ledan",official,47.549768,-3.176288,FR-BRE,,
212707,265906,hypsographic,"Er VeÏnegeü","Er VeInegeu",official,47.419204,-3.035089,FR-BRE,,
213068,266342,hypsographic,"Beg an Aud","Beg an Aud",official,47.529232,-3.161032,FR-BRE,,
212700,265897,hypsographic,"Pointe du Gros Rocher","Pointe du Gros Rocher",official,47.329286,-3.122592,FR-BRE,,
213139,266425,hydrographic,"Basse Roheu","Basse Roheu",official,47.653333,-3.246389,FR-BRE,,
212821,266038,hypsographic,"Baguen Hir","Baguen Hir",official,47.496547,-3.103647,FR-BRE,,
212699,265893,hydrographic,"Port Guen","Port Guen",official,47.33401,-3.146333,FR-BRE,,
212702,265899,hypsographic,"Pointe du Bugul","Pointe du Bugul",official,47.323928,-3.113486,FR-BRE,,
212659,265848,hypsographic,"Pointe du Vieux Château","Pointe du Vieux Chateau",official,47.37154,-3.261465,FR-BRE,,
213051,266324,settlement,"Le Pô","Le Po",official,47.581052,-3.10162,FR-BRE,,
212709,265908,hypsographic,"Les Esclassiers","Les Esclassiers",official,47.425998,-3.047449,FR-BRE,,
213053,266326,spot,Saint-Michel,Saint-Michel,official,47.588102,-3.073346,FR-BRE,,
212808,266021,hydrographic,"Port Kerné","Port Kerne",official,47.490488,-3.143378,FR-BRE,,
212818,266035,settlement,Port-Haliguen,Port-Haliguen,official,47.483333,-3.1,FR-BRE,,
212673,265865,hydrographic,"Port de Deuborh","Port de Deuborh",official,47.379502,-3.235931,FR-BRE,,
213094,266373,hypsographic,"Men Toull","Men Toull",official,47.563723,-3.17342,FR-BRE,,
213064,266337,hypsographic,"La Truie","La Truie",official,47.510262,-3.156244,FR-BRE,,
213156,266442,hypsographic,"Île de Saint-Cado","Ile de Saint-Cado",official,47.686735,-3.18426,FR-BRE,,
213050,266323,hypsographic,"Men er Stêr","Men er Ster",official,47.583333,-3.106111,FR-BRE,,
213105,266386,hydrographic,Rouzès,Rouzes,variant,47.610941,-3.183642,FR-BRE,,
212791,266002,hypsographic,"Beg er Vil","Beg er Vil",official,47.471258,-3.108324,FR-BRE,,
212824,266041,hydrographic,"Basse Saint-Julien","Basse Saint-Julien",official,47.499192,-3.105193,FR-BRE,,
212674,265866,hydrographic,"Basse Badec","Basse Badec",official,47.385092,-3.225667,FR-BRE,,
213077,266352,hydrographic,"Karreg Lagalas","Karreg Lagalas",official,47.538613,-3.151375,FR-BRE,,
213092,266371,hypsographic,Guernic,Guernic,official,47.552591,-3.162657,FR-BRE,,
212703,267364,hypsographic,"Plage des Grands Sables","Plage des Grands Sables",variant,47.316815,-3.104792,FR-BRE,,
212714,265915,hydrographic,"Chaussée de la Teignouse","Chaussee de la Teignouse",official,47.45,-3.083333,FR-BRE,,
213285,266577,hydrographic,"Étang de Kerzine","Etang de Kerzine",official,47.683889,-3.258886,FR-BRE,,
213095,266374,hydrographic,"Le Tranchet","Le Tranchet",official,47.560556,-3.185833,FR-BRE,,
212797,266009,hypsographic,"Beg er Goalennec","Beg er Goalennec",official,47.482799,-3.144666,FR-BRE,,
213061,266334,hypsographic,"Karreg Bernard","Karreg Bernard",official,47.566276,-3.061319,FR-BRE,,
213058,266331,hypsographic,"Karreg Segal","Karreg Segal",official,47.562546,-3.085587,FR-BRE,,
213052,266325,spot,"Abbaye Saint-Michel","Abbaye Saint-Michel",official,47.596932,-3.098961,FR-BRE,,
213096,266375,hydrographic,"Basse de Men Toull","Basse de Men Toull",official,47.570833,-3.179444,FR-BRE,,
212785,265997,hypsographic,"Pointe du Conguel","Pointe du Conguel",official,47.469397,-3.080115,FR-BRE,,
212797,266017,hypsographic,"Beg er Houlannec","Beg er Houlannec",variant,47.482799,-3.144666,FR-BRE,,
212667,19260279,hydrographic,"Grande Flaharn","Grande Flaharn",official,47.395423,-3.261437,FR-BRE,,
213116,266398,hypsographic,Poulleu,Poulleu,official,47.620556,-3.212222,FR-BRE,,
212698,265891,hydrographic,"Basse du Palais","Basse du Palais",official,47.349915,-3.116218,FR-BRE,,
212703,265900,hypsographic,"Les Grands Sables","Les Grands Sables",official,47.316815,-3.104792,FR-BRE,,
212667,265858,hydrographic,"Grand Flèrn","Grand Flern",variant,47.395423,-3.261437,FR-BRE,,
213090,266368,hydrographic,"Roh Goulien","Roh Goulien",official,47.546358,-3.157631,FR-BRE,,
212809,266024,hydrographic,"Anse du Conguel","Anse du Conguel",official,47.474785,-3.088478,FR-BRE,,
212697,265890,hydrographic,"Basse de Kerdenet","Basse de Kerdenet",official,47.371069,-3.123228,FR-BRE,,
212660,265851,hypsographic,"Ile des Poulains","Ile des Poulains",variant,47.388621,-3.251174,FR-BRE,,
212695,265888,hypsographic,"Pointe de Ramonette","Pointe de Ramonette",official,47.342789,-3.145887,FR-BRE,,
212781,265993,hydrographic,"En Toul Bihan","En Toul Bihan",official,47.466598,-3.076446,FR-BRE,,
213122,266406,hydrographic,"Baz Lèneu","Baz Leneu",official,47.625833,-3.239444,FR-BRE,,
212670,265861,hydrographic,"Basse Plate","Basse Plate",official,47.392362,-3.269051,FR-BRE,,
213086,266364,hypsographic,"An Aoter","An Aoter",official,47.544058,-3.176399,FR-BRE,,
212798,266010,hypsographic,"Beg er Lan","Beg er Lan",official,47.473324,-3.130754,FR-BRE,,
213057,266330,settlement,Légenčs,Legencs,official,47.568361,-3.08539,FR-BRE,,
213103,266382,hydrographic,Ennoerézed,Ennoerezed,official,47.603852,-3.18152,FR-BRE,,
213062,266335,hypsographic,"Île de Stuhan","Ile de Stuhan",official,47.573817,-3.045416,FR-BRE,,
213059,266332,hypsographic,"Karreg Pellan","Karreg Pellan",official,47.563912,-3.07633,FR-BRE,,
212658,265847,hypsographic,"Beg en Nuet","Beg en Nuet",official,47.372222,-3.261111,FR-BRE,,
213105,266385,hydrographic,"Er Rouzez","Er Rouzez",official,47.610941,-3.183642,FR-BRE,,
213145,266431,settlement,Pont-Lorois,Pont-Lorois,official,47.675556,-3.195833,FR-BRE,,
217444,271573,hydrographic,"Port de la Gravette","Port de la Gravette",official,47.159722,-2.209167,FR-PDL,,
217250,271360,hypsographic,"Le Cobe","Le Cobe",official,47.019401,-2.225502,FR-000,,
217252,271363,hydrographic,"Anse de la Claire","Anse de la Claire",variant,47.019172,-2.239142,FR-PDL,,
217449,271578,hydrographic,"Port de Comberge","Port de Comberge",official,47.175835,-2.165495,FR-PDL,,
217247,271357,hypsographic,"Pointe de Saint-Pierre","Pointe de Saint-Pierre",official,47.007884,-2.216862,FR-PDL,,
217279,271391,hydrographic,"Banc de la Blanche","Banc de la Blanche",official,47.060024,-2.287265,FR-000,,
217315,271433,hypsographic,"Les Bœufs Jaunes","Les Boeufs Jaunes",official,47.075,-2.080556,FR-PDL,,
217253,271364,hydrographic,"Banc de la Chaise","Banc de la Chaise",official,47.030906,-2.20844,FR-000,,
217252,272268,hydrographic,"Anse de la Clère","Anse de la Clere",official,47.019172,-2.239142,FR-PDL,,
217383,271506,hypsographic,"Pointe aux Chevaux","Pointe aux Chevaux",official,47.109695,-2.121321,FR-PDL,,
217242,271352,hydrographic,"Le Fain","Le Fain",official,46.988991,-2.096772,FR-000,,
217457,271589,hypsographic,"Roche du Sud-Est","Roche du Sud-Est",official,47.175,-2.440556,FR-000,,
217345,271466,hypsographic,"Nor Garin","Nor Garin",official,47.080787,-2.079836,FR-PDL,,
217359,271480,hypsographic,"Nor Plat","Nor Plat",official,47.080331,-2.094476,FR-PDL,,
217442,271571,hypsographic,"Pointe Beduni","Pointe Beduni",official,47.153166,-2.22979,FR-PDL,,
217443,271572,hypsographic,"Pointe de la Gravette","Pointe de la Gravette",official,47.160609,-2.213907,FR-PDL,,
217451,271580,hydrographic,"Banc de Châtelier","Banc de Chatelier",official,47.169969,-2.293148,FR-000,,
217454,271584,hypsographic,"La Lombarde","La Lombarde",official,47.173611,-2.373611,FR-000,,
217460,271592,hypsographic,"Roche du Nord-Ouest","Roche du Nord-Ouest",official,47.21,-2.503333,FR-000,,
217450,271579,hypsographic,"Les Moutons","Les Moutons",official,47.183333,-2.181667,FR-PDL,,
217361,271482,hypsographic,"Le Caillou","Le Caillou",official,47.079663,-2.106756,FR-PDL,,
217367,271488,hypsographic,"Tapis Vert","Tapis Vert",official,47.083333,-2.099167,FR-PDL,,
217238,271347,hypsographic,"Roches de la Préoire","Roches de la Preoire",official,47.005818,-2.10834,FR-000,,
217451,271583,hydrographic,"Banc du Chatelier","Banc du Chatelier",variant,47.169969,-2.293148,FR-000,,
217453,271582,hydrographic,"Passe des Charpentiers","Passe des Charpentiers",official,47.173351,-2.30689,FR-000,,
217248,271358,hypsographic,"Pointe du Cobe","Pointe du Cobe",official,47.017222,-2.224444,FR-PDL,,
217255,271366,hypsographic,"Pierre Menut","Pierre Menut",official,47.038632,-2.267826,FR-PDL,,
217394,271519,hypsographic,"Roche Occidentale","Roche Occidentale",official,47.121943,-2.322004,FR-000,,
217271,271382,hydrographic,"Chenal de la Grise","Chenal de la Grise",official,47.027494,-2.324463,FR-000,,
217405,271531,hydrographic,"Basse du Turc","Basse du Turc",official,47.151505,-2.490136,FR-000,,
217274,271385,hypsographic,"Petit Sécé","Petit Sece",official,47.04231,-2.334599,FR-PDL,,
217348,271469,hypsographic,"Petit Vé","Petit Ve",official,47.084722,-2.085,FR-PDL,,
217448,271577,hypsographic,"Rocher de la Cormorane","Rocher de la Cormorane",official,47.163662,-2.195495,FR-PDL,,
217389,271512,hydrographic,"Grand Rade de la Loire","Grand Rade de la Loire",official,47.133333,-2.416667,FR-000,,
217243,271353,hypsographic,"Roche des Fleurs","Roche des Fleurs",official,47.02,-2.113333,FR-000,,
217349,271470,hypsographic,"Grand Vé","Grand Ve",official,47.084167,-2.086667,FR-PDL,,
217342,271463,hypsographic,"Nor Aigu","Nor Aigu",official,47.079167,-2.084722,FR-PDL,,
217249,271359,hypsographic,"Pointe des Dames","Pointe des Dames",official,47.011163,-2.219167,FR-PDL,,
217244,271354,hydrographic,"Banc de Bourgneuf","Banc de Bourgneuf",official,47.025,-2.104167,FR-000,,
217298,271414,hydrographic,"Le Mauvaise","Le Mauvaise",official,47.067222,-2.091389,FR-000,,
217239,271348,hypsographic,L’Epronai,L'Epronai,official,47.003157,-2.103382,FR-000,,
217280,271392,hydrographic,"Basse des Pères","Basse des Peres",official,47.057803,-2.245694,FR-000,,
217293,271409,hypsographic,"Pierre du Chenal","Pierre du Chenal",official,47.07404,-2.125512,FR-PDL,,
217313,271431,hydrographic,"Le Grand Trou","Le Grand Trou",official,47.083333,-2.6,FR-000,,
217245,271355,hydrographic,"Chenal du Centre","Chenal du Centre",official,47.043056,-2.133333,FR-000,,
217456,271588,hydrographic,"Basse de l’Astrolabe","Basse de l'Astrolabe",official,47.17352,-2.559872,FR-000,,
217447,271576,hypsographic,"Pointe de la Pierre","Pointe de la Pierre",official,47.16,-2.196389,FR-PDL,,
217384,271507,hypsographic,"Pointe de Noëveillard","Pointe de Noeveillard",official,47.108889,-2.114444,FR-PDL,,
217276,271388,hypsographic,"La Servante","La Servante",official,47.048543,-2.357342,FR-PDL,,
217320,271438,hypsographic,"Nor Sauvage","Nor Sauvage",official,47.076389,-2.075,FR-PDL,,
217288,271404,hydrographic,"Chenal de la Pierre","Chenal de la Pierre",official,47.080207,-2.142092,FR-000,,
217438,271566,hydrographic,"Anse du Boucau","Anse du Boucau",official,47.138333,-2.241667,FR-PDL,,
217236,271344,hydrographic,Martroger,Martroger,official,47.037117,-2.285967,FR-PDL,,
218161,272818,hypsographic,"Roches de Cuy","Roches de Cuy",official,47.263136,-2.351019,FR-PDL,,
217676,272077,settlement,"La Noë","La Noe",official,47.265477,-1.967857,FR-PDL,,
218050,272698,hypsographic,"Les Oreaux","Les Oreaux",official,47.237778,-2.346667,FR-PDL,,
218191,272853,hydrographic,"Grande Rade","Grande Rade",official,47.264444,-2.204167,FR-000,,
218207,272873,settlement,Prézégat,Prezegat,official,47.289644,-2.219284,FR-PDL,,
218145,272801,settlement,"La Ville-ès-Babin","La Ville-es-Babin",official,47.25871,-2.311448,FR-PDL,,
218178,272837,settlement,"La Baule-les-Pins","La Baule-les-Pins",official,47.280334,-2.375426,FR-PDL,,
217781,272283,hydrographic,"Les Guérandaises","Les Guerandaises",official,47.249271,-2.390321,FR-000,,
218226,272901,settlement,"La Mabilais","La Mabilais",official,47.272622,-2.088412,FR-PDL,,
218189,272849,hypsographic,"Roches de Vila","Roches de Vila",official,47.258889,-2.172778,FR-PDL,,
217779,272279,hypsographic,"Pointe de Vicherie","Pointe de Vicherie",official,47.263889,-2.451667,FR-PDL,,
218158,272815,hypsographic,"Pointe du Bec","Pointe du Bec",official,47.257528,-2.342024,FR-PDL,,
217621,271936,hydrographic,"Banc de la Barre","Banc de la Barre",official,47.217453,-2.283803,FR-000,,
217702,272118,hydrographic,Goué-Vas-du-Four,Goue-Vas-du-Four,official,47.253952,-2.63647,FR-000,,
217599,271880,hydrographic,"Étang du Bois Joalland","Etang du Bois Joalland",official,47.278453,-2.254802,FR-PDL,,
218124,272776,settlement,Brancieux,Brancieux,official,47.247302,-2.2715,FR-PDL,,
217660,272053,settlement,"Le Pontreau","Le Pontreau",official,47.303098,-1.852341,FR-PDL,,
217630,271957,settlement,Hautgas,Hautgas,official,47.315439,-2.060873,FR-PDL,,
217945,272492,hydrographic,"Banc de Chémoulin","Banc de Chemoulin",official,47.234444,-2.289167,FR-000,,
218144,272800,settlement,"La Ville-ès-Blais","La Ville-es-Blais",official,47.262512,-2.298282,FR-PDL,,
217657,272049,settlement,"La Cheminandais","La Cheminandais",official,47.258333,-1.928492,FR-PDL,,
217703,272119,hydrographic,"Basse Raimbaud","Basse Raimbaud",official,47.283889,-2.627222,FR-000,,
218143,272799,settlement,Verdun,Verdun,official,47.250329,-2.286924,FR-PDL,,
217610,271897,hypsographic,"Pointe de Congrigoux","Pointe de Congrigoux",official,47.243107,-2.316935,FR-PDL,,
218048,272696,hypsographic,"Le Ronfle","Le Ronfle",official,47.230833,-2.345,FR-PDL,,
218037,272684,hypsographic,"La Vieille","La Vieille",official,47.234308,-2.324761,FR-PDL,,
218031,272677,hydrographic,"Banc du Petit Charpentier","Banc du Petit Charpentier",official,47.223889,-2.310556,FR-000,,
217926,272470,settlement,"La Hautière","La Hautiere",official,47.230563,-2.156766,FR-PDL,,
218228,272903,settlement,"La Pétolais","La Petolais",official,47.269883,-2.109999,FR-PDL,,
218030,272676,hypsographic,"Le Petit Charpentier","Le Petit Charpentier",official,47.22235,-2.315595,FR-PDL,,
218268,272947,settlement,"La Foucauderie","La Foucauderie",official,47.276429,-2.001666,FR-PDL,,
217776,272276,hydrographic,"Basse Lovre","Basse Lovre",official,47.267222,-2.491389,FR-000,,
217648,272030,hydrographic,"Ancien Canal Maritime de Basse Loire","Ancien Canal Maritime de Basse Loire",official,47.280501,-1.948589,FR-PDL,,
217646,272028,settlement,"Le Pé de Buzay","Le Pe de Buzay",official,47.203651,-1.816825,FR-PDL,,
217782,272284,hydrographic,"Basse Martineau","Basse Martineau",official,47.256944,-2.409444,FR-000,,
217680,272082,settlement,"La Verrière","La Verriere",official,47.277261,-2.016349,FR-PDL,,
218235,272913,park,"Port de Donges","Port de Donges",official,47.305595,-2.066548,FR-PDL,,
217710,272126,hydrographic,L’Inconnu,L'Inconnu,official,47.297628,-2.610802,FR-000,,
218131,272786,hydrographic,"Anse de Portcé","Anse de Portce",official,47.253889,-2.251667,FR-PDL,,
218195,272856,hydrographic,"Basse Nazaire","Basse Nazaire",official,47.273611,-2.189722,FR-000,,
217911,272441,hypsographic,"Rochers de la Roussellarie","Rochers de la Roussellarie",official,47.19413,-2.166365,FR-PDL,,
218137,272792,settlement,"La Vecquerie","La Vecquerie",official,47.255258,-2.266556,FR-PDL,,
217933,272480,hypsographic,"La Rougeole","La Rougeole",official,47.254394,-2.243025,FR-PDL,,
217707,272123,hydrographic,"Bonen du Four","Bonen du Four",official,47.305,-2.650278,FR-000,,
218197,272860,hypsographic,"Le Nez de Chien","Le Nez de Chien",official,47.267652,-2.17115,FR-PDL,,
218133,272788,settlement,Portcé,Portce,official,47.256111,-2.250556,FR-PDL,,
217780,272281,hydrographic,"Basse Noire","Basse Noire",official,47.250833,-2.433333,FR-000,,
218044,272691,hydrographic,"Passage du Ronfle","Passage du Ronfle",official,47.228889,-2.342778,FR-000,,
217767,272266,settlement,"Le Grand Vieil","Le Grand Vieil",official,47.022374,-2.250212,FR-PDL,,
217651,272040,settlement,"Le Migron","Le Migron",official,47.255359,-1.915992,FR-PDL,,
218175,272833,hypsographic,"Plage de la Baule","Plage de la Baule",official,47.269722,-2.35,FR-PDL,,
217777,272277,settlement,Kermoisan,Kermoisan,official,47.277547,-2.453023,FR-PDL,,
217705,272121,hydrographic,"Basse Broussard","Basse Broussard",official,47.291111,-2.617778,FR-000,,
217713,272130,hydrographic,"Basse Hikéric","Basse Hikeric",official,47.299332,-2.590892,FR-000,,
217645,272027,settlement,"La Bourdinière","La Bourdiniere",official,47.227599,-1.756168,FR-PDL,,
217640,272009,settlement,Tréveneuc,Treveneuc,official,47.324883,-2.104999,FR-PDL,,
217628,271946,hydrographic,"Banc des Brillantes","Banc des Brillantes",official,47.291663,-2.072155,FR-000,,
217622,271938,settlement,Vieux-Pornichet,Vieux-Pornichet,official,47.258599,-2.33755,FR-PDL,,
217923,272460,settlement,L’Ermitage,L'Ermitage,official,47.207797,-2.154363,FR-PDL,,
218156,272813,hydrographic,"La Chèvre","La Chevre",official,47.252778,-2.335278,FR-PDL,,
218034,272680,hydrographic,Longue-Folle,Longue-Folle,official,47.220833,-2.331667,FR-000,,
217766,272264,hypsographic,"Les Cohaux","Les Cohaux",official,47.165219,-2.203273,FR-PDL,,
217585,271796,hydrographic,"Baie du Pouliguen","Baie du Pouliguen",official,47.269529,-2.381191,FR-PDL,,
218041,272688,hypsographic,"Pierre Percée","Pierre Percee",official,47.223613,-2.343888,FR-PDL,,
218060,272708,hypsographic,"Plage Sainte-Marguerite","Plage Sainte-Marguerite",official,47.242778,-2.310556,FR-PDL,,
217642,272012,settlement,"La Croix de Méan","La Croix de Mean",official,47.302669,-2.191221,FR-PDL,,
218217,272888,hydrographic,"Basse de l’Imperlay","Basse de l'Imperlay",official,47.282222,-2.138611,FR-000,,
218216,272887,hypsographic,"Pointe de l’Imperlay","Pointe de l'Imperlay",official,47.274057,-2.132054,FR-PDL,,
218264,272943,settlement,"La Cannelais","La Cannelais",official,47.273849,-2.008413,FR-PDL,,
217662,272056,settlement,Merlet,Merlet,official,47.31258,-1.865635,FR-PDL,,
218138,272793,settlement,Henleix,Henleix,official,47.262076,-2.268459,FR-PDL,,
218141,272796,settlement,"L’Étoile du Matin","L'Etoile du Matin",official,47.257739,-2.274818,FR-PDL,,
217650,272038,settlement,"La Peille","La Peille",official,47.276827,-1.859285,FR-PDL,,
217916,272449,hypsographic,"Roches de la Banche","Roches de la Banche",official,47.204722,-2.158889,FR-PDL,,
217928,272472,settlement,"Le Pointeau","Le Pointeau",official,47.235,-2.175,FR-PDL,,
217943,272490,hydrographic,"Banc de Saint-Marc","Banc de Saint-Marc",official,47.232977,-2.28345,FR-000,,
217644,272023,settlement,"La Martinière","La Martiniere",official,47.204864,-1.777368,FR-PDL,,
217599,271837,hydrographic,"Étang du Bois Jolland","Etang du Bois Jolland",variant,47.278453,-2.254802,FR-PDL,,
218211,272876,settlement,Herbins,Herbins,official,47.289762,-2.204761,FR-PDL,,
218032,272678,hydrographic,"Le Caillou","Le Caillou",official,47.2275,-2.318056,FR-000,,
218213,272882,settlement,"La Grande Ville","La Grande Ville",official,47.264046,-2.13722,FR-PDL,,
217775,272275,hypsographic,"Pointe du Fort","Pointe du Fort",official,47.280833,-2.503333,FR-PDL,,
217629,271949,hypsographic,"Île Saint-Nicolas","Ile Saint-Nicolas",official,47.28008,-2.107777,FR-PDL,,
217627,271943,hydrographic,"Banc de Bilho","Banc de Bilho",official,47.290965,-2.126326,FR-000,,
217764,272262,hypsographic,L’Îlot,L'Ilot,official,47.148611,-2.241667,FR-PDL,,
218028,272673,hypsographic,"Pointe du Jonay","Pointe du Jonay",official,47.238333,-2.305556,FR-PDL,,
217765,272263,hypsographic,Tara,Tara,official,47.160556,-2.220556,FR-PDL,,
217773,272273,hydrographic,"Basse Glozin","Basse Glozin",official,47.3125,-2.553333,FR-000,,
217935,272482,settlement,Plaisance,Plaisance,official,47.266538,-2.237073,FR-PDL,,
217647,272029,settlement,Buzay,Buzay,official,47.207261,-1.826309,FR-PDL,,
217670,272069,settlement,Bellevue,Bellevue,official,47.25377,-1.947024,FR-PDL,,
217643,272015,settlement,Penhoët,Penhoet,official,47.295783,-2.191884,FR-PDL,,
218055,272703,hypsographic,"Les Fromentières","Les Fromentieres",official,47.237392,-2.329821,FR-PDL,,
218154,272810,settlement,Rangrais,Rangrais,official,47.247162,-2.304063,FR-PDL,,
217641,272011,settlement,"La Menée Lambourg","La Menee Lambourg",official,47.306667,-2.1875,FR-PDL,,
217658,272050,settlement,"La Roche","La Roche",official,47.259566,-1.918294,FR-PDL,,
217654,272044,settlement,"La Fontaine","La Fontaine",official,47.311747,-1.981865,FR-PDL,,
217617,271931,hydrographic,"Banc du Pointeau","Banc du Pointeau",official,47.223214,-2.186902,FR-000,,
218200,272863,settlement,"La Croix","La Croix",official,47.251117,-2.138403,FR-PDL,,
217924,272466,settlement,Neuvillette,Neuvillette,official,47.223181,-2.165526,FR-PDL,,
218202,272865,settlement,"Le Plessis","Le Plessis",official,47.254332,-2.145593,FR-PDL,,
218179,272838,settlement,Mazy,Mazy,official,47.273663,-2.355306,FR-PDL,,
217613,271906,settlement,Sainte-Marguerite,Sainte-Marguerite,official,47.277778,-2.308333,FR-PDL,,
217913,272444,hypsographic,"Les Malfiches","Les Malfiches",official,47.200508,-2.174325,FR-PDL,,
217700,272116,hydrographic,"Banc de Guérande","Banc de Guerande",official,47.214394,-2.677335,FR-000,,
217931,272476,hypsographic,"Roches des Rochelets","Roches des Rochelets",official,47.215814,-2.170674,FR-PDL,,
218231,272908,settlement,"Le Potangis","Le Potangis",official,47.27024,-2.060119,FR-PDL,,
218295,272976,settlement,"La Corbinais","La Corbinais",official,47.266389,-1.990158,FR-PDL,,
217653,272043,settlement,"La Ternais","La Ternais",official,47.254008,-1.98722,FR-PDL,,
217774,272274,hydrographic,"Basse Ruelle","Basse Ruelle",official,47.3125,-2.542222,FR-000,,
217915,272448,settlement,"Le Menhir","Le Menhir",official,47.204641,-2.145379,FR-PDL,,
218187,272847,hypsographic,"Rocher de Bourg","Rocher de Bourg",official,47.248333,-2.171389,FR-PDL,,
218146,272802,settlement,Saint-Sébastien,Saint-Sebastien,official,47.25533,-2.319256,FR-PDL,,
217929,272474,hypsographic,"Le Grand Rang","Le Grand Rang",official,47.239741,-2.181586,FR-PDL,,
217927,272471,settlement,"Le Fief","Le Fief",official,47.232274,-2.16496,FR-PDL,,
218135,272790,settlement,"Le Grand Gavy","Le Grand Gavy",official,47.256993,-2.258727,FR-PDL,,
218166,272824,hypsographic,"Roche Doloire","Roche Doloire",official,47.26,-2.343056,FR-PDL,,
218204,272868,hypsographic,"Le Grand Tourteau","Le Grand Tourteau",official,47.288889,-2.178056,FR-PDL,,
217618,271932,settlement,"Les Rochelets","Les Rochelets",official,47.21771,-2.158333,FR-PDL,,
217614,271922,hydrographic,"Banc des Morées","Banc des Morees",official,47.234047,-2.23952,FR-000,,
217771,272271,hydrographic,"Basse Castouillet","Basse Castouillet",official,47.304087,-2.543292,FR-000,,
218181,272841,hypsographic,"Grande Jument","Grande Jument",official,47.272342,-2.361725,FR-PDL,,
217938,272485,hydrographic,"Chenal de Bonne-Anse","Chenal de Bonne-Anse",official,47.231381,-2.265229,FR-000,,
218129,272784,hydrographic,"Anse de Trébézy","Anse de Trebezy",official,47.25,-2.256389,FR-PDL,,
218297,272979,settlement,"La Babinais","La Babinais",official,47.308612,-1.903928,FR-PDL,,
217941,272488,hypsographic,"Plage de la Courance","Plage de la Courance",official,47.241111,-2.270833,FR-PDL,,
218028,272674,hypsographic,"Pointe de Jonay","Pointe de Jonay",variant,47.238333,-2.305556,FR-PDL,,
218127,272781,settlement,"Le Petit Gavy","Le Petit Gavy",official,47.250675,-2.259416,FR-PDL,,
217925,272469,settlement,"Le Quatretais","Le Quatretais",official,47.224495,-2.148492,FR-PDL,,
217924,272467,settlement,"La Neuvillette","La Neuvillette",variant,47.223181,-2.165526,FR-PDL,,
218183,272843,hypsographic,"Petite Jument","Petite Jument",official,47.270854,-2.360485,FR-PDL,,
218035,272681,hydrographic,"Basse de la Vieille","Basse de la Vieille",official,47.230556,-2.325278,FR-000,,
217932,272479,hydrographic,"Bonne Anse","Bonne Anse",official,47.256389,-2.245833,FR-PDL,,
218219,272892,hypsographic,"Roches Alluard","Roches Alluard",official,47.285,-2.081389,FR-000,,
218218,272889,hypsographic,"Basse Meyner","Basse Meyner",official,47.285278,-2.136944,FR-000,,
218171,272829,settlement,"Le Guézy","Le Guezy",official,47.271389,-2.335775,FR-PDL,,
217785,272287,hydrographic,"Basse Saint-François","Basse Saint-Francois",official,47.270833,-2.377778,FR-000,,
217699,272114,hydrographic,"Basse Michaud","Basse Michaud",official,47.219904,-2.581934,FR-000,,
218128,272782,hypsographic,"Roche Trébézy","Roche Trebezy",official,47.246667,-2.253056,FR-PDL,,
219765,275425,hypsographic,"Île Chevalier","Ile Chevalier",official,47.304447,-1.999643,FR-PDL,,
220689,276640,hydrographic,"Bassure de Baas","Bassure de Baas",official,50.6,1.516667,FR-HDF,,
220047,275757,settlement,"La Chabossière","La Chabossiere",official,47.215566,-1.683227,FR-PDL,,
219825,275495,settlement,"Le Grand Chemin","Le Grand Chemin",official,47.196587,-1.782579,FR-PDL,,
219800,275464,hypsographic,"Île Sardine","Ile Sardine",official,47.233333,-1.583333,FR-PDL,,
219776,275437,settlement,"La Bazillais","La Bazillais",official,47.296549,-1.890198,FR-PDL,,
220031,275739,hydrographic,"La Petite Rivière","La Petite Riviere",official,47.202909,-1.744266,FR-PDL,,
220039,275747,hypsographic,"Île Pivin","Ile Pivin",official,47.20367,-1.709695,FR-PDL,,
219803,275468,hydrographic,"Gabon de la Maréchale","Gabon de la Marechale",official,47.278452,-1.921032,FR-PDL,,
219801,275465,hypsographic,"Île Nouvelle","Ile Nouvelle",official,47.25,-1.6,FR-PDL,,
220013,275721,settlement,"Le Port-Launay","Le Port-Launay",official,47.21218,-1.743864,FR-PDL,,
219781,275442,hydrographic,"Canal du Marais de la Roche","Canal du Marais de la Roche",official,47.295198,-1.880119,FR-PDL,,
219808,275474,hypsographic,"Île de Bois","Ile de Bois",official,47.210357,-1.805318,FR-PDL,,
219763,275423,hypsographic,"Île de Pierre Rouge","Ile de Pierre Rouge",official,47.294998,-1.975,FR-PDL,,
219789,275452,hydrographic,"Bras de Cordemais","Bras de Cordemais",official,47.283056,-1.896667,FR-PDL,,
219786,275448,hydrographic,"Étier de la Coquerais","Etier de la Coquerais",official,47.284167,-1.905873,FR-PDL,,
219773,275434,settlement,"La Basse Bignonnais","La Basse Bignonnais",official,47.298302,-1.899503,FR-PDL,,
220057,275767,settlement,Saint-Jacques,Saint-Jacques,official,47.194042,-1.536188,FR-PDL,,
219815,275483,hydrographic,"Canal de Buzay","Canal de Buzay",official,47.194409,-1.852883,FR-PDL,,
220055,275765,hydrographic,"Bras de la Madeleine","Bras de la Madeleine",official,47.2,-1.566667,FR-PDL,,
219767,275427,hydrographic,"Bras du Migron","Bras du Migron",official,47.280359,-1.983701,FR-PDL,,
222740,279732,hypsographic,"Mont d’Hubert","Mont d'Hubert",official,50.923081,1.726909,FR-HDF,,
221783,278252,hypsographic,"La Catis","La Catis",official,48.7,-2.25,FR-BRE,,
221782,278251,hypsographic,"Amas du Cap","Amas du Cap",short,48.686945,-2.329789,FR-BRE,,
222717,279697,settlement,Urville,Urville,official,49.683333,-1.733333,FR-NOR,,
221882,278377,undersea,"Fosse de la Hague","Fosse de la Hague",official,49.766667,-1.933333,FR-000,,
226963,285800,settlement,Lilia,Lilia,official,48.618832,-4.554331,FR-BRE,,
226977,285818,hydrographic,"Anse de Kernic","Anse de Kernic",official,48.652776,-4.21333,FR-BRE,,
236207,297690,hydrographic,Quemer,Quemer,official,50.266667,1.466667,FR-000,,
233833,294408,hydrographic,"Basses Sant Egareg","Basses Sant Egareg",variant,48.678333,-4.4,FR-BRE,,
233819,294391,hypsographic,"Baz Huella","Baz Huella",official,48.43725,-4.995996,FR-BRE,,
233773,294324,hydrographic,"Roche Occidentale","Roche Occidentale",official,48.05,-5.066667,FR-BRE,,
233756,294292,hydrographic,"Kougou Ruz","Kougou Ruz",official,47.916667,-4.533333,FR-BRE,,
233822,294393,hydrographic,"Basse Luronne","Basse Luronne",official,48.445055,-4.895883,FR-BRE,,
233826,294400,hydrographic,"Basse Saint-Charles","Basse Saint-Charles",official,48.463333,-4.894722,FR-BRE,,
233827,294401,hydrographic,"Basse Boureau","Basse Boureau",official,48.5225,-4.825,FR-BRE,,
233847,294431,hydrographic,"Basse d’ar Brézel","Basse d'ar Brezel",official,48.686227,-4.30055,FR-BRE,,
233823,294394,hydrographic,"Basse Talarmin","Basse Talarmin",official,48.452778,-4.861389,FR-BRE,,
233854,294444,hydrographic,Queyn-Cos,Queyn-Cos,variant,48.7,-4.233333,FR-BRE,,
233854,294443,hydrographic,"Kein Koz","Kein Koz",variant,48.7,-4.233333,FR-BRE,,
233847,294430,hydrographic,"Basse ar Brézel","Basse ar Brezel",variant,48.686227,-4.30055,FR-BRE,,
233818,294388,hydrographic,"Basse Penn Glok","Basse Penn Glok",variant,48.443056,-4.993333,FR-BRE,,
233818,294387,hydrographic,"Baz Penn Glok","Baz Penn Glok",official,48.443056,-4.993333,FR-BRE,,
233813,294379,hypsographic,"Chaussée de Keller","Chaussee de Keller",official,48.479835,-5.116667,FR-BRE,,
233815,294381,hydrographic,"Baz Kalet","Baz Kalet",official,48.483333,-5.132778,FR-BRE,,
233753,294288,hydrographic,"Karreg Stign","Karreg Stign",official,47.883333,-4.516667,FR-BRE,,
233757,294293,hydrographic,"Ravazenn Goz","Ravazenn Goz",official,47.916667,-4.583333,FR-BRE,,
233815,294382,hydrographic,"Basse Callet","Basse Callet",variant,48.483333,-5.132778,FR-BRE,,
233845,294429,hydrographic,"Basse Toullcos","Basse Toullcos",variant,48.689444,-4.320556,FR-BRE,,
233796,294361,hydrographic,"Basse du Laborieux","Basse du Laborieux",official,48.198889,-4.833333,FR-BRE,,
233854,294442,hydrographic,Qeyn-Cos,Qeyn-Cos,official,48.7,-4.233333,FR-BRE,,
233804,294370,hydrographic,"Basse ar Mel Bihan","Basse ar Mel Bihan",variant,48.4,-5.033333,FR-BRE,,
233845,294427,hydrographic,"Basse Toullcoz","Basse Toullcoz",official,48.689444,-4.320556,FR-BRE,,
233803,294368,hypsographic,"Chaussée des Pierres Vertes","Chaussee des Pierres Vertes",official,48.395159,-5.028253,FR-BRE,,
233790,294353,hydrographic,"La Lieue de Grève","La Lieue de Greve",official,48.183333,-4.3,FR-BRE,,
233804,294369,hydrographic,"Baz ar Melle Bihan","Baz ar Melle Bihan",official,48.4,-5.033333,FR-BRE,,
233825,294399,hydrographic,"Basse Saint-Louis","Basse Saint-Louis",official,48.460556,-4.873333,FR-BRE,,
233784,294345,hypsographic,"Pointe du Milier","Pointe du Milier",official,48.098751,-4.46549,FR-BRE,,
233824,294396,hydrographic,"La Valbelle","La Valbelle",official,48.4425,-4.83,FR-BRE,,
233847,294433,hydrographic,"Ar Brezel","Ar Brezel",variant,48.686227,-4.30055,FR-BRE,,
233853,294440,hydrographic,Trebeziou,Trebeziou,variant,48.683333,-4.233333,FR-BRE,,
233853,294441,hydrographic,Trébéjou,Trebejou,official,48.683333,-4.233333,FR-BRE,,
233819,294389,hypsographic,"Basse Uhola","Basse Uhola",variant,48.43725,-4.995996,FR-BRE,,
233852,294439,hypsographic,Mouzerèz,Mouzerez,official,48.680833,-4.253889,FR-BRE,,
233751,294286,hydrographic,"Ar Bronnou","Ar Bronnou",official,47.866667,-4.5,FR-BRE,,
233833,294407,hydrographic,"Basses Saint-Égarec","Basses Saint-Egarec",official,48.678333,-4.4,FR-BRE,,
236226,297719,spot,"Domaine du Marquenterre","Domaine du Marquenterre",official,50.274125,1.559577,FR-HDF,,
236220,297709,hypsographic,"Falaises d’Aval","Falaises d'Aval",short,49.872361,0.704604,FR-NOR,,
236181,297652,hydrographic,"Ridins de Dieppe","Ridins de Dieppe",official,50.1,1.1,FR-000,,
236150,297609,hypsographic,"Pointe du Chicard","Pointe du Chicard",official,49.74283,0.305882,FR-NOR,,
236226,297722,spot,"Domaine Marquenterre","Domaine Marquenterre",variant,50.274125,1.559577,FR-HDF,,
236175,297644,hydrographic,"Ridins de Neuvillette","Ridins de Neuvillette",official,50.016667,1.233333,FR-000,,
236158,297619,settlement,Conteville,Conteville,official,49.849255,0.629658,FR-NOR,,
236164,297627,hypsographic,"Pointe de Sotteville","Pointe de Sotteville",short,49.883333,0.816667,FR-NOR,,
236154,297614,hypsographic,"Cap Fagnet","Cap Fagnet",official,49.766135,0.36586,FR-NOR,,
236170,297635,hydrographic,"Roches d’Ailly","Roches d'Ailly",short,49.916667,0.966667,FR-NOR,,
321001,399421,hydrographic,"Bassin Long","Bassin Long",official,47.730833,-3.366111,FR-BRE,,
321018,399443,settlement,"Le Bonhomme","Le Bonhomme",official,47.765568,-3.297145,FR-BRE,,
320975,399382,hydrographic,"Anse Zanflamme","Anse Zanflamme",official,47.721389,-3.370556,FR-BRE,,
320971,399376,park,"Port Maria","Port Maria",official,47.706111,-3.379167,FR-BRE,,
320979,399387,settlement,Stervin,Stervin,official,47.709311,-3.321883,FR-BRE,,
320972,399377,park,"Le Petit Port","Le Petit Port",official,47.7075,-3.380278,FR-BRE,,
320969,399374,settlement,Pen-Palud,Pen-Palud,official,47.707309,-3.422058,FR-BRE,,
320995,399411,hydrographic,"Anse du Ter","Anse du Ter",official,47.725833,-3.372222,FR-BRE,,
321014,399438,settlement,Kergatamignan,Kergatamignan,variant,47.744525,-3.303572,FR-BRE,,
320977,399384,settlement,Kersahu,Kersahu,official,47.701226,-3.325499,FR-BRE,,
320999,399417,settlement,Kéroman,Keroman,official,47.734722,-3.3675,FR-BRE,,
320968,399373,spot,"Fort de Locqueltas","Fort de Locqueltas",official,47.702778,-3.386389,FR-BRE,,
321014,399437,settlement,Kergatavignan,Kergatavignan,official,47.744525,-3.303572,FR-BRE,,
321009,399431,settlement,Kervern,Kervern,official,47.732935,-3.323807,FR-BRE,,
321011,399433,settlement,Sterbouest,Sterbouest,official,47.742484,-3.314489,FR-BRE,,
320985,399395,park,"Les Patis","Les Patis",official,47.71,-3.359444,FR-BRE,,
320996,399412,hydrographic,"Étang du Ter","Etang du Ter",official,47.716667,-3.383333,FR-BRE,,
320976,399383,hydrographic,"Grand Belorc’h","Grand Belorc'h",official,47.702778,-3.348333,FR-BRE,,
321006,399428,settlement,"Le Cosquer","Le Cosquer",official,47.747959,-3.331654,FR-BRE,,
320966,399371,settlement,Kerguélen,Kerguelen,official,47.707779,-3.401667,FR-BRE,,
320983,399393,hydrographic,"Plature de Kernével","Plature de Kernevel",official,47.715833,-3.362778,FR-BRE,,
321005,399427,hypsographic,Beg-er-Men,Beg-er-Men,official,47.742399,-3.332053,FR-BRE,,
321012,399435,settlement,Stervil,Stervil,official,47.74242,-3.308715,FR-BRE,,
321010,399432,settlement,Lannic,Lannic,official,47.735291,-3.317909,FR-BRE,,
321000,399419,hydrographic,"Grand Bassin","Grand Bassin",official,47.729167,-3.361944,FR-BRE,,
320974,399380,spot,"Villa Margaret Amirauté","Villa Margaret Amiraute",official,47.718611,-3.3675,FR-BRE,,
320978,399386,settlement,"Les Salles","Les Salles",official,47.705304,-3.321488,FR-BRE,,
320981,399390,park,"Port de la Pointe","Port de la Pointe",official,47.711389,-3.354167,FR-BRE,,
320982,399392,hydrographic,"Basse de l’Amirel","Basse de l'Amirel",official,47.713056,-3.363056,FR-BRE,,
321008,399430,hydrographic,"Rivière du Plessis","Riviere du Plessis",official,47.75,-3.316667,FR-BRE,,
321007,399429,settlement,Locunel,Locunel,official,47.756944,-3.327222,FR-BRE,,
321013,399436,settlement,Kerbadel,Kerbadel,official,47.746667,-3.309167,FR-BRE,,
321019,399444,settlement,Tal-ar-Mor,Tal-ar-Mor,official,47.767247,-3.295847,FR-BRE,,
320994,399410,spot,"Barrage de Kermélo","Barrage de Kermelo",official,47.732778,-3.384167,FR-BRE,,
321015,399440,settlement,Saint-Sterlin,Saint-Sterlin,official,47.752572,-3.293216,FR-BRE,,
321078,399519,settlement,Locguénolé,Locguenole,variant,47.769252,-3.283183,FR-BRE,,
321083,399530,settlement,Belann,Belann,official,47.76318,-3.313825,FR-BRE,,
321597,400120,hydrographic,"Le Périquier","Le Periquier",official,43.4225,6.867778,FR-PAC,,
321098,399554,settlement,"Le Hingair","Le Hingair",official,47.775455,-3.278667,FR-BRE,,
321080,399522,settlement,Toul-Bahado,Toul-Bahado,official,47.758889,-3.318611,FR-BRE,,
321088,399538,settlement,"Le Resto","Le Resto",official,47.778624,-3.292811,FR-BRE,,
321087,399537,settlement,"Le Ruzo","Le Ruzo",official,47.778542,-3.297926,FR-BRE,,
321093,399545,settlement,Ty-Mor,Ty-Mor,official,47.793689,-3.284217,FR-BRE,,
321085,399534,settlement,"Le Mané","Le Mane",official,47.765293,-3.310333,FR-BRE,,
321096,399551,settlement,Haut-Locoyarn,Haut-Locoyarn,official,47.786435,-3.281326,FR-BRE,,
321099,399557,hydrographic,"Palud de Locoyarn","Palud de Locoyarn",official,47.791667,-3.283333,FR-BRE,,
321091,399543,settlement,Kermen,Kermen,official,47.786111,-3.3,FR-BRE,,
321078,399520,settlement,Locunolay,Locunolay,official,47.769252,-3.283183,FR-BRE,,
321090,399540,hypsographic,"Le Rocher du Diable","Le Rocher du Diable",official,47.783889,-3.289722,FR-BRE,,
321086,399536,hypsographic,"Pointe de Beger Vil","Pointe de Beger Vil",official,47.772222,-3.295,FR-BRE,,
321082,399524,settlement,Pen-Mané,Pen-Mane,official,47.761689,-3.315183,FR-BRE,,
321084,399533,settlement,Kermorvan,Kermorvan,official,47.765138,-3.313625,FR-BRE,,
321100,399563,settlement,Tréfaven,Trefaven,official,47.765807,-3.367374,FR-BRE,,
321081,399523,settlement,Saint-Guénaël,Saint-Guenael,official,47.759282,-3.319589,FR-BRE,,
321089,399539,settlement,"Le Petit Resto","Le Petit Resto",official,47.7775,-3.294444,FR-BRE,,
321092,399544,settlement,Saint-Nudec,Saint-Nudec,official,47.791698,-3.299087,FR-BRE,,
321097,399553,settlement,Bas-Locoyarn,Bas-Locoyarn,official,47.784506,-3.278284,FR-BRE,,
321094,399547,settlement,Saint-Caradec,Saint-Caradec,official,47.806221,-3.28335,FR-BRE,,
343314,426578,spot,"Quai de Flandre","Quai de Flandre",official,51.013508,2.182365,FR-HDF,,
342261,425282,spot,"Colonne de la Grande Armée","Colonne de la Grande Armee",official,50.741304,1.617733,FR-HDF,,
343322,426588,spot,"Jetée du Dyck","Jetee du Dyck",official,51.036058,2.157047,FR-HDF,,
343474,426784,hydrographic,"Bassin de l’Ouest","Bassin de l'Ouest",official,50.961389,1.845,FR-HDF,,
343445,426748,hypsographic,"Dunes de Fort-Mahon","Dunes de Fort-Mahon",variant,50.95805,1.801998,FR-HDF,,
342367,425424,park,"Cité de Terlincthun","Cite de Terlincthun",official,50.741944,1.613889,FR-HDF,,
342351,425407,hydrographic,"Darse Sarraz-Bournet","Darse Sarraz-Bournet",official,50.722816,1.569848,FR-HDF,,
342369,425426,settlement,Terlincthun,Terlincthun,official,50.746328,1.607415,FR-HDF,,
342348,425404,hydrographic,"Rade Carnot","Rade Carnot",official,50.733333,1.566667,FR-HDF,,
342292,425337,settlement,Noirval,Noirval,official,50.713611,1.589702,FR-HDF,,
343428,426714,spot,"Quai des Monitors","Quai des Monitors",official,51.0475,2.370278,FR-HDF,,
343484,426796,spot,"Écluse Carnot","Ecluse Carnot",official,50.964444,1.857778,FR-HDF,,
342919,431376,spot,"Écluse Wattier","Ecluse Wattier",variant,51.050574,2.344324,FR-HDF,,
343341,426610,hydrographic,"Dyck Central","Dyck Central",official,51.1,2.166667,FR-000,,
342366,425423,park,"Cité Beaurepaire","Cite Beaurepaire",official,50.737778,1.618611,FR-HDF,,
343489,426801,settlement,"Le Chalet Beutin","Le Chalet Beutin",official,50.970354,1.912709,FR-HDF,,
343350,426620,settlement,"Cité Bayard","Cite Bayard",official,51.030148,2.325246,FR-HDF,,
343440,426742,park,"Cité Canadienne","Cite Canadienne",official,50.956389,1.817222,FR-HDF,,
343543,426893,settlement,"Le Croquelet","Le Croquelet",official,50.61884,1.63291,FR-HDF,,
343462,426769,hydrographic,"Canal des Crabes","Canal des Crabes",official,50.947339,1.819864,FR-HDF,,
343433,426730,spot,"Ferme Jehannot","Ferme Jehannot",variant,50.953621,1.791092,FR-HDF,,
343480,426790,hydrographic,"Bassin du Petit-Paradis","Bassin du Petit-Paradis",official,50.962222,1.850833,FR-HDF,,
343324,426590,spot,"Jetée du Clipon","Jetee du Clipon",official,51.041995,2.177074,FR-HDF,,
342370,425428,spot,"Le Moulin Wibert","Le Moulin Wibert",official,50.742756,1.598394,FR-HDF,,
342363,425420,park,"Cité du Chemin Vert Deux","Cite du Chemin Vert Deux",official,50.737778,1.611944,FR-HDF,,
342353,425409,hypsographic,"Plage des Bains","Plage des Bains",official,50.733333,1.583333,FR-HDF,,
342307,425354,park,"Cité de la Gare","Cite de la Gare",official,50.708333,1.587778,FR-HDF,,
342400,425464,settlement,"Le Pont Pitendal","Le Pont Pitendal",official,50.709444,1.615278,FR-HDF,,
343410,426693,spot,"Quai aux Bois","Quai aux Bois",official,51.046111,2.360556,FR-HDF,,
343318,426583,spot,"Appontement Pétrolier des Flandres","Appontement Petrolier des Flandres",official,51.030833,2.156944,FR-HDF,,
343382,426660,spot,"Quai de Goole","Quai de Goole",official,51.035833,2.369444,FR-HDF,,
342294,425339,settlement,Capecure,Capecure,official,50.720833,1.596667,FR-HDF,,
342257,425268,hypsographic,"Mont Soleil","Mont Soleil",official,50.702557,1.581994,FR-HDF,,
343406,426689,hydrographic,"Bassin du Commerce","Bassin du Commerce",official,51.038889,2.375,FR-HDF,,
