wgdPlaceId,wgdId,type,name,fullName,nameType,latitude,longitude,administrationGroup,isHistorical,isCapital
-2273211,-3136754,settlement,Pol,Pol,official,14.95,-15.816667,SN-DB,,
-2272750,-3136152,spot,Ogo,Ogo,official,14.75,-15.05,SN-LG,,
-2268102,-3129819,settlement,Gaé,Gae,official,16.566667,-15.45,SN-SL,,
-2272310,-3135490,settlement,Ngabou,Ngabou,official,14.793112,-12.670085,SN-MT,,
-2267927,218091,settlement,Fas,Fas,official,14.690108,-17.454011,SN-DK,,
-2273256,-3136819,settlement,Poutou,Poutou,official,14.7,-17.433333,SN-DK,,
-2269100,-3131247,settlement,Kariaye,Kariaye,official,12.958056,-16.519167,SN-ZG,,
-2265476,-3126165,settlement,Bal,Bal,variant,15.05,-16.933333,SN-TH,,
-2272774,-3136184,settlement,Ouada,Ouada,official,14.666667,-16.033333,SN-DB,,
-2265767,-3126618,settlement,Bayakh,Bayakh,official,15.633333,-16.216667,SN-LG,,
-2271620,-3134549,settlement,Moundé,Mounde,official,13.95,-16.65,SN-FK,,
-2272496,-3135780,hydrographic,Nguèr,Nguer,official,14.866667,-14.883333,SN-LG,,
-2271717,-3134668,settlement,Narga,Narga,official,14.35,-15.883333,SN-FK,,
-2269039,-3131166,settlement,Kansata,Kansata,official,13.066667,-14.016667,SN-KD,,
-2273094,-3136609,settlement,Patar,Patar,official,14.7,-16.15,SN-DB,,
-2268064,-3129762,park,Fourou,Fourou,short,13.183333,-13.316667,SN-TC,,
-2266612,-3127808,settlement,Darou,Darou,official,14.933333,-16.05,SN-DB,,
-2270337,-3132844,settlement,Kouring,Kouring,official,12.436667,-16.380556,SN-ZG,,
-2270220,-3132694,settlement,Koukari,Koukari,official,13.766667,-13.716667,SN-TC,,
-2269993,-3140155,settlement,Tüss,Tuss,variant,15.333333,-16.216667,SN-LG,,
-2267326,-3128778,settlement,Dilié,Dilie,official,14.033333,-15.8,SN-KL,,
-2269101,-3131250,settlement,Karonko,Karonko,official,12.55,-16.183333,SN-ZG,,
-2266166,-3127134,spot,Boni,Boni,official,15.9564,-14.7911,SN-SL,,
-2271090,-3133831,settlement,Massara,Massara,official,12.733333,-14.783333,SN-KD,,
-2270215,-3132688,settlement,Kougne,Kougne,official,12.496667,-15.608889,SN-SE,,
-2270916,-3133530,settlement,Maka,Maka,variant,15.183333,-16.8,SN-TH,,
-2265593,-3126393,settlement,Bani,Bani,official,12.507222,-15.733611,SN-SE,,
-2270219,-3132692,hydrographic,Koukadi,Koukadi,official,14.633333,-14.583333,SN-LG,,
-2271719,-3134670,settlement,Narga,Narga,official,14.816667,-15.8,SN-DB,,
-2271716,-3134667,spot,Narél,Narel,official,15.822704,-13.362607,SN-MT,,
-2266867,-3128131,settlement,Diabel,Diabel,official,14.533333,-16.133333,SN-FK,,
-2272972,-3136443,spot,Païlar,Pailar,official,14.533333,-15.083333,SN-KA,,
-2270216,-3132689,settlement,Kouïnar,Kouinar,official,14.85,-15.683333,SN-DB,,
-2271245,-3134043,spot,Mbédo,Mbedo,official,16.338896,-14.436631,SN-SL,,
-2271091,-3133832,settlement,Massara,Massara,official,15.1111,-15.9518,SN-LG,,
-2270257,-3132743,hydrographic,Koumane,Koumane,official,14.916667,-15.2,SN-LG,,
-2268772,-3130811,settlement,Ka,Ka,official,14.916667,-16.75,SN-TH,,
-2271579,-3134496,hydrographic,Mongole,Mongole,short,12.833333,-13,SN-KE,,
-2271766,-3134748,settlement,Ndam,Ndam,official,15,-16.033333,SN-LG,,
-2265300,-3125990,settlement,Badiat,Badiat,official,12.518056,-16.385278,SN-ZG,,
-2268320,-3130135,settlement,Gomone,Gomone,official,14.266667,-16.133333,SN-KL,,
-2266615,-3127816,settlement,Darou,Darou,official,15.3,-16.333333,SN-TH,,
-2270221,-3132695,settlement,Koukoma,Koukoma,official,13.624293,-12.082189,SN-TC,,
-2272244,-3135413,settlement,Ndouli,Ndouli,official,15.266,-15.4556,SN-LG,,
-2270190,-3132661,settlement,Kouak,Kouak,official,14.016667,-16.183333,SN-KL,,
-2272973,-3136446,settlement,Païpaï,Paipai,official,14.8,-16.25,SN-DB,,
-2265187,-3125847,settlement,Anisse,Anisse,short,12.566389,-15.731944,SN-SE,,
-2266611,-3127807,settlement,Darou,Darou,official,14.916667,-16.4,SN-DB,,
-2270191,-3132662,settlement,Kouaré,Kouare,official,13.833333,-15.933333,SN-KL,,
-2271398,-3134245,settlement,Mbram,Mbram,official,14.966667,-15.95,SN-DB,,
-2272359,-3135571,hydrographic,Ngari,Ngari,official,15.0698,-15.6111,SN-LG,,
-2268773,-3130812,settlement,Kaba,Kaba,official,13.8,-14.8,SN-KA,,
-2266613,-3127810,settlement,Darou,Darou,official,15.05,-16.683333,SN-TH,,
-2267429,-3128922,settlement,Diom,Diom,official,15.016667,-16.05,SN-LG,,
-2268913,-3131000,settlement,Kalom,Kalom,official,13.85,-14.283333,SN-TC,,
-2267429,-3128718,settlement,Dième,Dieme,variant,15.016667,-16.05,SN-LG,,
-2270611,-3133187,settlement,Lonbol,Lonbol,official,14.724334,-12.554349,SN-TC,,
-2272309,-3135489,settlement,Ngabou,Ngabou,official,14.783333,-15.983333,SN-DB,,
-2271720,-3134671,settlement,Nass,Nass,official,15.116667,-16.85,SN-TH,,
-2267836,-3129466,settlement,Etomé,Etome,official,12.475278,-16.363889,SN-ZG,,
-2267771,-3129386,settlement,Ebato,Ebato,official,13,-16.333333,SN-ZG,,
-2271089,-3133830,settlement,Massar,Massar,official,15.966667,-16.333333,SN-SL,,
-2265594,-3126395,settlement,Bani,Bani,official,12.844167,-15.423056,SN-SE,,
-2270610,-3133186,settlement,Lonbi,Lonbi,official,14.14585,-12.287512,SN-TC,,
-2269041,-3131168,settlement,Kantar,Kantar,official,13.8,-14.75,SN-KA,,
-2272752,-3136154,settlement,Ogo,Ogo,official,15.551633,-13.296827,SN-MT,,
-2271839,-3134901,settlement,Ndiah,Ndiah,variant,14.866667,-16.116667,SN-DB,,
-2266614,-3127813,settlement,Darou,Darou,official,15.15,-16.316667,SN-TH,,
-2266776,-3128004,spot,Debi,Debi,short,16.45,-16.283333,SN-SL,,
-2265592,-3126392,settlement,Banhar,Banhar,official,12.681111,-15.556111,SN-SE,,
-2270792,-3133422,settlement,Madina,Madina,official,12.509722,-16.035278,SN-ZG,,
-2269992,-3132405,settlement,Kirpa,Kirpa,official,14.166667,-15.95,SN-FK,,
-2269994,-3132407,settlement,Kissan,Kissan,official,13.866667,-14.583333,SN-TC,,
-2271327,-3134144,settlement,Mbodié,Mbodie,official,15.4155,-15.9934,SN-LG,,
-2270791,-3133421,settlement,Madina,Madina,official,12.516667,-15.783333,SN-SE,,
-2271016,-3133718,hydrographic,Mangal,Mangal,official,14.516667,-15.266667,SN-KA,,
-2270192,-3132663,hydrographic,Kouba,Kouba,official,12.772222,-16.648056,SN-ZG,,
-2270218,-3132691,settlement,Koukadi,Koukadi,official,14.583333,-14.516667,SN-LG,,
-2267927,-3129587,settlement,Fass,Fass,variant,14.690108,-17.454011,SN-DK,,
-2270933,-3133604,settlement,Mal,Mal,official,16.126667,-15.888333,SN-SL,,
-2266049,-3126993,spot,Bodel,Bodel,official,13.416667,-15.133333,SN-KD,,
-2271767,-3134757,settlement,Ndame,Ndame,variant,15.583333,-16.083333,SN-LG,,
-2267546,-3129074,settlement,Diourou,Diourou,official,12.802222,-16.273056,SN-ZG,,
-2272495,-3135779,settlement,Nguer,Nguer,official,15.216667,-16.55,SN-TH,,
-2267929,-3129589,settlement,Fassane,Fassane,official,12.491111,-15.581667,SN-SE,,
-2272433,-3135679,settlement,Ngop,Ngop,variant,12.5986,-12.8318,SN-KE,,
-2272751,-3136153,settlement,Ogo,Ogo,official,14.583333,-15.833333,SN-DB,,
-2271246,-3134044,settlement,Mbééda,Mbeeda,official,15.75,-13.783333,SN-MT,,
-2270038,-3132462,settlement,Kofadou,Kofadou,official,13.575516,-12.501663,SN-TC,,
-2266915,-3128191,settlement,Diaglé,Diagle,official,13.85,-16.366667,SN-FK,,
-2269993,-3132406,settlement,Kis,Kis,official,15.333333,-16.216667,SN-LG,,
-2269040,-3131167,settlement,Kansola,Kansola,official,12.997778,-16.550833,SN-ZG,,
-2272776,-3136186,settlement,Ouadane,Ouadane,official,15.783333,-16.166667,SN-LG,,
-2265100,-3125740,settlement,Aguior,Aguior,official,12.933333,-16.133333,SN-ZG,,
-2271718,-3134669,settlement,Narga,Narga,official,14.5,-15.883333,SN-FK,,
-2272775,-3136185,settlement,Ouadane,Ouadane,official,15.3,-16.233333,SN-LG,,
-2267928,-3129588,settlement,Fassada,Fassada,official,12.508056,-15.538056,SN-SE,,
-2270217,-3132690,settlement,Kouini,Kouini,official,12.989722,-16.041111,SN-ZG,,
-2266868,-3128132,settlement,Diabel,Diabel,official,14.583333,-15.583333,SN-KL,,
-2270484,-3133035,settlement,Larédji,Laredji,official,13.6,-13.616667,SN-TC,,
-2267325,-3128776,settlement,Dilapao,Dilapao,official,12.616389,-16.384444,SN-ZG,,
-2270420,-3132953,settlement,Lagnar,Lagnar,official,14.65,-16.35,SN-DB,,
-2273134,-3136663,settlement,Pendao,Pendao,short,16.616667,-15.083333,SN-SL,,
-2272342,-3129925,settlement,Gane,Gane,variant,14.516667,-16.45,SN-FK,,
-2265280,-3125966,hydrographic,Badé,Bade,official,14.216667,-13.3,SN-TC,,
-2268774,-3130813,settlement,Kaba,Kaba,official,14.733333,-16.616667,SN-TH,,
-2268262,-3130048,settlement,Gayene,Gayene,official,13.383333,-14.816667,SN-KD,,
8024712,8024712,settlement,Ida,Ida,short,12.838056,-15.532222,SN-SE,,
-2275170,-3139519,settlement,Tiara,Tiara,official,12.866667,-14.55,SN-KD,,
-2275911,-3140494,settlement,Youboubou,Youboubou,official,13.018957,-11.641581,SN-KE,,
-2275910,-3140492,settlement,"Yoro Sankoulé","Yoro Sankoule",official,13.866667,-13.716667,SN-TC,,
-2274640,-3138756,settlement,Sonako,Sonako,official,12.464167,-15.749444,SN-SE,,
-2275823,-3140380,settlement,"Yamane Sek","Yamane Sek",official,15.808056,-16.269444,SN-LG,,
-2275908,-3140490,settlement,"Yoro Peulh","Yoro Peulh",variant,15.33,-15.9704,SN-LG,,
-2275905,-3140484,settlement,Yoro,Yoro,official,14.133333,-16.3,SN-FK,,
-2275048,-3139332,settlement,Teural,Teural,official,15.4,-16.65,SN-LG,,
-2275824,-3140382,settlement,Yamatoyène,Yamatoyene,official,12.569444,-16.743889,SN-ZG,,
-2275823,-3129878,settlement,"Gaman Sek","Gaman Sek",variant,15.808056,-16.269444,SN-LG,,
-2275909,-3140491,spot,"Yoro Sadio","Yoro Sadio",official,15,-15.466667,SN-LG,,
-2275826,-3140385,settlement,Yamoussa,Yamoussa,official,12.4312,-12.2572,SN-KE,,
-2275907,-3140487,settlement,Yoroka,Yoroka,official,14.95,-15.733333,SN-LG,,
-2275822,-3140379,settlement,Yamané,Yamane,official,16.103611,-15.996389,SN-SL,,
-2275825,-3140383,hydrographic,Yambasansa,Yambasansa,official,13.283333,-13.683333,SN-KD,,
-2275150,-3139495,hydrographic,Tiangol,Tiangol,short,14.916667,-14.6,SN-LG,,
-2275908,-3140489,settlement,"Yoro Peul","Yoro Peul",official,15.33,-15.9704,SN-LG,,
-2275047,-3139331,settlement,Teuptal,Teuptal,official,15.266667,-16.433333,SN-TH,,
-2274873,-3139095,settlement,"Tamba I","Tamba I",official,13.733333,-13.666667,SN-TC,,
-2274993,-3139254,settlement,Témanto,Temanto,official,13.533333,-14.15,SN-TC,,
-2275906,-3140485,settlement,Yorodondékounda,Yorodondekounda,official,13.6,-14.25,SN-TC,,
-2275905,-3132274,settlement,"Keur Yoro","Keur Yoro",variant,14.133333,-16.3,SN-FK,,
-2274637,-3138753,settlement,Somone,Somone,official,14.486494,-17.075237,SN-TH,,
-2274325,-3138142,settlement,Sindou,Sindou,official,14.748425,-12.845332,SN-MT,,
-2275730,-3140244,settlement,"Vèndou Namari","Vendou Namari",official,15.8145,-15.3169,SN-LG,,
-2275749,-3140271,settlement,Veuta,Veuta,official,15.116667,-16.95,SN-TH,,
-2275711,-3140223,spot,"Vèndou Adiardé","Vendou Adiarde",official,16.495278,-15.308611,SN-SL,,
-2275674,-3140169,settlement,Vang,Vang,official,14.6,-16.05,SN-DB,,
-2274358,-3138202,settlement,Sinne,Sinne,official,15.2,-16.366667,SN-TH,,
-2274638,-3138754,hydrographic,Somone,Somone,official,14.493722,-17.087186,SN-TH,,
-2274244,-3138028,settlement,Séssène,Sessene,official,14.65,-16.283333,SN-DB,,
-2274245,-3138029,settlement,Sessoum,Sessoum,official,14.933333,-14.633333,SN-LG,,
-2274639,-3138755,settlement,Somono,Somono,official,15.929581,-13.335116,SN-MT,,
-2274358,-3137176,settlement,Sâme,Same,variant,15.2,-16.366667,SN-TH,,
-2275712,-3140224,settlement,"Vèndou Bam","Vendou Bam",variant,15.1297,-15.818,SN-LG,,
-2275675,-3140173,settlement,Veïnane,Veinane,official,13.983333,-15.216667,SN-KA,,
-2275710,-3140222,settlement,"Vendou Abé","Vendou Abe",official,15.4336,-14.9721,SN-LG,,
-2275696,-3140201,settlement,"Vélingara Lali","Velingara Lali",official,13.5,-15.133333,SN-KD,,
-2275404,-3139851,settlement,Tiormad,Tiormad,variant,15.416667,-16.75,SN-TH,,
-2275588,-3140050,settlement,"Toubèye Ka","Toubeye Ka",official,14.4,-15.95,SN-FK,,
-2275669,-3140163,spot,Val,Val,official,16.251667,-15.028333,SN-SL,,
-2275064,-3139385,hypsographic,"Pointe Thionk","Pointe Thionk",official,12.666667,-16.566667,SN-ZG,,
-2274848,-3139059,spot,Talibé,Talibe,official,14.983333,-15.483333,SN-LG,,
-2274901,-3139138,settlement,Tanguis,Tanguis,official,14.533333,-16.933333,SN-TH,,
-2275297,-3139689,settlement,Tienti,Tienti,official,14.783333,-16.05,SN-DB,,
-2275559,-3140016,settlement,"Touba Marik","Touba Marik",official,14.033333,-15.433333,SN-KA,,
-2274908,-3139103,hydrographic,"Lac Tamna","Lac Tamna",variant,14.895571,-17.058985,SN-TH,,
-2274851,-3139063,settlement,Taliel,Taliel,official,12.983333,-14.866667,SN-KD,,
-2275136,10857063,settlement,Thiamène,Thiamene,official,15.323681,-15.515534,SN-LG,,
-2275234,-3139603,settlement,Tiavène,Tiavene,official,15.25,-16.416667,SN-TH,,
-2275614,-3140085,settlement,"Toulel Tialé","Toulel Tiale",official,15.983333,-13.633333,SN-MT,,
-2275629,10205058,settlement,Toumbingfara,Toumbingfara,official,13.364546,-11.758598,SN-TC,,
-2275673,-3136223,settlement,Ouanar,Ouanar,variant,13.883333,-15.616667,SN-KA,,
-2274988,-3139249,settlement,Témanto,Temanto,official,12.533333,-15.666667,SN-SE,,
-2275102,-3139437,settlement,Tialé,Tiale,official,15,-16.85,SN-TH,,
-2275141,-3139481,settlement,Tianbalédié,Tianbaledie,variant,15.9851,-15.0842,SN-LG,,
-2274767,-3138945,hydrographic,Tabali,Tabali,official,13.283333,-13.666667,SN-KD,,
-2275462,-3139892,settlement,Tioyé,Tioye,official,14.55,-14.766667,SN-KA,,
-2275554,-3140009,settlement,Toubakouta,Toubakouta,official,12.466944,-15.619444,SN-SE,,
-2274891,-3139122,settlement,"Tanda Boudaye","Tanda Boudaye",official,13.916667,-15.983333,SN-KL,,
-2275732,-3140246,spot,"Vèndou Oldou","Vendou Oldou",official,16.165278,-15.388333,SN-SL,,
-2275918,-3140505,administrative_region,Ziguinchor,Ziguinchor,official,12.522006,-16.216207,SN-ZG,,
-2275380,-3139789,settlement,Tingoto,Tingoto,official,13.366667,-13.216667,SN-TC,,
-2274753,-3138920,settlement,Suèle,Suele,variant,12.949167,-16.283889,SN-ZG,,
-2275447,-3139873,settlement,Tioundi,Tioundi,official,14.9,-15.533333,SN-LG,,
-2275872,-3140446,settlement,"Yéra Dioula","Yera Dioula",official,13.183333,-15.65,SN-SE,,
-2275870,-3140444,settlement,"Yen Tode","Yen Tode",variant,14.648284,-17.183772,SN-DK,,
-2275575,-3140033,settlement,Toubé,Toube,official,14.766667,-16.283333,SN-DB,,
-2275175,-3139524,hydrographic,"Marigot de Tiara","Marigot de Tiara",official,13.8,-13.1,SN-TC,,
-2275717,-3140229,settlement,"Vèndou Boulbi","Vendou Boulbi",official,15.85,-13.866667,SN-MT,,
-2275762,-3140287,settlement,"Vinndé Ajouka","Vinnde Ajouka",variant,15.2537,-15.635,SN-LG,,
-2275474,-3139911,settlement,Tiwawan,Tiwawan,variant,14.974444,-16.939722,SN-TH,,
-2275036,-3139317,spot,Téterlé-Namadi,Teterle-Namadi,official,15.8641,-14.8418,SN-LG,,
-2275327,-3139724,settlement,Tigad,Tigad,official,14.816667,-16.666667,SN-TH,,
-2275739,-3140254,spot,"Vèndou Tiaski","Vendou Tiaski",official,16.440833,-15.348611,SN-SL,,
-2275589,-3140049,settlement,Toubet,Toubet,variant,15.35,-16.383333,SN-LG,,
-2275342,-3139741,settlement,Tilane,Tilane,official,13.916667,-16.633333,SN-FK,,
-2275450,-3139877,settlement,"Tiountou Aladi","Tiountou Aladi",official,13.716667,-14.3,SN-TC,,
-2275513,-3139134,settlement,Tangohr,Tangohr,variant,15.9,-16.433333,SN-SL,,
-2275771,-3140299,hydrographic,"Vèndou Vonol","Vendou Vonol",official,15.4911,-14.57,SN-LG,,
-2275345,-3132370,settlement,"Killa Boule","Killa Boule",variant,14.8,-16.683333,SN-TH,,
-2275550,-3140005,settlement,"Touba Kahone","Touba Kahone",official,14.4,-15.833333,SN-FK,,
-2274892,-3139123,settlement,"Tanda Mbar","Tanda Mbar",official,13.9,-15.966667,SN-KL,,
-2275335,-3139732,settlement,Tiïl,Tiil,official,15.566667,-16.233333,SN-LG,,
-2275781,-3136830,settlement,"Quack Oumgouna","Quack Oumgouna",variant,13.75,-16.066667,SN-KL,,
-2275074,-3139193,settlement,Tatadem,Tatadem,variant,14.416667,-16.7,SN-TH,,
-2274869,-3139089,settlement,Tambacounda,Tambacounda,official,13.76969,-13.67081,SN-TC,,
-2275179,-3139531,settlement,Tiarap,Tiarap,official,12.783333,-14.516667,SN-KD,,
-2275116,-3139452,hydrographic,"Tialtol Diaoura","Tialtol Diaoura",short,14.166667,-13.1,SN-TC,,
-2275794,-3140326,settlement,Wassadougou,Wassadougou,official,13.35,-13.333333,SN-TC,,
-2274973,-3139230,hypsographic,"Haïré Tchoban","Haire Tchoban",variant,14.323023,-12.302275,SN-TC,,
-2274997,-3139259,settlement,Témassou,Temassou,official,13.616667,-13.95,SN-TC,,
-2275715,-3140227,hydrographic,"Vèndou Bélal","Vendou Belal",short,14.583333,-14.266667,SN-TC,,
-2275872,-3137676,settlement,"Saré Ngaye","Sare Ngaye",variant,13.183333,-15.65,SN-SE,,
-2275594,10084083,settlement,"Toufndé Gandé","Toufnde Gande",official,16.090156,-13.863942,SN-SL,,
-2275203,-3139528,settlement,Tiaral,Tiaral,variant,15.833333,-16.133333,SN-LG,,
-2275494,-3139932,spot,Togane,Togane,official,16.239915,-14.161866,SN-SL,,
-2274786,-3138969,settlement,"Taga Kati","Taga Kati",official,13.9,-14.933333,SN-KA,,
-2274836,10859078,hydrographic,Takoubombon,Takoubombon,official,12.8099,-12.4717,SN-KE,,
-2275528,-3139974,settlement,Totia,Totia,official,12.612357,-11.851299,SN-KE,,
-2274888,-3139117,settlement,Tanbanoumaya,Tanbanoumaya,variant,12.825,-12.4266,SN-KE,,
-2275370,-3139774,settlement,Timbora,Timbora,official,15.033333,-16.8,SN-TH,,
-2275591,-3140055,hydrographic,"Vèndou Toudougueul","Vendou Toudougueul",official,15.6081,-14.5891,SN-LG,,
-2275192,-3139547,settlement,Tiarène,Tiarene,variant,15.4206,-15.9951,SN-LG,,
-2274828,-3139029,settlement,Taïnabé,Tainabe,official,14.733333,-15.966667,SN-DB,,
-2274978,-3139238,settlement,Teïba,Teiba,variant,15.359219,-13.101178,SN-MT,,
-2275013,-3139126,settlement,Tandouk,Tandouk,variant,12.728611,-16.465833,SN-ZG,,
-2275887,19399381,spot,"Aéroport de Dakar-Yof","Aeroport de Dakar-Yof",variant,14.740131,-17.490433,SN-DK,,
-2275361,-3139764,settlement,Tilmarha,Tilmarha,official,14.766667,-16.5,SN-DB,,
-2274738,-3138887,settlement,Soussoun,Soussoun,variant,14.583333,-16.766667,SN-TH,,
-2275159,-3139505,settlement,"Tiankone Modi Maka","Tiankone Modi Maka",official,15.58493,-13.387271,SN-MT,,
-2275539,9156196,settlement,"Touba Guène","Touba Guene",official,15.863889,-16.394167,SN-SL,,
-2275745,-3140266,settlement,Verdoi,Verdoi,official,14,-13.45,SN-TC,,
-2275277,-3139662,settlement,Tiénéba,Tieneba,official,14.416667,-16.1,SN-FK,,
-2275643,-3140122,settlement,Touré,Toure,official,15.05,-16.2,SN-000,,
-2275111,-3139447,settlement,Tialgouf,Tialgouf,official,15.183333,-16.083333,SN-LG,,
-2275136,-3139475,settlement,Tiamène,Tiamene,variant,15.323681,-15.515534,SN-LG,,
-2275251,-3139631,settlement,Tiékène,Tiekene,official,14.033333,-14.566667,SN-TC,,
-2275707,-3140219,settlement,Veltiennku,Veltiennku,variant,13.783333,-15.383333,SN-KA,,
-2275126,-3139462,settlement,Tiambène,Tiambene,official,15.833333,-16.2,SN-LG,,
-2275576,-3140034,settlement,Toubé,Toube,official,15.216667,-16.433333,SN-TH,,
-2275367,-3139771,settlement,Timbifara,Timbifara,official,13.408359,-12.554924,SN-TC,,
-2275026,-3139303,settlement,"Téourou Kossom","Teourou Kossom",official,14.516667,-16.033333,SN-FK,,
-2274832,9154412,settlement,"Takhmbeut Ouolof","Takhmbeut Ouolof",variant,16.020556,-16.262222,SN-SL,,
-2275761,-3127162,settlement,Bosséabé,Bosseabe,variant,15.313259,-12.991955,SN-MT,,
-2275887,19399383,spot,"Leopold Sedar Senghor International","Leopold Sedar Senghor International",official,14.740131,-17.490433,SN-DK,,
-2275245,-3139623,spot,"Tiéeoul Ouroulbé","Tieeoul Ouroulbe",variant,16.248223,-14.339355,SN-SL,,
-2275340,-3139738,settlement,Tikouli,Tikouli,official,14.65,-16.366667,SN-DB,,
-2275653,-3140136,settlement,Toutikouroudi,Toutikouroudi,official,13.273548,-11.619586,SN-KE,,
-2275860,-3140428,settlement,Yédi,Yedi,official,15.1387,-15.426,SN-LG,,
-2274899,-3139136,settlement,Tangori,Tangori,official,12.794444,-16.210833,SN-ZG,,
-2274862,-3139080,settlement,Tamach,Tamach,official,16.111944,-16.368889,SN-SL,,
-2275020,-3139296,settlement,Tennkoli,Tennkoli,official,13.733333,-14.65,SN-TC,,
-2275488,-3139924,settlement,Tobor,Tobor,official,13.016667,-15.683333,SN-SE,,
-2275239,-3139610,settlement,Tibbo,Tibbo,variant,15.15,-16.583333,SN-TH,,
-2275281,-3139382,settlement,Thinkouli,Thinkouli,variant,15.016667,-16.083333,SN-LG,,
-2275317,-3139702,settlement,Tiérigne,Tierigne,variant,15.566667,-16.45,SN-LG,,
-2275621,-3140093,settlement,"Toumbou Diaméré","Toumbou Diamere",official,13.62973,-13.82638,SN-TC,,
-2274909,-3139150,settlement,Tanp,Tanp,official,12.5,-16.15,SN-ZG,,
-2275863,-3140431,settlement,Yélingara,Yelingara,official,15.017957,-12.52532,SN-MT,,
-2275190,-3139545,settlement,Tiarène,Tiarene,official,15.333333,-16.75,SN-TH,,
-2275757,-3140280,spot,"Vindé Boki","Vinde Boki",variant,16.198554,-14.981483,SN-SL,,
-2275876,-3130753,settlement,Ierma,Ierma,variant,15.120081,-12.744458,SN-MT,,
-2275370,-3133975,settlement,M’Bar,M'Bar,variant,15.033333,-16.8,SN-TH,,
-2275139,-3139479,settlement,Tiamlé,Tiamle,official,12.438611,-15.720833,SN-SE,,
-2275843,-3140406,settlement,Yarimalé,Yarimale,variant,14.252533,-12.458237,SN-TC,,
-2274980,-3139240,settlement,"Tek Bang Hadji","Tek Bang Hadji",official,14.683333,-15.75,SN-FK,,
-2275632,-3140106,hydrographic,ToundouMaguena,ToundouMaguena,official,16.17802,-16.019987,SN-SL,,
-2274827,-3139028,settlement,"Taïf Tiékène","Taif Tiekene",official,14.466667,-14.7,SN-KA,,
-2275806,9156212,settlement,"Yade Peul","Yade Peul",official,15.970556,-16.297778,SN-SL,,
-2275460,-3139887,settlement,Tioutinnkobé,Tioutinnkobe,variant,15.490834,-13.272888,SN-MT,,
-2275255,-3139637,settlement,"Tiékène Baïrat","Tiekene Bairat",official,15.733333,-16.166667,SN-LG,,
-2275411,-3139827,settlement,Tioli,Tioli,official,15.033333,-16,SN-LG,,
-2274826,-3135533,settlement,Nganado,Nganado,variant,15.3542,-15.907,SN-LG,,
-2274965,10857067,hydrographic,"Vèndou Tïlidel","Vendou Tilidel",official,15.0625,-15.0274,SN-LG,,
-2275446,-3139872,settlement,Tioun,Tioun,official,15.790556,-16.4875,SN-LG,,
-2275303,-3139695,spot,Tiéouel,Tieouel,official,16.247879,-14.319328,SN-SL,,
-2275743,10857052,settlement,Vénouané,Venouane,official,15.4045,-15.7278,SN-LG,,
-2275122,-3139458,settlement,Tiamane,Tiamane,official,14.4,-16.616667,SN-FK,,
-2275573,-3140030,settlement,"Touba Tiékène","Touba Tiekene",official,13.35,-14.866667,SN-KD,,
-2274982,-3139242,settlement,Tékinnguel,Tekinnguel,variant,15.310268,-13.130608,SN-MT,,
-2274852,-3139062,settlement,Talicoyel,Talicoyel,variant,13.912106,-12.897944,SN-TC,,
-2274932,-3138967,hydrographic,Tabouré,Taboure,variant,16.465278,-15.696111,SN-SL,,
-2274962,-3139217,settlement,Tchiki,Tchiki,official,14.433333,-16,SN-FK,,
-2275213,-3139584,hydrographic,"Tiaski Mare","Tiaski Mare",official,14.960585,-12.480951,SN-TC,,
-2274958,-3139211,hydrographic,"Tchaf Tchédié","Tchaf Tchedie",official,14.033333,-14.133333,SN-TC,,
-2274774,-3138954,settlement,Tabandinto,Tabandinto,variant,12.816667,-14.733333,SN-KD,,
-2275021,-3139297,settlement,Tennkoli,Tennkoli,short,14.033333,-13.916667,SN-TC,,
-2275899,-3140477,settlement,Yolma,Yolma,official,14.983333,-16.25,SN-TH,,
-2275632,-3140107,hydrographic,"Toundou Maguena Dioubouldou","Toundou Maguena Dioubouldou",variant,16.17802,-16.019987,SN-SL,,
-2275508,-3139950,settlement,Tomoradji,Tomoradji,official,13.931402,-11.996505,SN-TC,,
-2275659,-3140146,settlement,Trigué,Trigue,official,15.0188,-15.4888,SN-LG,,
-2275864,-3140432,settlement,Yembakana,Yembakana,official,12.431667,-16.668611,SN-ZG,,
-2275368,-3139772,settlement,Timbifara,Timbifara,official,13.616667,-14.183333,SN-TC,,
-2274901,-3139148,settlement,Tannguis,Tannguis,variant,14.533333,-16.933333,SN-TH,,
-2275335,-3139378,settlement,Thillène,Thillene,variant,15.566667,-16.233333,SN-LG,,
-2275797,-3140333,settlement,Wenndia,Wenndia,variant,12.5362,-12.0925,SN-KE,,
-2274775,-3138946,settlement,Taban,Taban,variant,13.3,-14.8,SN-KD,,
-2275855,-3140423,hydrographic,"Yaya To","Yaya To",official,12.8398,-12.8711,SN-KE,,
-2275241,-3139619,settlement,Tidem,Tidem,official,16.113333,-16.154722,SN-SL,,
-2275420,-3139837,settlement,"Tiomolog Tombo","Tiomolog Tombo",official,13.116667,-13.966667,SN-KD,,
-2275288,10123664,settlement,"Tiengolel Wambambé","Tiengolel Wambambe",official,14.696271,-12.722768,SN-MT,,
-2275721,-3140234,hydrographic,"Tiângol Véndou Gaoudi","Tiangol Vendou Gaoudi",official,15.301034,-13.292277,SN-MT,,
-2275398,-3139810,hydrographic,"Véndou Tiodordé Mourotôki","Vendou Tiodorde Mourotoki",official,15.245172,-13.448762,SN-MT,,
-2274841,-3139075,settlement,"Tall Diop","Tall Diop",variant,15.95,-16.216667,SN-SL,,
-2275538,-3139985,settlement,Touba,Touba,official,14.85,-15.883333,SN-DB,,
-2275051,-3139342,settlement,Thiamène,Thiamene,official,15.4778,-15.8747,SN-LG,,
-2275785,6758267,settlement,Wamba,Wamba,official,12.487463,-11.588557,SN-KE,,
-2275182,-3139541,settlement,Tiaréne,Tiarene,variant,13.9,-15.783333,SN-KL,,
-2274949,-3139200,settlement,Tatki,Tatki,official,16.222222,-15.288056,SN-SL,,
-2275043,-3139326,settlement,Teumb,Teumb,official,15.880833,-16.2925,SN-SL,,
-2274750,-3138914,hydrographic,"Passe du Sud","Passe du Sud",official,12.516667,-16.8,SN-ZG,,
-2274985,10123632,hydrographic,"Tchangol Télorocul","Tchangol Telorocul",official,14.826567,-12.888127,SN-MT,,
-2275893,-3140470,settlement,Yokoulène,Yokoulene,official,15.983333,-16.216667,SN-SL,,
-2274947,10121580,hydrographic,Tassaïd,Tassaid,official,14.66203,-12.177406,SN-TC,,
-2275635,-3140115,settlement,Tounn,Tounn,variant,14.483333,-16.133333,SN-FK,,
-2274823,-3139024,settlement,"Taïf Diangou","Taif Diangou",official,14.75,-15.65,SN-FK,,
-2275480,-3139916,hydrographic,Tjikajinou,Tjikajinou,official,12.866667,-16.75,SN-ZG,,
-2275492,-3133715,settlement,Manga,Manga,variant,12.666667,-16.283333,SN-ZG,,
-2275552,-3131548,settlement,"Keur Aïp","Keur Aip",variant,13.966667,-15.816667,SN-KL,,
-2275158,-3139504,settlement,"Tiankone Hiraye","Tiankone Hiraye",official,15.591289,-13.391396,SN-MT,,
-2274899,-3139133,settlement,Tanghory,Tanghory,variant,12.794444,-16.210833,SN-ZG,,
-2274919,-3139161,settlement,Taoua,Taoua,official,13.95,-15.083333,SN-KA,,
-2274868,-3139087,spot,Tambacounda,Tambacounda,official,13.736781,-13.653117,SN-TC,,
-2275777,-3140306,hydrographic,Waïma,Waima,official,13.016667,-14.133333,SN-KD,,
-2275110,-3139446,settlement,Tialgou,Tialgou,official,15.233333,-16.033333,SN-LG,,
-2275134,-3132058,settlement,"Keur Mourri Thiam","Keur Mourri Thiam",variant,14.95,-16.7,SN-TH,,
-2274957,10084089,settlement,Tyabourli,Tyabourli,official,16.085486,-13.907979,SN-SL,,
-2274855,-3139070,settlement,Talinkoulou,Talinkoulou,official,12.732778,-15.178611,SN-SE,,
-2275466,-3139898,settlement,Tioyène,Tioyene,official,14.483333,-15.883333,SN-FK,,
-2274903,-3139141,settlement,Tankanto,Tankanto,official,12.561944,-15.436667,SN-SE,,
-2275495,-3139934,spot,Togane,Togane,official,16.397174,-14.816923,SN-SL,,
-2275384,-3139794,settlement,Tinndiou,Tinndiou,official,15.3,-16.3,SN-LG,,
-2275404,-3139819,settlement,Tiokhmat,Tiokhmat,official,15.416667,-16.75,SN-TH,,
-2274810,-3139010,settlement,"Taïba Ndioufène","Taiba Ndioufene",official,13.85,-16.016667,SN-KL,,
-2275768,6890568,spot,"Vèndou Lao","Vendou Lao",official,16.501478,-14.990256,SN-SL,,
-2275224,-3139590,settlement,Tiatiao,Tiatiao,official,14.7,-16.35,SN-DB,,
-2275854,-3140422,settlement,Yayakounda,Yayakounda,official,12.732778,-15.881944,SN-SE,,
-2275851,-3140419,settlement,Yavène,Yavene,official,14.766667,-15.95,SN-DB,,
-2275921,-3140508,settlement,Ziguinchor,Ziguinchor,official,12.56801,-16.27326,SN-ZG,,
-2275284,-3139670,settlement,Tiénène,Tienene,official,15.0314,-15.9926,SN-LG,,
-2274898,-3139132,settlement,Tanèm,Tanem,official,14.133333,-14.883333,SN-KA,,
-2275107,-3139443,settlement,Tialène,Tialene,official,13.916667,-15.633333,SN-KA,,
-2275496,-3139935,settlement,Togué,Togue,official,12.4777,-12.0219,SN-KE,,
-2275515,-3139958,settlement,"Tonguel Peul","Tonguel Peul",official,15.5952,-15.929,SN-LG,,
-2275792,-3140323,settlement,Wassadou,Wassadou,official,12.75,-14.166667,SN-KD,,
-2275797,10859070,settlement,Wondio,Wondio,official,12.5362,-12.0925,SN-KE,,
-2275285,-3139671,settlement,"Tiène Tilène","Tiene Tilene",official,15.383333,-16.416667,SN-LG,,
-2275377,-3139782,park,"Forêt Classée de Tindiem","Foret Classee de Tindiem",variant,12.833333,-16.283333,SN-ZG,,
-2274916,-3139158,settlement,Taoua,Taoua,official,13.65,-15.8,SN-KL,,
-2275071,-3139396,hydrographic,Tiabouli,Tiabouli,official,14.566667,-15.133333,SN-KA,,
-2274796,-3138985,settlement,Taïba,Taiba,official,15.633333,-16.35,SN-LG,,
-2274867,16690861,administrative_region,"Département de Tambacounda",DepartementdeTambacounda,official,13.513193,-13.584327,SN-TC,,
-2275304,-3139363,settlement,Thièpe,Thiepe,variant,14.833333,-16.5,SN-DB,,
-2275756,-3140279,spot,"Vindé Boki","Vinde Boki",official,16.098056,-15.056667,SN-SL,,
-2275668,-3127500,hydrographic,Carantabá,Carantaba,variant,12.8,-14.7,S1-000,,
-2275003,-3139267,settlement,"Témento Samba","Temento Samba",official,12.9,-14.25,SN-KD,,
-2275332,-3139729,settlement,"Tiguéré Yéné","Tiguere Yene",official,15.708254,-13.268882,SN-MT,,
-2274799,-3138990,settlement,"Taïba Bèp","Taiba Bep",official,14.916667,-16.35,SN-DB,,
-2275647,-3140128,settlement,Tourékounda,Tourekounda,official,13.700109,-12.307635,SN-TC,,
-2275821,-3140381,settlement,"Yamane Sogue","Yamane Sogue",variant,15.8745,-16.3759,SN-SL,,
-2275405,-3139820,settlement,Tiokitian,Tiokitian,variant,12.5689,-12.3905,SN-KE,,
-2275522,9141325,settlement,Tor,Tor,official,14.886162,-17.079619,SN-TH,,
-2275295,-3139684,settlement,"Tiéno Ndaye","Tieno Ndaye",official,15.366667,-16.366667,SN-LG,,
-2275464,-3139605,settlement,Tiayène,Tiayene,variant,13.6,-15.983333,SN-KL,,
-2275264,-3139648,settlement,Tiélao,Tielao,official,16.576884,-14.560258,SN-SL,,
-2275164,-3139890,settlement,Tiovanne,Tiovanne,variant,15.316667,-16.366667,SN-TH,,
-2275011,-3139278,hydrographic,Tenda,Tenda,official,13.471543,-12.899797,SN-TC,,
-2275606,-3140074,settlement,Toukara,Toukara,official,13.083333,-16.116667,SN-ZG,,
-2274977,-3139235,settlement,Tèf,Tef,official,16.046111,-16.320278,SN-SL,,
-2275609,-3140078,hydrographic,"Tiangol Toulal","Tiangol Toulal",official,15.183333,-13.766667,SN-MT,,
-2275566,-3140023,settlement,"Touba Ndiaye","Touba Ndiaye",official,15.166667,-16.866667,SN-TH,,
-2275794,-3136253,settlement,Ouassadou,Ouassadou,variant,13.35,-13.333333,SN-TC,,
-2275839,-3140402,spot,"Yaré Lao","Yare Lao",official,16.024716,-14.548715,SN-SL,,
-2275514,-3139957,settlement,Tonguel,Tonguel,official,15.5707,-15.9455,SN-LG,,
-2274822,-3139023,settlement,Taïfali,Taifali,official,15.0376,-14.6561,SN-LG,,
-2274840,-3139074,settlement,"Tall Bakhele","Tall Bakhele",variant,15.983333,-16.2,SN-SL,,
-2274829,-3139030,settlement,Taïnango,Tainango,official,14.516667,-16.983333,SN-TH,,
-2275679,16690875,administrative_region,"Département de Vélingara",DepartementdeVelingara,official,13.023389,-13.861219,SN-KD,,
-2275490,-3139926,hydrographic,"Marigot de Tobor","Marigot de Tobor",official,12.599167,-16.265278,SN-ZG,,
-2275804,-3140351,settlement,"Yaboutil Diop","Yaboutil Diop",variant,15.4907,-16.1797,SN-LG,,
-2275697,-3140212,settlement,"Vélinngara Léguel","Velinngara Leguel",variant,13.416667,-13.7,SN-TC,,
-2274819,-3139020,settlement,Taïf,Taif,official,14.783333,-15.65,SN-FK,,
-2275238,-3139611,settlement,"Tibeli Mael","Tibeli Mael",official,14.266667,-16.283333,SN-KL,,
-2274905,-3139143,settlement,"Tankanton Peul","Tankanton Peul",official,12.807222,-15.028333,SN-KD,,
-2275255,-3139635,settlement,Tiékène,Tiekene,variant,15.733333,-16.166667,SN-LG,,
-2275736,-3140250,settlement,"Vendou Séna","Vendou Sena",official,15.9841,-15.4398,SN-SL,,
-2275852,-3140420,settlement,Yavorodji,Yavorodji,official,14.496612,-12.926086,SN-TC,,
-2275530,-3139977,settlement,Touba,Touba,official,13.141667,-16.653333,SN-ZG,,
-2275702,-3140210,settlement,Vélinngara,Velinngara,official,14.233333,-16.75,SN-FK,,
-2274950,-3139203,settlement,Tavé,Tave,official,15.0016,-15.9418,SN-LG,,
-2275081,-3139409,settlement,Tiahitou,Tiahitou,official,14.933333,-16.416667,SN-DB,,
-2275083,-3139411,settlement,Tiakalar,Tiakalar,official,14.233333,-16.133333,SN-FK,,
-2275960,-3134196,hydrographic,"Vallée de Mboul","Vallee de Mboul",variant,14.95,-14.266667,SN-000,,
-2274748,-3139997,settlement,Toubacouta,Toubacouta,variant,12.7025,-15.819167,SN-SE,,
-2275314,-3139709,settlement,"Tiéterlé Diabi","Tieterle Diabi",official,15.9139,-14.6355,SN-SL,,
-2275403,-3139817,settlement,Tioké,Tioke,variant,15.116667,-16.716667,SN-TH,,
-2275845,-3140409,settlement,Yassi,Yassi,official,14.216667,-15.05,SN-KA,,
-2275830,-3140390,hydrographic,"Tiangol Yaoualdé","Tiangol Yaoualde",official,15.7235,-14.4045,SN-SL,,
-2275880,-3140454,settlement,Yérou,Yerou,official,15.3,-16.216667,SN-LG,,
-2275089,-3139420,settlement,Tial,Tial,official,14.733333,-16.2,SN-DB,,
-2275239,-3139613,settlement,Tibo,Tibo,official,15.15,-16.583333,SN-TH,,
-2275540,-3139987,spot,Touba,Touba,official,13.9,-15.083333,SN-KA,,
-2275917,-3140502,settlement,Yoye,Yoye,official,15.2,-16.3,SN-TH,,
-2275382,-3139791,settlement,Tiniyel,Tiniyel,official,13.033333,-13.933333,SN-KD,,
-2275209,-3139572,settlement,Tiaroye-Mer,Tiaroye-Mer,variant,14.7425,-17.379444,SN-DK,,
-2275296,-3139683,settlement,"Tiéno Diao","Tieno Diao",variant,15.366667,-16.333333,SN-LG,,
-2275887,-3140463,spot,Yof,Yof,variant,14.740131,-17.490433,SN-DK,,
-2275237,-3139609,settlement,"Tibar Fal","Tibar Fal",official,15.1,-16.416667,SN-TH,,
-2275410,-3139812,settlement,Tioël,Tioel,variant,14.866667,-15.833333,SN-DB,,
-2275212,-3139515,settlement,Tiar,Tiar,variant,15.127,-16.5685,SN-TH,,
-2274962,-3139374,settlement,Thiiké,Thiike,variant,14.433333,-16,SN-FK,,
-2275843,10119280,settlement,Yarimalo,Yarimalo,official,14.252533,-12.458237,SN-TC,,
-2275394,-3139806,settlement,"Tiodio Goye","Tiodio Goye",official,14.616667,-16.4,SN-DB,,
-2275155,9355041,settlement,Tianiaf,Tianiaf,variant,15.040063,-12.695911,SN-MT,,
-2275701,-3140189,settlement,Vélingara,Velingara,variant,14.05,-16.533333,SN-FK,,
-2274954,-3139207,settlement,Tchabougueul,Tchabougueul,official,14.983333,-15.766667,SN-LG,,
-2274867,-3139086,administrative_region,Tambacounda,Tambacounda,official,13.513193,-13.584327,SN-TC,,
-2274746,-3138901,settlement,Soutouta,Soutouta,variant,13.800251,-12.716286,SN-TC,,
-2275245,6897031,spot,"Tiéouel Ouroulbé","Tieouel Ouroulbe",official,16.248223,-14.339355,SN-SL,,
-2275310,-3139704,settlement,"Tierno Siré","Tierno Sire",official,13.033333,-14.85,SN-KD,,
-2275790,-3136200,settlement,Ouakal,Ouakal,variant,14.885075,-17.08963,SN-TH,,
-2275722,-3140235,settlement,"Vendou Gari","Vendou Gari",official,15.2906,-14.0735,SN-MT,,
-2275363,-3139739,settlement,"Tilagne Tokossel","Tilagne Tokossel",variant,15.966667,-13.6,SN-MT,,
-2274824,-3139025,settlement,"Taïf Diop","Taif Diop",official,15.0434,-15.8731,SN-LG,,
-2275321,-3139717,settlement,Tiével,Tievel,official,13.233333,-15.45,SN-SE,,
-2275268,-3139652,settlement,Tièlé,Tiele,official,14.7,-15.983333,SN-DB,,
-2275181,-3139534,settlement,Tiare,Tiare,official,12.555833,-15.710278,SN-SE,,
-2275058,-3139366,settlement,Thiès,Thies,official,14.78944,-16.92602,SN-TH,,
-2275874,-3140448,settlement,"Yéri Malé Foulabé","Yeri Male Foulabe",official,15.080091,-12.855416,SN-MT,,
-2275193,-3139549,settlement,Tiarène,Tiarene,official,15.75,-16.066667,SN-LG,,
-2275610,-3140080,settlement,"Touldé Tiékovi","Toulde Tiekovi",official,14.333333,-13.533333,SN-TC,,
-2275312,-3139706,hydrographic,Tiésseldé,Tiesselde,official,14.483333,-15.316667,SN-KA,,
-2275893,-3140498,settlement,Youkhoulène,Youkhoulene,variant,15.983333,-16.216667,SN-SL,,
-2275560,-3140017,settlement,"Touba Mbayène","Touba Mbayene",official,13.9,-14.866667,SN-KA,,
-2275063,-3139766,settlement,Tilogne,Tilogne,variant,15.923889,-13.657778,SN-MT,,
-2275018,-3139294,settlement,Tenndimane,Tenndimane,official,12.765278,-16.306667,SN-ZG,,
-2275455,-3139882,settlement,Tiourèneguène,Tioureneguene,official,15.016667,-16.25,SN-TH,,
-2275660,-3140147,hydrographic,Trigué,Trigue,official,15.0456,-15.474,SN-LG,,
-2275031,-3139312,settlement,Téssékré,Tessekre,official,15.8127,-15.0607,SN-LG,,
-2274893,-3139124,settlement,Tandine,Tandine,official,12.938333,-16.404167,SN-ZG,,
-2275487,-3139923,settlement,Tobor,Tobor,official,12.661667,-16.264722,SN-ZG,,
-2275828,-3140388,settlement,"Yang Yang","Yang Yang",official,15.5915,-15.342,SN-LG,,
-2275191,10857060,settlement,Thiarène,Thiarene,official,15.37,-15.9961,SN-LG,,
-2275274,14064946,settlement,Tiémping,Tiemping,official,15.594589,-13.128543,SN-MT,,
-2275726,10857054,settlement,"Vèndou Koumba Khar","Vendou Koumba Khar",official,15.8399,-15.4818,SN-LG,,
-2274946,-3139194,settlement,Tataguenne,Tataguenne,variant,14.45,-16.633333,SN-FK,,
-2275649,-3140130,settlement,Tourguénol,Tourguenol,official,16.206613,-14.03999,SN-SL,,
-2275235,-3139606,settlement,Tiayère,Tiayere,official,15.866667,-16.366667,SN-SL,,
-2275765,10081538,hydrographic,"Tiângol Vindé Diohi","Tiangol Vinde Diohi",official,15.083492,-13.265131,SN-MT,,
-2275478,-3139846,settlement,Tioouar,Tioouar,variant,15.7249,-16.4496,SN-LG,,
-2274815,-3139016,settlement,"Taïba Sintié","Taiba Sintie",official,15.033333,-16.9,SN-TH,,
-2274885,-3139114,settlement,Tanbanaba,Tanbanaba,official,12.666667,-15.55,SN-SE,,
-2275184,-3139538,settlement,"Tiaré Diomoye","Tiare Diomoye",official,15.466667,-16.083333,SN-LG,,
-2275803,-3140350,settlement,Yabone,Yabone,official,12.531944,-16.053889,SN-KD,,
-2275453,-3139880,settlement,Tiourène,Tiourene,official,14.966667,-15.816667,SN-DB,,
-2275810,-3140362,settlement,"Yafa Roubo","Yafa Roubo",variant,13.466667,-15.133333,SN-KD,,
-2275278,-3139663,settlement,Tiénéba,Tieneba,official,14.583333,-16.833333,SN-TH,,
-2275922,-3140510,administrative_region,"Région de Ziguinchor","Region de Ziguinchor",official,12.8,-16.366667,SN-ZG,,
-2275913,-3140497,settlement,"Yougouré Keur Morbèye","Yougoure Keur Morbeye",official,14.35,-15.783333,SN-KA,,
-2274801,-3139005,settlement,"Taïba Ndaoy","Taiba Ndaoy",variant,14.816667,-16.75,SN-TH,,
-2275218,-3139583,hydrographic,Tiaski,Tiaski,official,15.498,-14.855,SN-LG,,
-2275464,-3139895,settlement,Tioyène,Tioyene,official,13.6,-15.983333,SN-KL,,
-2275903,-3140482,settlement,Yonoféré,Yonofere,official,15.2658,-14.4612,SN-MT,,
-2274995,-3139256,settlement,"Témanto Manfou","Temanto Manfou",official,13.066667,-15.266667,SN-SE,,
-2275067,-3139392,settlement,Tiabédji,Tiabedji,official,12.6349,-12.4156,SN-KE,,
-2275237,-3139608,settlement,Tibare,Tibare,variant,15.1,-16.416667,SN-TH,,
-2275810,-3140361,settlement,"Yafa Rouba","Yafa Rouba",official,13.466667,-15.133333,SN-KD,,
-2275586,-3140046,settlement,"Toubéré Demballa","Toubere Demballa",official,14.366667,-13.666667,SN-TC,,
-2275262,-3139354,settlement,Thiel,Thiel,variant,14.933333,-15.066667,SN-LG,,
-2275960,-3140563,hydrographic,"Vallée de Mboune","Vallee de Mboune",variant,14.95,-14.266667,SN-000,,
-2275009,-3139276,settlement,"Ténanto Samba","Tenanto Samba",official,12.733333,-14.783333,SN-KD,,
-2275883,-3140457,hydrographic,Yet,Yet,official,14.066667,-14.216667,SN-TC,,
-2275257,-3139644,settlement,Tiéky,Tieky,variant,14.61028,-17.077316,SN-TH,,
-2275311,-3139705,settlement,Tièss,Tiess,official,15.033333,-16.95,SN-TH,,
-2275421,10865743,settlement,"Tlone Khouma","Tlone Khouma",official,15.3138,-16.1263,SN-LG,,
-2275861,-3140429,settlement,Yélé,Yele,official,14.533333,-15.95,SN-DB,,
-2275374,-3139279,settlement,Tendian,Tendian,variant,13.183333,-13.566667,SN-TC,,
-2275117,-3139453,hydrographic,"Tialtol Diaoura","Tialtol Diaoura",official,14.116667,-13.066667,SN-TC,,
-2275748,-3140263,hypsographic,"Cabo Verde","Cabo Verde",variant,14.720446,-17.50349,SN-DK,,
-2275123,-3139459,settlement,Tiambak,Tiambak,official,15.4,-16.15,SN-LG,,
-2275478,-3139891,settlement,Tiovor,Tiovor,official,15.7249,-16.4496,SN-LG,,
-2275211,-3139516,settlement,Tiar,Tiar,variant,15.25,-16.283333,SN-000,,
-2274742,-3138896,hydrographic,Soutouba,Soutouba,official,13.466667,-13.083333,SN-TC,,
-2275419,-3139836,settlement,"Tiomolog Diam","Tiomolog Diam",official,13.116667,-13.933333,SN-KD,,
-2274782,-3138962,settlement,Tabi,Tabi,official,12.726944,-16.233611,SN-ZG,,
-2274815,-3137350,settlement,"Santiop Taiba","Santiop Taiba",variant,15.033333,-16.9,SN-TH,,
-2275630,-3140102,hydrographic,ToundNguinor,ToundNguinor,official,16.149722,-16.426389,SN-SL,,
-2275342,-3139428,settlement,Tialane,Tialane,variant,13.916667,-16.633333,SN-FK,,
-2275106,-3139442,settlement,Tialène,Tialene,official,13.35,-14.733333,SN-KD,,
-2275144,-3139486,settlement,Tiandène,Tiandene,official,14.516667,-16.716667,SN-TH,,
-2275848,-3140412,settlement,"Yassiné Laké","Yassine Lake",official,15.04876,-12.683094,SN-MT,,
-2275878,-3140452,settlement,Yérodoye,Yerodoye,official,13.966667,-13.45,SN-TC,,
-2275087,-3139417,settlement,"Tiako Djigane","Tiako Djigane",official,13.883333,-16.15,SN-KL,,
-2274945,-3139192,spot,"Tata d’Albouri Ndiaye","Tata d'Albouri Ndiaye",official,15.583333,-15.333333,SN-LG,,
-2275376,-3139783,settlement,Tindiéme,Tindieme,official,12.841111,-16.286667,SN-ZG,,
-2275939,-3133286,hydrographic,"Vallée du Loumbel","Vallee du Loumbel",variant,15.4,-13.933333,SN-MT,,
-2275178,-3139530,settlement,"Tiarao Keur Madialé","Tiarao Keur Madiale",official,14.016667,-15.833333,SN-KL,,
-2275359,-3139749,settlement,Tilène,Tilene,variant,15.533333,-16.05,SN-LG,,
-2275648,-3140129,settlement,"Touré Mbaye","Toure Mbaye",official,15.333333,-16.5,SN-LG,,
-2274765,-3138935,settlement,Tabacoto,Tabacoto,variant,13.283333,-13.066667,SN-TC,,
-2275829,-3140389,settlement,Yaoualdé,Yaoualde,official,15.7475,-14.3296,SN-SL,,
-2275761,-3140285,settlement,Vindou-Bosseaba,Vindou-Bosseaba,variant,15.313259,-12.991955,SN-MT,,
-2274755,-3138924,settlement,"Suma Kunda Bakary","Suma Kunda Bakary",official,13.283333,-14.5,SN-KD,,
-2275104,-3139440,settlement,Tialel,Tialel,official,13.833333,-14.616667,SN-TC,,
-2275126,-3139340,settlement,Thiambé,Thiambe,variant,15.833333,-16.2,SN-LG,,
-2275176,-3139525,settlement,"Tiara Dimba Bie","Tiara Dimba Bie",official,13.2,-15.3,SN-KD,,
-2275316,-3139711,settlement,Tiéti,Tieti,official,13.033333,-15.083333,SN-KD,,
-2275333,-3139730,settlement,Tiguet,Tiguet,official,16.398611,-16.319167,SN-SL,,
-2275001,-3139264,settlement,"Témento Eli","Temento Eli",official,13,-14.483333,SN-KD,,
-2275230,-3139598,settlement,Tiavali,Tiavali,official,15.5632,-15.3295,SN-LG,,
-2275376,-3139781,settlement,Tindiem,Tindiem,variant,12.841111,-16.286667,SN-ZG,,
-2275557,-3140013,settlement,Toubakouta,Toubakouta,official,13.766667,-16.466667,SN-FK,,
-2275173,-3139526,settlement,"Tiara Diolfoubé","Tiara Diolfoube",variant,13.966667,-13.133333,SN-TC,,
-2275835,-3140397,settlement,Yaran,Yaran,official,12.513611,-15.520556,SN-SE,,
-2274754,-3138921,park,"Forêt Classée de Suèle","Foret Classee de Suele",variant,12.976667,-16.270833,SN-ZG,,
-2274748,-3138045,settlement,Sibikouroto,Sibikouroto,variant,12.7025,-15.819167,SN-SE,,
-2275814,-3140366,hydrographic,"Yaké Yak","Yake Yak",official,16.505597,-14.275159,SN-SL,,
-2274973,-3139229,hypsographic,"Aïré Tchoban","Aire Tchoban",official,14.323023,-12.302275,SN-TC,,
-2275817,-3140373,settlement,Yalalbé,Yalalbe,variant,15.848093,-13.50298,SN-MT,,
-2274773,-3138952,settlement,"Tabanding Ouolof","Tabanding Ouolof",official,13.5,-14.4,SN-TC,,
-2275600,-3140067,settlement,Tougoudé,Tougoude,official,13.25,-15.05,SN-KD,,
-2275877,-3140451,spot,Yéro,Yero,official,14.766667,-14.3,SN-LG,,
-2275297,-3139688,settlement,Tienté,Tiente,variant,14.783333,-16.05,SN-DB,,
-2275387,-3139798,settlement,Tinntiba,Tinntiba,official,13.633333,-13.483333,SN-TC,,
-2275485,-3139921,settlement,Tobène,Tobene,official,14.133333,-15.4,SN-KA,,
-2275172,-3139521,settlement,Tiara,Tiara,official,13.483333,-14.366667,SN-TC,,
-2275787,-3140317,hydrographic,Wandoulou,Wandoulou,official,12.800867,-11.917194,SN-KE,,
-2275642,-3140121,settlement,Touré,Toure,official,15.016667,-16.3,SN-TH,,
-2275884,-3140479,settlement,Yombel,Yombel,variant,14.781835,-17.34961,SN-DK,,
-2275226,-3139593,settlement,Tiatiaou,Tiatiaou,variant,14.75,-16.6,SN-DB,,
-2275072,-3139397,hydrographic,Tiaboulou,Tiaboulou,short,12.783333,-13.1,SN-KE,,
-2275256,-3139638,settlement,"Tiekha Gaye","Tiekha Gaye",official,15.333333,-16.55,SN-LG,,
-2275262,-3139645,settlement,Tièl,Tiel,official,14.933333,-15.066667,SN-LG,,
-2275293,-3139681,settlement,Tienngoul,Tienngoul,official,14.766667,-15.816667,SN-DB,,
-2275202,-3139559,settlement,Tiargni,Tiargni,official,15.2606,-14.0846,SN-MT,,
-2275882,9155478,settlement,Yerwaye,Yerwaye,official,15.751111,-16.318611,SN-LG,,
-2275357,-3139758,settlement,Tillèm,Tillem,official,15.666667,-16.216667,SN-LG,,
-2275241,-3139615,settlement,Tiddem,Tiddem,variant,16.113333,-16.154722,SN-SL,,
-2275725,-3140238,settlement,"Vèndou Guéladio","Vendou Gueladio",official,14.966667,-14.733333,SN-LG,,
-2275185,-3139539,settlement,"Tiaré Djilassèm","Tiare Djilassem",official,14.45,-16.25,SN-FK,,
-2275760,-3140284,spot,"Vindé Siré","Vinde Sire",official,16.053889,-15.048056,SN-SL,,
-2275763,-3140288,settlement,Vinndeboki,Vinndeboki,variant,15.8845,-15.5292,SN-LG,,
-2275040,-3139321,settlement,"Teud Biti","Teud Biti",official,15.966667,-16.183333,SN-SL,,
-2275892,-3140469,settlement,Yokoul,Yokoul,official,15.133333,-16.233333,SN-LG,,
-2275902,-3140481,settlement,Yongo,Yongo,official,14.783333,-15.75,SN-DB,,
-2275960,-3133767,hydrographic,"Vallée de Maoure","Vallee de Maoure",variant,14.95,-14.266667,SN-000,,
-2275133,-3139471,settlement,Tiamène,Tiamene,official,14.866667,-16.2,SN-DB,,
-2275135,-3139474,settlement,Tiamène,Tiamene,variant,15.0845,-15.9049,SN-LG,,
-2274744,-3138899,settlement,Soutoukoundi,Soutoukoundi,official,13.683333,-14.083333,SN-TC,,
-2274846,-3139057,settlement,Tali,Tali,official,15.3752,-15.2604,SN-LG,,
-2275060,14093606,administrative_region,Thiès,Thies,official,14.866667,-16.866667,SN-TH,,
-2275275,-3139660,settlement,Tiénaba,Tienaba,official,14.75,-16.8,SN-TH,,
-2275022,-3139298,settlement,Tennkoli,Tennkoli,official,14.033333,-13.966667,SN-TC,,
-2275153,-3139498,settlement,Tiangué,Tiangue,official,12.4092,-12.3395,SN-KE,,
-2275613,-3140083,settlement,"Toulé Kédé","Toule Kede",variant,14.64364,-12.656059,SN-TC,,
-2274957,-3139210,settlement,Tchabourli,Tchabourli,variant,16.085486,-13.907979,SN-SL,,
-2274968,-3139224,settlement,Tchissè,Tchisse,official,14.75,-15.933333,SN-DB,,
-2275187,-3128577,settlement,Diaréne,Diarene,variant,13.933333,-16.066667,SN-KL,,
-2275128,-3139465,settlement,Tiamène,Tiamene,official,13.716667,-16.133333,SN-KL,,
-2274924,-3139166,settlement,Taoua,Taoua,official,14.75,-16.9,SN-TH,,
-2275433,-3139856,settlement,Tioubbéne,Tioubbene,variant,13.816667,-15.983333,SN-KL,,
-2275698,-3140203,settlement,"Vélingara Pakane","Velingara Pakane",official,12.85,-13.8,SN-KD,,
-2274994,-3139265,settlement,"Témento Mamadou","Temento Mamadou",variant,13.483333,-15.016667,SN-KD,,
-2274939,-3139184,settlement,Taram,Taram,official,14.516667,-16.916667,SN-TH,,
-2275221,-3139587,settlement,Tiatao,Tiatao,official,14.6,-16.6,SN-TH,,
-2275306,-3139698,hydrographic,Tierg,Tierg,official,16.031944,-15.898611,SN-SL,,
-2275602,-3140070,settlement,Tougout,Tougout,official,14.416667,-15.95,SN-FK,,
-2275456,-3139883,settlement,Tiourouk,Tiourouk,official,14.15,-13.283333,SN-TC,,
-2275135,10857064,settlement,Thiamène,Thiamene,official,15.0845,-15.9049,SN-LG,,
-2275220,-3139586,settlement,Tiatamine,Tiatamine,official,12.783333,-13.866667,SN-KD,,
-2275657,-3140142,settlement,Trankile,Trankile,official,12.557222,-16.073889,SN-ZG,,
-2274765,-3138942,settlement,Tabakoto,Tabakoto,official,13.283333,-13.066667,SN-TC,,
-2274912,10108778,settlement,Tantâdji,Tantadji,official,16.082232,-13.869509,SN-SL,,
-2275247,-3139627,settlement,Tiéhubessi,Tiehubessi,official,12.983333,-14.283333,SN-KD,,
-2274853,-3139067,settlement,Talikourto,Talikourto,official,12.65,-15.383333,SN-SE,,
-2275384,-3139775,settlement,"Tim Diao","Tim Diao",variant,15.3,-16.3,SN-LG,,
-2275632,6855624,hydrographic,Dioubouldou,Dioubouldou,variant,16.17802,-16.019987,SN-SL,,
-2275595,-3140060,settlement,Toug,Toug,variant,15.885,-16.473889,SN-SL,,
-2275640,-3140119,settlement,Touré,Toure,official,14.733333,-16.216667,SN-DB,,
-2275118,-3139454,hydrographic,Tialzas,Tialzas,short,12.883333,-13.15,SN-KE,,
-2275915,-3140500,settlement,"Youpé Paté","Youpe Pate",official,14.334457,-12.39846,SN-TC,,
-2275847,-3140411,park,"Forêt Classée de Yassine","Foret Classee de Yassine",official,12.803611,-15.871944,SN-SE,,
-2275326,-3139722,settlement,Tièye,Tieye,official,14.85,-16.166667,SN-DB,,
-2274880,-3139612,settlement,Tibindala,Tibindala,variant,13.333333,-13.8,SN-KD,,
-2275680,-3140178,settlement,Vélingara,Velingara,official,12.4585,-12.0596,SN-KE,,
-2275425,-3139844,settlement,"Tionok Diabi","Tionok Diabi",official,14.666667,-14.666667,SN-LG,,
-2275158,-3139483,settlement,"Tiancone Hiaai","Tiancone Hiaai",variant,15.591289,-13.391396,SN-MT,,
-2275539,-3140003,settlement,"Touba Gueye","Touba Gueye",variant,15.863889,-16.394167,SN-SL,,
-2275438,-3139863,settlement,Tiouko,Tiouko,official,14.733333,-16.383333,SN-DB,,
-2275204,-3139350,settlement,Thiathio,Thiathio,variant,14.7,-16.366667,SN-DB,,
-2275884,-3140458,settlement,Yeumbeul,Yeumbeul,official,14.781835,-17.34961,SN-DK,,
-2275503,-3139944,settlement,Tokossian,Tokossian,official,12.504167,-15.786667,SN-SE,,
-2274964,10857185,settlement,Tila,Tila,variant,15.40524,-15.217035,SN-LG,,
-2274941,-3139186,settlement,Tarhoum,Tarhoum,official,14.483333,-16.916667,SN-TH,,
-2275046,-3139330,settlement,Teungué,Teungue,official,14.683333,-16.216667,SN-DB,,
-2275082,-3139410,settlement,Tiak,Tiak,official,14.816667,-16.1,SN-DB,,
-2275372,-3139777,settlement,Tindaba,Tindaba,official,12.483333,-16.183333,SN-ZG,,
-2275307,-3132399,settlement,Kiriack,Kiriack,variant,13.983333,-15.966667,SN-KL,,
-2274852,-3139064,settlement,Talikayel,Talikayel,variant,13.912106,-12.897944,SN-TC,,
-2275747,-3140269,hydrographic,"Véro Bapalél","Vero Bapalel",official,15.269524,-13.193565,SN-MT,,
-2274808,-3139006,settlement,"Taïba Ndia","Taiba Ndia",official,15.133333,-16.75,SN-TH,,
-2275772,-3140300,settlement,Vordé,Vorde,official,16.43142,-14.273985,SN-SL,,
-2274880,-3139102,settlement,Tamindala,Tamindala,official,13.333333,-13.8,SN-KD,,
-2275870,-3140443,settlement,Yenne-Todé,Yenne-Tode,variant,14.648284,-17.183772,SN-DK,,
-2275887,19399382,spot,"Aéroport International Léopold Sédar Senghor",AeroportInternationalLeopoldSedarSenghor,variant,14.740131,-17.490433,SN-DK,,
-2275728,-3140242,settlement,"Vèndou Moutchétéki","Vendou Moutcheteki",variant,15.8249,-15.3913,SN-LG,,
-2275821,-3140378,settlement,Yamane,Yamane,official,15.8745,-16.3759,SN-SL,,
-2275916,-3140501,settlement,Youtou,Youtou,official,12.379722,-16.488611,SN-ZG,,
-2275960,-3134660,hydrographic,"Vallée de Naoudé","Vallee de Naoude",variant,14.95,-14.266667,SN-000,,
-2275174,-3139425,settlement,Tiala,Tiala,variant,15.2293,-15.5444,SN-LG,,
-2275437,-3139861,hydrographic,Tiougal,Tiougal,official,14.766667,-13.7,SN-MT,,
-2275263,-3139646,settlement,Tiél,Tiel,official,15.822494,-13.505375,SN-MT,,
-2274921,-3139163,settlement,Taoua,Taoua,official,14.116667,-15.283333,SN-KA,,
-2275712,10857055,settlement,"Vèndou Mbam","Vendou Mbam",official,15.1297,-15.818,SN-LG,,
-2275096,-3139430,settlement,Tialbol,Tialbol,official,15.6505,-14.3299,SN-LG,,
-2275283,-3139669,settlement,Tiénène,Tienene,official,14.7,-15.933333,SN-DB,,
-2275413,-3139830,settlement,"Tiolom Fall","Tiolom Fall",official,15.3428,-16.3217,SN-LG,,
-2275792,-3136251,settlement,Ouassadou,Ouassadou,variant,12.75,-14.166667,SN-KD,,
-2275405,10859073,settlement,Tiokétian,Tioketian,official,12.5689,-12.3905,SN-KE,,
-2275876,-3140450,settlement,Yerma,Yerma,official,15.120081,-12.744458,SN-MT,,
-2274770,-3138949,settlement,Tabandi,Tabandi,official,13.65,-14.183333,SN-TC,,
-2275656,-3140140,park,"Forêt Classée de Toutoune","Foret Classee de Toutoune",official,12.766667,-14.383333,SN-KD,,
-2275612,-3140082,settlement,Toulé,Toule,variant,14.72896,-17.081687,SN-TH,,
-2274986,-3139247,settlement,Téloum,Teloum,official,12.985556,-16.268333,SN-ZG,,
-2275366,-3139770,settlement,Timbafoulou,Timbafoulou,official,13.6,-13.6,SN-TC,,
-2274750,-3138891,hydrographic,"Southwest Pass","Southwest Pass",variant,12.516667,-16.8,SN-ZG,,
-2274920,-3139162,settlement,Taoua,Taoua,official,13.983333,-16.2,SN-KL,,
-2275023,-3139300,hydrographic,"Rio de Tenquinã","Rio de Tenquina",official,12.65,-14.1,S1-000,,
-2274850,-3139069,hydrographic,Talimboulou,Talimboulou,variant,13.112866,-12.824029,SN-TC,,
-2275676,-3140174,spot,Véko,Veko,official,15.945255,-13.475909,SN-MT,,
-2275627,-3140099,settlement,"Tounde Maléye","Tounde Maleye",official,15.5506,-16.6542,SN-LG,,
-2275577,-3140035,settlement,"Toubé Kaé","Toube Kae",official,14.5,-13.483333,SN-MT,,
-2275121,-3139457,hydrographic,Tiamala,Tiamala,official,16.087758,-13.791267,SN-SL,,
-2275129,-3139466,settlement,Tiamène,Tiamene,official,13.9,-16.216667,SN-FK,,
-2275800,-3140343,settlement,Woré,Wore,official,14.366667,-15.433333,SN-KA,,
-2275375,-3139780,hydrographic,Tindian,Tindian,official,13.183333,-13.6,SN-TC,,
-2275914,-3140499,settlement,"Youpé Amadi","Youpe Amadi",official,14.348226,-12.400627,SN-TC,,
-2275868,-3140442,settlement,Yenne-sur-Mer,Yenne-sur-Mer,variant,14.633319,-17.156938,SN-DK,,
-2275339,10088985,settlement,Tyikkité,Tyikkite,official,16.156867,-13.970342,SN-SL,,
-2274821,-3139022,settlement,Taïfa,Taifa,official,13.866667,-16.066667,SN-KL,,
-2275140,-3139480,settlement,Tiamrouss,Tiamrouss,official,15.133333,-16.816667,SN-TH,,
-2275667,-3139221,settlement,Tchilmakha,Tchilmakha,variant,15.0301,-16.2502,SN-TH,,
-2274832,-3139038,settlement,Takhembeute,Takhembeute,variant,16.020556,-16.262222,SN-SL,,
-2274832,-3139037,settlement,Takhembeut,Takhembeut,official,16.020556,-16.262222,SN-SL,,
-2274933,-3139176,hydrographic,"Canal Taouey","Canal Taouey",official,16.466667,-15.683333,SN-SL,,
-2275143,-3139485,settlement,"Tianda Tissé","Tianda Tisse",official,13.95,-16.266667,SN-FK,,
-2275741,-3130987,hydrographic,Kaléma,Kalema,variant,14.05,-13.933333,SN-TC,,
-2274895,-3139127,hypsographic,"Pointe Tandouk","Pointe Tandouk",official,12.6,-16.5,SN-ZG,,
-2274785,-3138968,settlement,Taga,Taga,official,13.866667,-15.3,SN-KA,,
-2274779,-3138959,settlement,"Tabayel Bouraïma","Tabayel Bouraima",official,13.25,-14.483333,SN-KD,,
-2275186,-3139540,settlement,Tiarène,Tiarene,official,13.633333,-15.983333,SN-KL,,
-2275070,-3139395,settlement,Tiaboguel,Tiaboguel,official,15.5811,-15.4048,SN-LG,,
-2274768,-3138947,settlement,Tabana,Tabana,official,12.756111,-15.773333,SN-SE,,
-2275307,-3139700,settlement,Tiériak,Tieriak,official,13.983333,-15.966667,SN-KL,,
-2275142,-3139482,settlement,Tianbalédié,Tianbaledie,variant,15.9831,-15.1359,SN-LG,,
-2275261,-3139643,settlement,Tiékogne,Tiekogne,official,15.519926,-15.191512,SN-LG,,
-2275427,-3139822,settlement,Tiokol,Tiokol,variant,14.983333,-16.45,SN-DB,,
-2275753,-3140275,settlement,Vilanène,Vilanene,official,13.85,-14.95,SN-KA,,
-2275171,-3139520,settlement,Tiara,Tiara,official,13.183333,-15.3,SN-KD,,
-2275553,6758269,settlement,Toubacouta,Toubacouta,variant,12.454487,-11.715134,SN-KE,,
-2275719,-3140232,settlement,"Vèndou Diabé","Vendou Diabe",official,15.8184,-15.3655,SN-LG,,
-2275501,-3139941,settlement,Tokomak,Tokomak,official,14.516667,-16.55,SN-TH,,
-2275542,-3139994,settlement,"Toubab Guillao","Toubab Guillao",variant,14.605842,-17.150172,SN-DK,,
-2275837,-3140399,settlement,"Yar Dakar","Yar Dakar",official,15.6609,-15.9956,SN-LG,,
-2275426,-3139843,settlement,Tionockh,Tionockh,variant,14.633333,-14.75,SN-LG,,
-2275901,-3140480,settlement,Yongo,Yongo,official,13.633333,-15.666667,SN-KL,,
-2274967,-3139223,settlement,Tchinngue,Tchinngue,official,14.466667,-15.816667,SN-FK,,
-2275523,-3139967,hydrographic,"Torekalante Mare","Torekalante Mare",official,14.796101,-12.364066,SN-TC,,
-2274774,-3138953,settlement,Tabandinnto,Tabandinnto,official,12.816667,-14.733333,SN-KD,,
-2275915,-3140493,settlement,Youbé-Paté,Yoube-Pate,variant,14.334457,-12.39846,SN-TC,,
-2275435,-3139859,settlement,Tioubouk,Tioubouk,official,12.866667,-14.1,SN-KD,,
-2274927,-3139169,settlement,Taoua,Taoua,official,15.633333,-16.2,SN-LG,,
-2274857,-3139072,settlement,Talito,Talito,official,12.871667,-15.754722,SN-SE,,
-2274838,-3139047,hydrographic,Takoya,Takoya,official,13.383585,-12.369903,SN-TC,,
-2275350,-3139751,park,"Forêt Classée de Tilène","Foret Classee de Tilene",official,16.215833,-16.175833,SN-SL,,
-2275168,-3139514,settlement,Tiapé,Tiape,official,12.85,-13.666667,SN-KD,,
-2275681,-3140179,settlement,Vélingara,Velingara,official,12.834167,-15.1675,SN-SE,,
-2275052,-3139346,settlement,"Thiariakh Mouride","Thiariakh Mouride",official,14.366667,-14.65,SN-KA,,
-2275059,-3139367,vegetation,"Forêt Classée de Thiès","Foret Classee de Thies",official,14.7,-17,SN-TH,,
-2274780,-3138960,settlement,"Tabayel Diaouré","Tabayel Diaoure",official,13.616667,-14.483333,SN-TC,,
-2274799,-3138991,settlement,"Taïba Buppe","Taiba Buppe",variant,14.916667,-16.35,SN-DB,,
-2275270,-3139654,settlement,Tiélémane,Tielemane,official,15.828333,-16.415833,SN-LG,,
-2274983,-3133211,spot,"Loubi Kanari","Loubi Kanari",variant,16.260556,-15.101111,SN-SL,,
-2275570,-3140027,settlement,"Touba Saloum","Touba Saloum",official,14.283333,-15.516667,SN-KA,,
-2274806,-3139002,settlement,"Taïba Moutoufal","Taiba Moutoufal",variant,14.8,-16.3,SN-DB,,
-2274811,-3139011,settlement,"Taïba Ndioufène","Taiba Ndioufene",official,14.116667,-14.983333,SN-KA,,
-2275269,-3139653,settlement,Tièlé,Tiele,official,14.95,-16.533333,SN-DB,,
-2275497,-3139936,settlement,Toguel,Toguel,variant,15.8,-16.166667,SN-LG,,
-2275897,-3140475,hydrographic,Yoli,Yoli,official,14.666667,-13.766667,SN-MT,,
-2274894,-3139125,settlement,Tandine,Tandine,official,13.016667,-16.15,SN-ZG,,
-2274915,-3139157,settlement,Taofir,Taofir,official,14.816667,-15.9,SN-DB,,
-2275074,-3139401,settlement,Tiadiaye,Tiadiaye,official,14.416667,-16.7,SN-TH,,
-2275038,-3139319,spot,"Tétiane Amadi","Tetiane Amadi",official,16.210833,-15.569722,SN-SL,,
-2275336,-3139734,settlement,Tikantali,Tikantali,variant,12.712,-12.3795,SN-KE,,
-2275599,-3140066,settlement,Tougou,Tougou,official,15.816667,-13.983333,SN-MT,,
-2274806,-3139000,settlement,"Taïba Mouloufa","Taiba Mouloufa",variant,14.8,-16.3,SN-DB,,
-2275755,-3140278,settlement,Vindé,Vinde,official,14.166667,-15.65,SN-KA,,
-2275062,-3139377,settlement,"Thillé Boubakar","Thille Boubakar",official,16.516667,-15.083333,SN-SL,,
-2274870,-3139090,administrative_region,"Région de Tambacounda","Region de Tambacounda",official,13.916667,-13.25,SN-TC,,
-2275200,-3139556,settlement,"Tiarène Sar","Tiarene Sar",official,15.533333,-16.5,SN-LG,,
-2275563,-3140020,settlement,"Touba Morikounda","Touba Morikounda",official,13.05,-15.4,SN-SE,,
-2275892,-3128890,settlement,Diokoul,Diokoul,variant,15.133333,-16.233333,SN-LG,,
-2275065,-3139387,settlement,Thioyen,Thioyen,variant,14.3,-14.9,SN-KA,,
-2275546,-3140000,settlement,"Touba Fali","Touba Fali",official,13.783333,-13.783333,SN-TC,,
-2274847,-3139058,settlement,Talibadji,Talibadji,official,13.972428,-12.622712,SN-TC,,
-2275290,-3139723,settlement,Tieyène,Tieyene,variant,15.383333,-16.15,SN-LG,,
-2275779,-3140308,settlement,"Wakélaré Tabadian","Wakelare Tabadian",official,13.116667,-13.45,SN-TC,,
-2275904,-3140483,park,"Réserve Sylvo-Pastorale de Yonoféré","Reserve Sylvo-Pastorale de Yonofere",official,15.1309,-14.4172,SN-MT,,
-2275820,-3140377,settlement,Yamané,Yamane,official,14.183333,-15.083333,SN-KA,,
-2275402,-3139816,hydrographic,"Tiogo Tiaski Mare","Tiogo Tiaski Mare",official,14.97466,-12.525124,SN-TC,,
-2275648,-3140132,settlement,Touri,Touri,variant,15.333333,-16.5,SN-LG,,
-2275292,-3139680,settlement,Tienng,Tienng,official,15.1,-16.483333,SN-TH,,
-2274900,-3139137,settlement,Tangout,Tangout,official,12.792778,-16.176111,SN-ZG,,
-2275565,-3140022,settlement,"Touba Mouride","Touba Mouride",official,14.166667,-16.1,SN-KL,,
-2275013,-3139128,settlement,Tanduk,Tanduk,variant,12.728611,-16.465833,SN-ZG,,
-2275393,-3139805,settlement,Tiobon,Tiobon,official,12.875,-16.549167,SN-ZG,,
-2275053,-3139348,spot,Thiaroye-Gare,Thiaroye-Gare,official,14.75,-17.383333,SN-DK,,
-2275216,-3139581,settlement,Tiaski,Tiaski,official,15.672,-14.2358,SN-SL,,
-2275628,10865742,settlement,"Tounde Tioune","Tounde Tioune",official,15.1487,-16.6706,SN-TH,,
-2275842,-3140405,settlement,"Yari Gouye","Yari Gouye",official,14.633333,-15.883333,SN-DB,,
-2274845,-3139055,settlement,Taléne,Talene,variant,15.3167,-16.5609,SN-LG,,
-2275391,-3139803,settlement,Tiobé,Tiobe,official,14.75,-14.883333,SN-LG,,
-2275600,-3133764,settlement,Maoubé,Maoube,variant,13.25,-15.05,SN-KD,,
-2275557,-3138943,settlement,Tabakouta,Tabakouta,variant,13.766667,-16.466667,SN-FK,,
-2275581,-3140039,hydrographic,"Toubel Bali Latié","Toubel Bali Latie",official,14.633333,-13.833333,SN-MT,,
-2275598,-3140065,settlement,Tougou,Tougou,official,15.7782,-14.0219,SN-MT,,
-2275065,-3139897,settlement,Tioyéne,Tioyene,variant,14.3,-14.9,SN-KA,,
-2275364,-3139838,settlement,Tiomone,Tiomone,variant,16.067872,-13.839554,SN-SL,,
-2275748,-3140265,hypsographic,"Kap Verde","Kap Verde",variant,14.720446,-17.50349,SN-DK,,
-2274965,-3139220,hydrographic,"Vèndou Tchilidel","Vendou Tchilidel",variant,15.0625,-15.0274,SN-LG,,
-2275019,-3139295,settlement,Tenne,Tenne,official,15.05,-16.433333,SN-TH,,
-2275504,-3139945,settlement,Tokozone,Tokozone,official,14.683333,-16.183333,SN-DB,,
-2274936,-3139181,settlement,Taplan,Taplan,variant,12.683333,-16.083333,SN-ZG,,
-2275918,-3140509,administrative_region,"Département de Ziguinchor",DepartementdeZiguinchor,official,12.522006,-16.216207,SN-ZG,,
-2274941,-3139039,settlement,Takhoum,Takhoum,variant,14.483333,-16.916667,SN-TH,,
-2275478,-3139910,settlement,Tivor,Tivor,variant,15.7249,-16.4496,SN-LG,,
-2274859,-3139196,settlement,Tatal,Tatal,variant,14.8,-15.533333,SN-FK,,
-2275580,-3140038,settlement,"Toubel Bali","Toubel Bali",official,14.516667,-13.5,SN-MT,,
-2275706,-3140217,settlement,"Vélor Sérère","Velor Serere",official,14.083333,-16.216667,SN-KL,,
-2275846,-3140410,park,Yassine,Yassine,official,12.835556,-15.6675,SN-SE,,
-2275145,-3139487,settlement,Tiandiagne,Tiandiagne,official,14.65,-16.133333,SN-DB,,
-2275442,-3139868,settlement,Tioumbé,Tioumbe,official,14.766667,-16.05,SN-DB,,
-2275816,-3140372,settlement,Yal,Yal,official,13.883333,-15.833333,SN-KL,,
-2275561,-3139996,settlement,"Touba Boulé","Touba Boule",variant,14.566667,-15.95,SN-DB,,
-2274902,-3139140,settlement,Tanime,Tanime,variant,15.609,-16.1222,SN-LG,,
-2274911,-3139152,hydrographic,Tantank,Tantank,official,12.774167,-16.672778,SN-ZG,,
-2275510,-3139953,settlement,Tonbou,Tonbou,official,14.1,-16.716667,SN-FK,,
-2275396,-3139808,settlement,Tiodordé,Tiodorde,official,14.283333,-13.233333,SN-TC,,
-2274928,-3139170,settlement,"Taoua Fal","Taoua Fal",official,14.983333,-16.55,SN-DB,,
-2274748,-3140011,settlement,Toubakouta,Toubakouta,variant,12.7025,-15.819167,SN-SE,,
-2275013,-3139292,settlement,Tengout,Tengout,variant,12.728611,-16.465833,SN-ZG,,
-2275537,-3139984,settlement,Touba,Touba,official,14.166667,-15.633333,SN-KA,,
-2275227,-3139595,hydrographic,Tiatiolol,Tiatiolol,official,16.261695,-14.05053,SN-SL,,
-2275597,-3140064,park,Tougon,Tougon,short,14.7,-17.05,SN-TH,,
-2275885,-3140459,spot,Yilo,Yilo,official,16.170278,-15.263333,SN-SL,,
-2275456,-3139386,settlement,Thiorouck,Thiorouck,variant,14.15,-13.283333,SN-TC,,
-2275605,-3140073,settlement,Toukar,Toukar,official,14.533333,-16.483333,SN-FK,,
-2275661,-3140149,hydrographic,"Tiangol Tsiaki","Tiangol Tsiaki",variant,14.941302,-12.736006,SN-MT,,
-2275152,-3139497,settlement,"Tiangol Siré","Tiangol Sire",official,14.416667,-13.266667,SN-TC,,
-2274803,-3138997,settlement,"Taïba Mama","Taiba Mama",official,13.933333,-15.75,SN-KL,,
-2275289,-3139677,spot,Tienguélol,Tienguelol,official,16.148541,-14.17909,SN-SL,,
-2275738,-3140330,settlement,"Wendou Seno","Wendou Seno",variant,15.2707,-15.0865,SN-LG,,
-2275137,-3139477,settlement,"Tiamène Diafori","Tiamene Diafori",official,13.783333,-16.133333,SN-KL,,
-2274974,-3139231,hydrographic,Tchordi,Tchordi,variant,15.2608,-15.8449,SN-LG,,
-2275208,10859075,settlement,Tiaramalél,Tiaramalel,official,12.6395,-12.4566,SN-KE,,
-2275371,-3139776,hydrographic,"Timmbinn Fara","Timmbinn Fara",official,13.033333,-13.233333,SN-TC,,
-2275920,-3140507,hydrographic,Ziguinchor,Ziguinchor,short,12.583333,-16.266667,SN-ZG,,
-2275314,-3139708,settlement,"Tiétenlé Diabi","Tietenle Diabi",variant,15.9139,-14.6355,SN-SL,,
-2275525,-3139971,park,Toro,Toro,official,16,-14.75,SN-SL,,
-2275595,9156614,settlement,"Toug Peul","Toug Peul",official,15.885,-16.473889,SN-SL,,
-2274990,-3139251,settlement,Témanto,Temanto,official,12.910556,-15.31,SN-SE,,
-2275718,-3140230,settlement,"Vèndou Dèlèbè","Vendou Delebe",official,15.7783,-15.5692,SN-LG,,
-2274748,-3138911,settlement,Subikouroto,Subikouroto,official,12.7025,-15.819167,SN-SE,,
-2275014,-3139286,settlement,"Téné Fodé","Tene Fode",official,14.35,-15.916667,SN-FK,,
-2275229,-3139597,settlement,Tiatol,Tiatol,official,15.0048,-14.2743,SN-MT,,
-2275780,-3140309,settlement,Wakélibougou,Wakelibougou,official,13.533333,-13.85,SN-TC,,
-2275882,-3140456,settlement,Yervaye,Yervaye,variant,15.751111,-16.318611,SN-LG,,
-2274825,-3139026,settlement,Taïffa,Taiffa,official,14.033333,-15.766667,SN-KA,,
-2274739,-3138889,settlement,Soussoutou,Soussoutou,official,13,-14.933333,SN-KD,,
-2274879,-3139101,settlement,Tamé,Tame,official,14.2992,-12.081972,SN-TC,,
-2274807,-3139004,settlement,"Taïba Ndao","Taiba Ndao",official,14.9,-16.283333,SN-DB,,
-2274944,-3139191,settlement,"Tata Batchili","Tata Batchili",official,14.897442,-12.597254,SN-MT,,
-2275751,-3140273,settlement,Vigué,Vigue,official,13.933333,-13.116667,SN-TC,,
-2274758,-3138934,settlement,Taba,Taba,official,14.283333,-14.983333,SN-KA,,
-2275594,-3140059,settlement,"Toufoudé Gandé","Toufoude Gande",variant,16.090156,-13.863942,SN-SL,,
-2275873,-3140447,settlement,Yéral,Yeral,official,15.7142,-15.9431,SN-LG,,
-2275409,-3139825,settlement,Tiolane,Tiolane,official,15.05,-16.233333,SN-TH,,
-2275323,-3139719,settlement,"Tiével Mama Yéro","Tievel Mama Yero",official,13.05,-14.283333,SN-KD,,
-2275005,-3139275,settlement,"Temmèye Salane","Temmeye Salane",variant,16.3325,-15.770833,SN-SL,,
-2275645,-3140126,settlement,Tourékounda,Tourekounda,official,12.517222,-16.067778,SN-ZG,,
-2275400,-3139813,settlement,Tiofak,Tiofak,official,14.166667,-16.05,SN-KL,,
-2274852,-3139065,settlement,Taliko-Foulbé,Taliko-Foulbe,official,13.912106,-12.897944,SN-TC,,
-2274886,-3139115,settlement,Tanbananding,Tanbananding,official,12.483333,-15.55,SN-KD,,
-2275693,-3140197,park,"Réserve Sylvo-Pastorale de Vélingara","Reserve Sylvo-Pastorale de Velingara",variant,15.1606,-14.6515,SN-LG,,
-2275122,-3139470,settlement,Tiamène,Tiamene,variant,14.4,-16.616667,SN-FK,,
-2274994,-3139255,settlement,"Témanto Mamadou","Temanto Mamadou",official,13.483333,-15.016667,SN-KD,,
-2275482,-3139918,settlement,Tjissé,Tjisse,official,13.8,-15.666667,SN-KL,,
-2274946,-3139202,settlement,Tattaguine,Tattaguine,variant,14.45,-16.633333,SN-FK,,
-2275008,-3139272,settlement,"Temkilam Ilo","Temkilam Ilo",official,12.85,-14.7,SN-KD,,
-2275831,10854997,settlement,"Yaoualdé Sinntiou","Yaoualde Sinntiou",official,15.7552,-14.3236,SN-SL,,
-2275328,-3139725,settlement,Tigdiam,Tigdiam,official,14.366667,-16.283333,SN-KL,,
-2274966,-3139222,settlement,Tchinkor,Tchinkor,official,12.733333,-13.15,SN-TC,,
-2275343,-3139742,settlement,Tilaye,Tilaye,official,12.858333,-16.396667,SN-ZG,,
-2275169,-3136134,settlement,NTiarr,NTiarr,variant,15.842222,-16.4225,SN-SL,,
-2275329,-3139726,settlement,Tignito,Tignito,official,15.0719,-15.9143,SN-LG,,
-2275521,-3139964,settlement,Tordieul,Tordieul,official,15.4268,-14.9126,SN-LG,,
-2275457,-3139884,settlement,Tiourour,Tiourour,official,15.5429,-15.9934,SN-LG,,
-2275148,-3139344,settlement,Thiangaye,Thiangaye,variant,16.533333,-15.166667,SN-SL,,
-2275162,-3139508,settlement,Tiankoye,Tiankoye,official,12.5792,-12.6591,SN-KE,,
-2275685,-3140183,settlement,Vélingara,Velingara,official,13.371435,-12.952431,SN-TC,,
-2275761,-3140335,settlement,"Windou Bosseabe","Windou Bosseabe",variant,15.313259,-12.991955,SN-MT,,
-2275688,-3140187,settlement,Vélingara,Velingara,official,13.883333,-15.8,SN-KL,,
-2274781,-3138961,settlement,"Tabayel Sanba","Tabayel Sanba",official,12.866667,-15.05,SN-KD,,
-2275502,-3139942,settlement,Tokorag,Tokorag,official,14.55,-16.55,SN-TH,,
-2275148,-3139361,settlement,Thiengaye,Thiengaye,variant,16.533333,-15.166667,SN-SL,,
-2274943,-3139190,settlement,Tata,Tata,official,14.1,-13.416667,SN-TC,,
-2275206,-3139566,settlement,"Tiari Mbaye","Tiari Mbaye",official,15.333333,-16.533333,SN-LG,,
-2275555,-3139113,settlement,Tanbakouta,Tanbakouta,variant,12.483333,-16.283333,SN-ZG,,
-2275115,-3139451,settlement,"Tialog Niane","Tialog Niane",official,15.45,-16.116667,SN-LG,,
-2275158,-3139418,settlement,Tiakon-Iraye,Tiakon-Iraye,variant,15.591289,-13.391396,SN-MT,,
-2274806,-3139001,settlement,"Taïba Moutoufa","Taiba Moutoufa",official,14.8,-16.3,SN-DB,,
-2275754,-3140277,settlement,Vindaye,Vindaye,official,12.483611,-16.693333,SN-ZG,,
-2275691,-3140193,settlement,Vélingara,Velingara,official,15.5839,-16.2585,SN-LG,,
-2274941,-3139032,settlement,Takboun,Takboun,variant,14.483333,-16.916667,SN-TH,,
-2275679,-3140195,administrative_region,"Département de Velingara","Departement de Velingara",variant,13.023389,-13.861219,SN-KD,,
-2274863,-3139081,settlement,Tamani,Tamani,official,12.489444,-16.6575,SN-ZG,,
-2275069,-3139394,settlement,Tiabla,Tiabla,official,14.6,-17.133333,SN-TH,,
-2275509,-3139951,settlement,Tonboro,Tonboro,official,13.583333,-14.116667,SN-TC,,
-2274778,-3138958,settlement,Tabayel,Tabayel,official,13.033333,-15.666667,SN-SE,,
-2274977,-3139236,settlement,Tèfe,Tefe,variant,16.046111,-16.320278,SN-SL,,
-2274751,-3138915,hypsographic,"Pointe Sud","Pointe Sud",official,16.02,-16.508056,SN-SL,,
-2274813,-3139013,settlement,"Taïba Seï","Taiba Sei",variant,15.55,-16.216667,SN-LG,,
-2275330,-3139727,settlement,"Tignol Maoudo","Tignol Maoudo",official,14.966667,-15.616667,SN-LG,,
-2275709,-3140231,settlement,Vendou-Delo,Vendou-Delo,variant,15.1784,-15.2602,SN-LG,,
-2275345,-3139745,settlement,"Tilé Boulou","Tile Boulou",official,14.8,-16.683333,SN-TH,,
-2275778,-3140307,hypsographic,"Wakali Guindé","Wakali Guinde",official,14.879589,-12.508565,SN-TC,,
-2275535,-3139982,settlement,Touba,Touba,short,13.95,-15.833333,SN-KL,,
-2275689,10123676,settlement,Vélingara,Velingara,variant,14.238054,-12.964639,SN-TC,,
-2275075,-3139402,settlement,"Tiadié Babou","Tiadie Babou",official,14.283333,-15.783333,SN-KA,,
-2274866,-3139085,settlement,Tamba,Tamba,official,13.883333,-15.266667,SN-KA,,
-2275426,-3139845,settlement,"Tionok Sangué","Tionok Sangue",official,14.633333,-14.75,SN-LG,,
-2275002,-3139266,settlement,"Témento Méta","Temento Meta",official,12.933333,-14.3,SN-KD,,
-2275876,-3140268,settlement,Verma,Verma,variant,15.120081,-12.744458,SN-MT,,
-2275808,-3140358,hydrographic,Yadiourou,Yadiourou,official,14.3,-13.65,SN-TC,,
-2275441,-3139866,settlement,"Tioukougne Peul","Tioukougne Peul",official,15.45,-16.733333,SN-TH,,
-2275080,-3139408,hydrographic,"Tiagui Tokossel","Tiagui Tokossel",official,15.916116,-14.265253,SN-SL,,
-2274974,10857066,hydrographic,Tiordi,Tiordi,official,15.2608,-15.8449,SN-LG,,
-2275726,-3140239,settlement,"Vèndou Koumba Har","Vendou Koumba Har",variant,15.8399,-15.4818,SN-LG,,
-2275872,-3137675,settlement,"Saré Ngaye","Sare Ngaye",variant,13.183333,-15.65,SN-SE,,
-2275301,-3139693,settlement,Tiéolé,Tieole,official,16.488611,-15.019722,SN-SL,,
-2275173,-3139527,settlement,"Tiara Diolfoulbé","Tiara Diolfoulbe",variant,13.966667,-13.133333,SN-TC,,
-2274930,-3139173,settlement,"Taoua Gueye","Taoua Gueye",official,15.416667,-16.516667,SN-LG,,
-2274942,-3139189,settlement,Tassette,Tassette,variant,14.6,-16.866667,SN-TH,,
-2275470,-3138845,settlement,"Soulkhou Thissé","Soulkhou Thisse",variant,14.05,-15.533333,SN-KA,,
-2275379,-3139788,hypsographic,"Île de Tine Dine","Ile de Tine Dine",official,14.133333,-16.816667,SN-TH,,
-2275522,-3139968,settlement,Toro,Toro,variant,14.886162,-17.079619,SN-TH,,
-2275344,-3139743,settlement,Tilaye,Tilaye,official,13.083333,-16.05,SN-ZG,,
-2275360,-3139762,settlement,Tilmaka,Tilmaka,official,15.3,-16.083333,SN-LG,,
-2275671,-3140165,settlement,Valel,Valel,official,15.231493,-12.984252,SN-MT,,
-2275145,-3139488,settlement,Tiandiane,Tiandiane,variant,14.65,-16.133333,SN-DB,,
-2275604,-3140072,hydrographic,Toukanaya,Toukanaya,official,13.693849,-12.160219,SN-TC,,
-2275249,-3139629,settlement,Tiékène,Tiekene,official,13.7,-15.533333,SN-KL,,
-2275414,-3139288,settlement,Ténéfout,Tenefout,variant,13.583333,-16.183333,SN-FK,,
-2275252,-3139632,settlement,Tiékène,Tiekene,official,14.7,-15.966667,SN-DB,,
-2274864,-3139083,settlement,Tamassanka,Tamassanka,official,12.916667,-14.933333,SN-KD,,
-2274932,-3139175,hydrographic,Taoué,Taoue,official,16.465278,-15.696111,SN-SL,,
-2275127,-3139463,settlement,Tiambène,Tiambene,official,15.833333,-16.3,SN-LG,,
-2275479,-3139915,hydrographic,Tjidéko,Tjideko,official,16.43897,-14.191441,SN-SL,,
-2275093,-3139426,settlement,Tiala,Tiala,official,15.2413,-15.6023,SN-LG,,
-2275518,-3139961,settlement,Toniataba,Toniataba,official,12.683333,-15.466667,SN-SE,,
-2275095,-3139429,settlement,Tialane,Tialane,official,14.066667,-15.883333,SN-KL,,
-2275271,9155516,settlement,Tiélé,Tiele,official,15.853333,-16.298056,SN-LG,,
-2275308,-3139701,settlement,Tiéribessi,Tieribessi,official,12.95,-13.75,SN-KD,,
-2275889,9137955,hydrographic,"Baie d’Yof","Baie d'Yof",variant,14.765833,-17.4725,SN-DK,,
-2275275,-3139360,settlement,Thiénaba,Thienaba,variant,14.75,-16.8,SN-TH,,
-2275039,-3139320,settlement,Tétiour,Tetiour,official,15.233333,-16.433333,SN-TH,,
-2275142,10857061,settlement,Tiambalédié,Tiambaledie,official,15.9831,-15.1359,SN-LG,,
-2275452,-3139879,settlement,Tioupane,Tioupane,official,14.216667,-16.283333,SN-KL,,
-2275053,-3139571,spot,"Tiaroye Gare","Tiaroye Gare",variant,14.75,-17.383333,SN-DK,,
-2275781,-3140304,settlement,"Wack Ngouna","Wack Ngouna",variant,13.75,-16.066667,SN-KL,,
-2275325,-3139721,settlement,Tiéwal,Tiewal,official,13.266667,-13.916667,SN-KD,,
-2275151,-3139496,spot,"Tiangol Palol","Tiangol Palol",official,15.4691,-14.8061,SN-LG,,
-2275255,-3139636,settlement,"Tiékéne Baïral","Tiekene Bairal",variant,15.733333,-16.166667,SN-LG,,
-2275432,-3139855,settlement,Tioubalel,Tioubalel,official,16.482861,-14.391265,SN-SL,,
-2275024,-3139301,settlement,Téourou,Teourou,official,14.416667,-15.983333,SN-FK,,
-2275759,6890569,spot,"Vèndé Pélel","Vende Pelel",official,16.202102,-14.684175,SN-SL,,
-2275132,-3139469,settlement,Tiamène,Tiamene,official,14.016667,-15.966667,SN-KL,,
-2275652,-3140135,settlement,Tourokoto,Tourokoto,official,13.321473,-11.833045,SN-TC,,
-2275378,-3139785,settlement,Tindinnto,Tindinnto,official,12.983333,-15.766667,SN-SE,,
-2274805,-3138999,settlement,"Taïba Mbaye","Taiba Mbaye",official,15.0206,-16.877,SN-TH,,
-2275280,-3139666,settlement,"Tiènekoli Diagne","Tienekoli Diagne",official,15.016667,-16.1,SN-LG,,
-2274831,-3139036,settlement,Takhbeut,Takhbeut,official,15.983333,-16.166667,SN-000,,
-2275222,10857058,settlement,"Tiat Ngol","Tiat Ngol",official,15.7398,-15.8737,SN-LG,,
-2275789,-3140320,settlement,Warbé,Warbe,official,13,-14.816667,SN-KD,,
-2274871,-3139092,vegetation,"Forêt de Tambacounda-Nord","Foret de Tambacounda-Nord",official,14.066667,-13.75,SN-TC,,
-2274956,-3139209,settlement,Tchabourli,Tchabourli,official,14.619313,-12.457489,SN-TC,,
-2275381,-3139790,hydrographic,Tingoto,Tingoto,official,13.433333,-13.233333,SN-TC,,
-2274852,-3139066,settlement,"Tali Koiel","Tali Koiel",variant,13.912106,-12.897944,SN-TC,,
-2275444,-3139870,settlement,Tioump,Tioump,official,14.95,-15.933333,SN-DB,,
-2274795,-3138982,settlement,Taïba,Taiba,official,14.933333,-16.25,SN-DB,,
-2275709,-3140221,settlement,Vèndou,Vendou,official,15.1784,-15.2602,SN-LG,,
-2274985,-3139246,hydrographic,"Tchangol Télorgoul","Tchangol Telorgoul",variant,14.826567,-12.888127,SN-MT,,
-2275451,-3139878,settlement,Tiouoana,Tiouoana,official,12.9,-13.966667,SN-KD,,
-2274922,-3139164,settlement,Taoua,Taoua,official,14.433333,-16.066667,SN-FK,,
-2274948,-3139198,settlement,Taten,Taten,variant,14.666667,-16.9,SN-TH,,
-2275819,-3140376,settlement,Yamana,Yamana,official,14.9,-15.783333,SN-DB,,
-2275313,-3139707,settlement,"Tiétène Bara","Tietene Bara",official,13.866667,-14.716667,SN-KA,,
-2275065,-3139388,settlement,Thioyène,Thioyene,official,14.3,-14.9,SN-KA,,
-2275582,-3140042,settlement,"Toubéré Amadou","Toubere Amadou",official,14.4,-13.533333,SN-TC,,
-2275017,-3139293,hydrographic,"Tenko Gabiél","Tenko Gabiel",official,12.916667,-13.283333,SN-TC,,
-2275019,-3139285,settlement,Téne,Tene,variant,15.05,-16.433333,SN-TH,,
-2274881,-3139104,settlement,Tanaf,Tanaf,official,12.649722,-15.426111,SN-SE,,
-2275164,-3139510,settlement,Tiaouane,Tiaouane,official,15.316667,-16.366667,SN-TH,,
-2275547,-3139999,settlement,"Touba Fal","Touba Fal",variant,14.866667,-15.983333,SN-DB,,
-2274883,-3139108,settlement,Tanbakoumba,Tanbakoumba,official,12.483333,-16.2,SN-ZG,,
-2275263,-3139358,settlement,Thiel-Sibé,Thiel-Sibe,variant,15.822494,-13.505375,SN-MT,,
-2274889,-3139118,settlement,Tanbokolé,Tanbokole,official,12.433333,-11.85,SN-KE,,
-2275433,-3139857,settlement,Tioubène,Tioubene,official,13.816667,-15.983333,SN-KL,,
-2274934,-3139178,hydrographic,Taoun,Taoun,official,12.816667,-13.116667,SN-KE,,
-2274784,-3138966,settlement,Taboto,Taboto,official,13.416667,-13.016667,SN-TC,,
-2275051,-3139464,settlement,Tiamen,Tiamen,variant,15.4778,-15.8747,SN-LG,,
-2275331,-3139728,settlement,"Tiguéré Soubalbé","Tiguere Soubalbe",official,15.708094,-13.287136,SN-MT,,
-2274746,-3138893,settlement,Soutoto,Soutoto,variant,13.800251,-12.716286,SN-TC,,
-2275881,-3140455,settlement,Yervago,Yervago,official,14.016667,-16.35,SN-FK,,
-2275886,-3140495,settlement,Youdi,Youdi,variant,15.6,-16.633333,SN-LG,,
-2275569,-3140032,settlement,Toubba,Toubba,variant,13.866667,-16.033333,SN-KL,,
-2274888,10859076,settlement,Tambanoumouya,Tambanoumouya,official,12.825,-12.4266,SN-KE,,
-2274814,-3139015,settlement,"Taïba Sinngué","Taiba Sinngue",variant,15.3163,-15.9737,SN-LG,,
-2275248,-3139628,settlement,Tiékane,Tiekane,official,14.966667,-16.383333,SN-DB,,
-2275886,-3140462,settlement,Yodi,Yodi,official,15.6,-16.633333,SN-LG,,
-2275322,-3139718,settlement,"Tiével Bezel","Tievel Bezel",official,13.15,-13.916667,SN-KD,,
-2275060,-3139371,administrative_region,"Thies Region","Thies Region",variant,14.866667,-16.866667,SN-TH,,
-2274749,-3138913,hydrographic,"Banc du Sud","Banc du Sud",official,12.5,-16.816667,SN-ZG,,
-2275242,-3139620,settlement,Tidji,Tidji,official,16.103056,-16.118333,SN-SL,,
-2275587,-3140047,settlement,"Toube Sanveon","Toube Sanveon",official,14.583333,-13.6,SN-MT,,
-2275533,-3139980,settlement,Touba,Touba,official,13.633333,-16.066667,SN-KL,,
-2275049,-3139333,settlement,"Tévè Keur Massé","Teve Keur Masse",official,14.666667,-15.866667,SN-DB,,
-2275770,-3140295,settlement,Vinsako,Vinsako,official,12.639444,-15.281667,SN-KD,,
-2275372,-3139793,settlement,Tinndala,Tinndala,variant,12.483333,-16.183333,SN-ZG,,
-2274837,-3139046,settlement,Takoutala,Takoutala,official,14.154042,-12.240229,SN-TC,,
-2275138,-3139478,settlement,"Tiamène Oualo","Tiamene Oualo",official,13.766667,-15.933333,SN-KL,,
-2275655,-3140138,settlement,Toutoumé,Toutoume,variant,12.75,-14.35,SN-KD,,
-2275832,-3140394,spot,Yaouara,Yaouara,official,16.366818,-14.828921,SN-SL,,
-2274830,-3139035,settlement,Takème,Takeme,official,12.816667,-16.2,SN-ZG,,
-2275763,10857050,settlement,"Vèndou Boki","Vendou Boki",official,15.8845,-15.5292,SN-LG,,
-2275169,-3139518,settlement,Tiar,Tiar,variant,15.842222,-16.4225,SN-SL,,
-2275664,-3140153,hydrographic,"Tuba Kuta Bolon","Tuba Kuta Bolon",official,13.366667,-14.283333,SN-000,,
-2275459,-3139886,settlement,Tiouti,Tiouti,official,15.855655,-13.500173,SN-MT,,
-2274797,-3138986,settlement,"Taïba Amari Béri","Taiba Amari Beri",variant,15.4414,-16.5384,SN-LG,,
-2275646,-3140127,settlement,Tourékounda,Tourekounda,official,12.847222,-15.539722,SN-SE,,
-2275054,-3139359,administrative_region,Thiénaba,Thienaba,official,14.75,-16.75,SN-TH,,
-2275799,-3140342,hydrographic,Wongourou,Wongourou,official,12.5149,-12.5235,SN-KE,,
-2275090,-3139421,settlement,Tial,Tial,official,15.233333,-16.8,SN-TH,,
-2275774,-3140302,settlement,Vouropana,Vouropana,official,13.533333,-15.116667,SN-KD,,
-2275519,-3139962,settlement,Tonkouto,Tonkouto,official,13.563486,-12.114077,SN-TC,,
-2275869,-3140440,settlement,Yénima,Yenima,official,15.116667,-16.666667,SN-TH,,
-2274904,14013142,settlement,Tankanto,Tankanto,official,12.8225,-15.037778,SN-KD,,
-2275790,9141316,settlement,Wakhal,Wakhal,official,14.885075,-17.08963,SN-TH,,
-2275888,-3140464,settlement,Yof,Yof,variant,14.757418,-17.464625,SN-DK,,
-2275415,-3139832,settlement,Tiom,Tiom,official,14.4,-15.616667,SN-KA,,
-2275483,-3139389,settlement,Thissé,Thisse,variant,13.783333,-15.566667,SN-KL,,
-2275263,-3139355,settlement,Thiel,Thiel,variant,15.822494,-13.505375,SN-MT,,
-2275581,-3140041,hydrographic,"Vallée de Toubel Baly","Vallee de Toubel Baly",variant,14.633333,-13.833333,SN-MT,,
-2275131,-3139468,settlement,Tiamène,Tiamene,official,13.95,-15.4,SN-KA,,
-2274854,-3139068,settlement,Talimango,Talimango,official,13.823059,-12.989752,SN-TC,,
-2275403,-3139818,settlement,"Tioké Kiouar","Tioke Kiouar",official,15.116667,-16.716667,SN-TH,,
-2275406,-3139821,settlement,Tiokka,Tiokka,official,16.225496,-14.066082,SN-SL,,
-2275281,-3139667,settlement,"Tiènekoli Diop","Tienekoli Diop",official,15.016667,-16.083333,SN-LG,,
-2275549,-3140004,settlement,Toubak,Toubak,official,13.516667,-15.05,SN-KD,,
-2275574,-3140076,settlement,Toul,Toul,variant,14.816667,-16.666667,SN-TH,,
-2275147,-3139491,settlement,"Tianga Keur Séring Layène","Tianga Keur Sering Layene",official,13.883333,-15.716667,SN-KL,,
-2275644,-3140124,settlement,"Touré Fass","Toure Fass",official,15.05,-16.166667,SN-LG,,
-2275298,-3139690,settlement,Tiéo,Tieo,official,14.516667,-16.216667,SN-FK,,
-2274972,-3139228,settlement,"Tchissé Modou Kossas","Tchisse Modou Kossas",official,14.65,-15.666667,SN-FK,,
-2275798,-3140341,settlement,Woloto,Woloto,official,13.05,-14.216667,SN-KD,,
-2275257,-3139639,settlement,Tiéki,Tieki,variant,14.61028,-17.077316,SN-TH,,
-2275206,-3139699,settlement,Tiéri,Tieri,variant,15.333333,-16.533333,SN-LG,,
-2275393,-3139383,settlement,Thiobon,Thiobon,variant,12.875,-16.549167,SN-ZG,,
-2275000,-3139263,settlement,"Témento Dimba","Temento Dimba",official,12.8,-14.266667,SN-KD,,
-2274809,-3139007,settlement,"Taiba N’Diaga","Taiba N'Diaga",variant,15.0371,-16.8793,SN-TH,,
-2274860,-3139078,settlement,Taltal,Taltal,official,14.983333,-15.983333,SN-DB,,
-2275922,14093607,administrative_region,Ziguinchor,Ziguinchor,official,12.8,-16.366667,SN-ZG,,
-2274735,-3138882,spot,Souska,Souska,official,16.380717,-14.400239,SN-SL,,
-2275663,-3139975,settlement,Touabo,Touabo,variant,14.977177,-12.464472,SN-TC,,
-2275695,-3140198,settlement,"Vélingara Biaoué","Velingara Biaoue",variant,13.066667,-14.4,SN-KD,,
-2275430,-3139853,spot,Tioubalel,Tioubalel,official,15.752453,-13.357626,SN-MT,,
-2275700,-3140184,settlement,Velingara,Velingara,variant,13.383333,-13.483333,SN-TC,,
-2275037,6890572,spot,Tétierlo,Tetierlo,official,16.336721,-14.861077,SN-SL,,
-2275888,-3140467,settlement,Yoff,Yoff,official,14.757418,-17.464625,SN-DK,,
-2274884,-3139110,settlement,Tanbakounda,Tanbakounda,official,12.616667,-15.983333,SN-ZG,,
-2275018,-3139280,settlement,Tendimane,Tendimane,variant,12.765278,-16.306667,SN-ZG,,
-2274737,-3138884,settlement,Soussane,Soussane,official,14.4,-16.816667,SN-TH,,
-2275005,-3139273,settlement,Temmé,Temme,variant,16.3325,-15.770833,SN-SL,,
-2275084,-3139412,spot,Tiakélé,Tiakele,official,16.402408,-14.742177,SN-SL,,
-2275720,-3140233,park,"Vèndou Fagnima","Vendou Fagnima",short,13.166667,-14.583333,SN-KD,,
-2275517,-3140555,hydrographic,"Rio de Tonhatabá","Rio de Tonhataba",official,12.666667,-14.95,S1-000,,
-2275037,-3139318,spot,Tétèrlo,Teterlo,variant,16.336721,-14.861077,SN-SL,,
-2275891,-3140468,spot,Yogossouna,Yogossouna,official,14.8,-15.383333,SN-LG,,
-2274913,-3139155,settlement,Tao,Tao,official,12.833333,-16.183333,SN-ZG,,
-2275183,-3139557,settlement,Tiaret,Tiaret,variant,14.1,-16.483333,SN-FK,,
-2275624,-3140096,settlement,Toumboura,Toumboura,variant,13.968705,-12.216485,SN-TC,,
-2275522,-3139965,settlement,Tore,Tore,variant,14.886162,-17.079619,SN-TH,,
-2274738,-3138888,settlement,Soussoune,Soussoune,variant,14.583333,-16.766667,SN-TH,,
-2274918,-3139160,settlement,Taoua,Taoua,official,13.9,-15.416667,SN-KA,,
-2275636,-3140112,settlement,Tounène,Tounene,official,15.083333,-16.25,SN-TH,,
-2275271,-3139357,settlement,"Thiélè N’diagne","Thiele N'diagne",variant,15.853333,-16.298056,SN-LG,,
-2275041,-3139324,settlement,"Teudeu Biti","Teudeu Biti",official,14.316667,-15.75,SN-KA,,
-2275776,-3140305,hydrographic,Wadanba,Wadanba,variant,12.951188,-11.912237,SN-KE,,
-2275077,-3139404,settlement,Tiaféna,Tiafena,official,12.883333,-14.45,SN-KD,,
-2274929,-3139171,settlement,"Taoua Gou","Taoua Gou",official,14.733333,-16.45,SN-DB,,
-2275815,-3140370,settlement,"Yak Sao","Yak Sao",official,14.65,-15.6,SN-FK,,
-2274809,-3139008,settlement,"Taïba N’Diaya","Taiba N'Diaya",variant,15.0371,-16.8793,SN-TH,,
-2275612,-3140087,settlement,Touly,Touly,variant,14.72896,-17.081687,SN-TH,,
-2275513,-3139956,settlement,Tongon,Tongon,official,15.9,-16.433333,SN-SL,,
-2275555,-3140010,settlement,Toubakouta,Toubakouta,official,12.483333,-16.283333,SN-ZG,,
-2274935,-3139179,settlement,"Taourou Gari","Taourou Gari",official,14.45,-15.9,SN-FK,,
-2275205,-3139565,settlement,Tiarigne,Tiarigne,official,15.533333,-16.416667,SN-LG,,
-2275472,-3139904,administrative_region,Tivaouane,Tivaouane,official,15.085186,-16.710584,SN-TH,,
-2275025,-3139302,settlement,Téourou,Teourou,official,14.466667,-16.016667,SN-FK,,
-2275882,-3140407,settlement,Yarouaye,Yarouaye,variant,15.751111,-16.318611,SN-LG,,
-2275013,-3139284,settlement,Tendouk,Tendouk,official,12.728611,-16.465833,SN-ZG,,
-2275101,-3139436,settlement,Tialé,Tiale,official,14.933333,-16.666667,SN-DB,,
-2275257,-3139351,settlement,Thiégui,Thiegui,variant,14.61028,-17.077316,SN-TH,,
-2274906,-3139144,settlement,Tankon,Tankon,official,13.25,-15.5,SN-SE,,
-2275034,-3139315,spot,"Téterlé Diabé","Teterle Diabe",official,15.8866,-14.9376,SN-LG,,
-2274876,-3139098,settlement,Tambakounda,Tambakounda,official,13.133333,-16.533333,SN-ZG,,
-2275686,-3140185,settlement,Vélingara,Velingara,official,13.566667,-13.55,SN-TC,,
-2275065,-3139894,settlement,Tioyen,Tioyen,variant,14.3,-14.9,SN-KA,,
-2275592,-3140056,hydrographic,"Tiangol Toudoundou Noli","Tiangol Toudoundou Noli",official,15.5987,-14.4383,SN-LG,,
-2275677,-3140175,settlement,Vélia,Velia,official,12.8,-13.866667,SN-KD,,
-2274870,-3137958,administrative_region,"Région du Sénégal Oriental","Region du Senegal Oriental",variant,13.916667,-13.25,SN-TC,,
-2275350,-3132371,park,"Brousse Killen","Brousse Killen",variant,16.215833,-16.175833,SN-SL,,
-2275256,-3139413,settlement,"Tia Khaou","Tia Khaou",variant,15.333333,-16.55,SN-LG,,
-2275015,-3139289,settlement,Ténéfout,Tenefout,variant,14.566667,-16.166667,SN-DB,,
-2275354,-3139755,settlement,Tilla,Tilla,official,16.052222,-16.329722,SN-SL,,
-2275353,-3139754,settlement,"Tili Daga","Tili Daga",official,16.328826,-14.361331,SN-SL,,
-2274787,-3138971,settlement,"Tag Guéye","Tag Gueye",official,14.266667,-15,SN-KA,,
-2275461,-3139888,settlement,Tioutiougne,Tioutiougne,variant,14.45,-16.216667,SN-FK,,
-2274753,-3138922,settlement,Suelle,Suelle,variant,12.949167,-16.283889,SN-ZG,,
-2275856,-3140424,settlement,Yaye,Yaye,official,14.666667,-16.583333,SN-DB,,
-2274736,-3138883,spot,Soussané,Soussane,official,16.382778,-15.245833,SN-SL,,
-2274981,-3139241,settlement,Tékinnguel,Tekinnguel,official,15.3,-13.783333,SN-MT,,
-2274979,-3139239,settlement,Téïba,Teiba,official,15.690669,-13.414432,SN-MT,,
-2275551,-3140006,settlement,"Touba Kane","Touba Kane",official,15.033333,-16.55,SN-TH,,
-2275030,-3139308,hydrographic,Térméssé,Termesse,official,12.5502,-12.7227,S1-000,,
-2275848,9355042,settlement,"Yassiré Lake","Yassire Lake",variant,15.04876,-12.683094,SN-MT,,
-2275097,-3139431,spot,Tialdatié,Tialdatie,official,16.143889,-15.169444,SN-SL,,
-2275304,-3139696,settlement,Tièp,Tiep,official,14.833333,-16.5,SN-DB,,
-2275189,-3139544,settlement,Tiarène,Tiarene,official,14.95,-15.95,SN-DB,,
-2275448,-3139875,settlement,Tiounène,Tiounene,official,15.05,-16.5,SN-TH,,
-2275626,-3140098,settlement,Tounde,Tounde,official,15.533333,-16.466667,SN-LG,,
-2274891,-3139121,settlement,"Tanda Boudar","Tanda Boudar",variant,13.916667,-15.983333,SN-KL,,
-2275222,-3139588,settlement,Tiatgol,Tiatgol,variant,15.7398,-15.8737,SN-LG,,
-2275664,-3136294,hydrographic,Ouli,Ouli,variant,13.366667,-14.283333,SN-000,,
-2275079,-3139406,settlement,Tiagal,Tiagal,official,14.933333,-16.466667,SN-DB,,
-2275707,-3140218,settlement,Veltiennkou,Veltiennkou,official,13.783333,-15.383333,SN-KA,,
-2275541,-3139988,settlement,"Touba Ali Fana","Touba Ali Fana",official,13.816667,-15.133333,SN-KA,,
-2275583,-3140043,settlement,"Toubéré Amadou","Toubere Amadou",official,14.616667,-13.266667,SN-MT,,
-2275357,-3139379,settlement,Thillène,Thillene,variant,15.666667,-16.216667,SN-LG,,
-2275302,-3139694,spot,Tiéoudé,Tieoude,official,16.409444,-15.063333,SN-SL,,
-2275506,-3139947,settlement,Tombon-Komoti,Tombon-Komoti,official,13.668162,-12.971872,SN-TC,,
-2275114,-3139450,settlement,Tiallé,Tialle,official,15.2434,-16.8012,SN-TH,,
-2275664,-3140154,hydrographic,"Tuba Tonda Bolon","Tuba Tonda Bolon",variant,13.366667,-14.283333,SN-000,,
-2275182,-3139535,settlement,Tiaré,Tiare,official,13.9,-15.783333,SN-KL,,
-2275477,-3139909,settlement,"Tiviann Koulandiala","Tiviann Koulandiala",official,13.216667,-14.1,SN-KD,,
-2274745,-3138900,settlement,Soutouré,Soutoure,official,12.95,-14.133333,SN-KD,,
-2275757,6890571,spot,"Vèndé Boki","Vende Boki",official,16.198554,-14.981483,SN-SL,,
-2274797,-3138987,settlement,"Taïba Amari Mbéri","Taiba Amari Mberi",official,15.4414,-16.5384,SN-LG,,
-2275388,-3139800,settlement,"Tintinkome Mandjak","Tintinkome Mandjak",variant,12.618333,-15.785,SN-SE,,
-2275556,-3140012,settlement,Toubakouta,Toubakouta,official,13.233333,-15.783333,SN-SE,,
-2275684,-3140182,settlement,Vélingara,Velingara,official,13.3,-15.733333,SN-SE,,
-2275727,-3140260,settlement,"Venndou Makam","Venndou Makam",variant,15.25,-13.883333,SN-MT,,
-2274776,-3138956,settlement,Tabassèye,Tabasseye,official,12.8,-15.033333,SN-KD,,
-2274809,-3138983,settlement,Taïba,Taiba,variant,15.0371,-16.8793,SN-TH,,
-2274923,-3139165,settlement,Taoua,Taoua,official,14.733333,-16.45,SN-DB,,
-2275705,-3140216,hydrographic,"Marigot de Vélor","Marigot de Velor",official,14.133333,-16.2,SN-KL,,
-2275500,-3139940,settlement,Toki,Toki,official,14.6,-16.15,SN-DB,,
-2275600,-3140063,settlement,"Tougodé Maoudé","Tougode Maoude",variant,13.25,-15.05,SN-KD,,
-2275056,-3139364,administrative_region,Thiès,Thies,official,14.730042,-16.869736,SN-TH,,
-2275204,-3139561,settlement,Tiarhar,Tiarhar,official,14.7,-16.366667,SN-DB,,
-2275782,-3140311,settlement,Walankinndi,Walankinndi,variant,12.4283,-12.0312,SN-KE,,
-2274910,-3139151,settlement,Tanpidara,Tanpidara,official,15.7265,-14.1439,SN-SL,,
-2275012,-3139787,park,"Forêt Classée de Tindouk","Foret Classee de Tindouk",variant,12.771667,-16.445833,SN-ZG,,
-2275472,16687960,administrative_region,"Département de Tivaouane",DepartementdeTivaouane,official,15.085186,-16.710584,SN-TH,,
-2275341,-3139740,spot,"Tilal Odiol","Tilal Odiol",official,16.367619,-14.688163,SN-SL,,
-2275155,-3139501,settlement,Tianiato,Tianiato,official,15.040063,-12.695911,SN-MT,,
-2275196,-3139552,settlement,"Tiarène Alassane","Tiarene Alassane",official,13.766667,-16.116667,SN-KL,,
-2275890,13972315,hypsographic,"Île de Yoff","Ile de Yoff",official,14.768934,-17.477164,SN-DK,,
-2273849,-3137562,settlement,"Saré Iro","Sare Iro",official,12.683333,-14.9,SN-KD,,
-2275091,-3139423,settlement,Tiala,Tiala,official,14.566667,-15.833333,SN-DB,,
-2275699,-3140204,settlement,"Vélingara Soto","Velingara Soto",official,13.133333,-15.05,SN-KD,,
-2275258,-3139640,settlement,Tiékiène,Tiekiene,official,13.9,-15.516667,SN-KA,,
-2275662,-3140150,settlement,Tsialolo,Tsialolo,official,14.973407,-12.661103,SN-MT,,
-2275210,-3139574,settlement,"Tiar Sek","Tiar Sek",official,15.7,-16.45,SN-LG,,
-2275305,-3139697,settlement,Tiep,Tiep,official,15.5251,-16.5257,SN-LG,,
-2274840,-3139073,settlement,"Tall Backlé","Tall Backle",variant,15.983333,-16.2,SN-SL,,
-2275167,-3139513,hydrographic,Tiap,Tiap,official,14.216667,-14.2,SN-TC,,
-2275355,-3140158,settlement,Tyilla,Tyilla,variant,15.05,-16.366667,SN-TH,,
-2274969,-3139225,settlement,"Tchissé Keur Amar Rhoulé","Tchisse Keur Amar Rhoule",official,14.633333,-15.65,SN-FK,,
-2275005,-3139269,settlement,"Témèye Salane","Temeye Salane",official,16.3325,-15.770833,SN-SL,,
-2275682,-3140180,settlement,Vélingara,Velingara,official,13.05,-15.733333,SN-SE,,
-2275689,10123677,settlement,Véligara,Veligara,official,14.238054,-12.964639,SN-TC,,
-2275217,-3139582,settlement,Tiaski,Tiaski,official,16.094318,-13.673016,SN-SL,,
-2275443,-3139869,settlement,Tioumbo,Tioumbo,official,14.5,-15.733333,SN-FK,,
-2275866,-3140436,settlement,Yendam,Yendam,official,14.95,-16.85,SN-TH,,
-2275399,-3139811,settlement,"Tiodor du Ferlo","Tiodor du Ferlo",official,15.0496,-14.3011,SN-MT,,
-2275611,-3140081,settlement,"Touldé Tila","Toulde Tila",official,16.41468,-14.109413,SN-SL,,
-2275385,-3139796,settlement,Tinndoye,Tinndoye,official,13.883333,-15.733333,SN-KL,,
-2275338,-3139736,settlement,"Tikat Banguel","Tikat Banguel",official,14.1,-15.866667,SN-KL,,
-2275801,-3140344,settlement,Woré,Wore,official,14.5,-15.816667,SN-FK,,
-2275149,-3139494,spot,Tianglé,Tiangle,official,16.100914,-14.041574,SN-SL,,
-2275006,-3139270,settlement,Témine,Temine,official,13.95,-15.25,SN-KA,,
-2275184,-3139537,settlement,Tiaré,Tiare,variant,15.466667,-16.083333,SN-LG,,
-2275687,-3140208,settlement,Vélinngara,Velinngara,variant,13.633333,-16.016667,SN-KL,,
-2274738,-3138885,settlement,Soussoum,Soussoum,variant,14.583333,-16.766667,SN-TH,,
-2275571,-3140028,settlement,Toubassaloum,Toubassaloum,official,13.783333,-15.7,SN-KL,,
-2275650,-3140131,settlement,Tourguénoul,Tourguenoul,official,16.215706,-14.286608,SN-SL,,
-2274772,-3138951,settlement,Tabanding,Tabanding,official,13.75,-16.433333,SN-FK,,
-2275434,-3139858,settlement,Tioubène,Tioubene,official,15.633333,-16.133333,SN-LG,,
-2274792,-3138978,settlement,Taïba,Taiba,official,13.95,-15.033333,SN-KA,,
-2275567,-3140024,settlement,"Touba Ndiaye","Touba Ndiaye",official,15.4524,-15.9095,SN-LG,,
-2275233,-3139602,settlement,Tiavène,Tiavene,official,14.95,-16.15,SN-DB,,
-2275752,-3140276,settlement,Vilanéne,Vilanene,variant,14.05,-15.55,SN-KA,,
-2275120,-3139456,hydrographic,"Vèndou Tiam","Vendou Tiam",official,15.6668,-14.1849,SN-SL,,
-2275187,-3128574,settlement,Diaren,Diaren,variant,13.933333,-16.066667,SN-KL,,
-2275507,-3139952,settlement,Tonboronkoto,Tonboronkoto,variant,12.7992,-12.2899,SN-KE,,
-2275491,-3139928,settlement,"Tobor Boal","Tobor Boal",official,12.666667,-16.266667,SN-ZG,,
-2274738,-3138886,settlement,"Soussoum Sanda","Soussoum Sanda",official,14.583333,-16.766667,SN-TH,,
-2275590,-3140052,hydrographic,Touboula,Touboula,official,14.033373,-12.190112,SN-TC,,
-2275708,-3140220,spot,Vèndou,Vendou,official,16.078333,-15.329722,SN-SL,,
-2275607,-3140075,settlement,Toukouleur,Toukouleur,official,15.116667,-16.5,SN-TH,,
-2275201,-3139558,settlement,Tiargni,Tiargni,official,15.1883,-15.2899,SN-LG,,
-2275673,-3140168,settlement,Vanar,Vanar,official,13.883333,-15.616667,SN-KA,,
-2275795,-3140331,hydrographic,Wénéri,Weneri,official,13.016667,-13.233333,SN-TC,,
-2275073,-3139398,hydrographic,Tiabragal,Tiabragal,official,16.038371,-13.572733,SN-MT,,
-2274748,8024639,settlement,Sabikouroto,Sabikouroto,variant,12.7025,-15.819167,SN-SE,,
-2275276,-3139661,settlement,Tiendiègne,Tiendiegne,official,14.766667,-16.25,SN-DB,,
-2275295,-3139686,settlement,"Tiéno N’Diaye","Tieno N'Diaye",variant,15.366667,-16.366667,SN-LG,,
-2275086,-3139563,settlement,Tiarho,Tiarho,variant,14,-16.183333,SN-KL,,
-2275807,-3140356,settlement,Yadé,Yade,official,14.811783,-17.089565,SN-TH,,
-2274791,-3138977,settlement,Taïba,Taiba,official,13.933333,-16.083333,SN-KL,,
-2274804,-3138998,settlement,"Taïba Mar","Taiba Mar",official,15.4,-16.583333,SN-LG,,
-2275759,-3140283,spot,"Vindé Pélel","Vinde Pelel",variant,16.202102,-14.684175,SN-SL,,
-2274760,-3138937,settlement,Tabadian,Tabadian,official,12.669722,-15.440833,SN-SE,,
-2275470,-3139902,settlement,Tissé,Tisse,official,14.05,-15.533333,SN-KA,,
-2275866,-3140439,settlement,Yenedane,Yenedane,variant,14.95,-16.85,SN-TH,,
-2274961,-3139216,settlement,Tchiki,Tchiki,official,14.333333,-15.983333,SN-FK,,
-2275678,-3140176,settlement,"Vélia Bounka","Velia Bounka",official,13.25,-14.7,SN-KD,,
-2275044,-3139327,settlement,Teumbé,Teumbe,official,15.333333,-16.7,SN-LG,,
-2275257,-3139352,settlement,Thièguy,Thieguy,variant,14.61028,-17.077316,SN-TH,,
-2275806,-3140355,settlement,Yad,Yad,variant,15.970556,-16.297778,SN-SL,,
-2274999,-3139262,settlement,"Témento Diaé","Temento Diae",official,12.983333,-14.35,SN-KD,,
-2275040,-3139322,settlement,"Teudde Bitty","Teudde Bitty",variant,15.966667,-16.183333,SN-SL,,
-2275607,-3140053,settlement,Toucouleur,Toucouleur,variant,15.116667,-16.5,SN-TH,,
-2275416,-3139867,settlement,Tioumandé,Tioumande,variant,15.7,-16.033333,SN-LG,,
-2275163,-3139509,settlement,Tiaori,Tiaori,official,13.883333,-13.633333,SN-TC,,
-2275741,-3140256,hydrographic,Véniaké,Veniake,official,14.05,-13.933333,SN-TC,,
-2275203,-3139560,settlement,"Tiar Hal","Tiar Hal",official,15.833333,-16.133333,SN-LG,,
-2275733,-3140247,settlement,"Vèndou Pala","Vendou Pala",official,15.1679,-15.4273,SN-LG,,
-2275817,14064109,settlement,"Diolol Yalalbé","Diolol Yalalbe",official,15.848093,-13.50298,SN-MT,,
-2275062,-3139376,settlement,Thille-Boubacar,Thille-Boubacar,variant,16.516667,-15.083333,SN-SL,,
-2275300,-3139692,settlement,Tiéolé,Tieole,official,15.483333,-16.016667,SN-LG,,
-2275498,-3139938,settlement,Toïlé,Toile,official,12.333333,-12.35,SN-KE,,
-2275385,-3139381,settlement,Thindogné,Thindogne,variant,13.883333,-15.733333,SN-KL,,
-2275921,-3140504,settlement,Zigiunchor,Zigiunchor,variant,12.56801,-16.27326,SN-ZG,,
-2274912,-3139154,settlement,Tantiedji,Tantiedji,variant,16.082232,-13.869509,SN-SL,,
-2275446,-3139874,settlement,Tioune,Tioune,variant,15.790556,-16.4875,SN-LG,,
-2275166,-3139512,settlement,Tiaoune,Tiaoune,official,14.85,-16.916667,SN-TH,,
-2274925,-3139167,settlement,Taoua,Taoua,official,15,-16.716667,SN-TH,,
-2275395,-3139807,settlement,Tiodorbé,Tiodorbe,official,13.7,-15.866667,SN-KL,,
-2275232,-3139601,settlement,Tiavène,Tiavene,official,14.816667,-15.95,SN-DB,,
-2275154,-3139499,hydrographic,Tiani,Tiani,official,14.866667,-14.016667,SN-MT,,
-2275169,9156595,settlement,"Tiar Moussé Diop","Tiar Mousse Diop",official,15.842222,-16.4225,SN-SL,,
-2274753,-3138919,settlement,Suèl,Suel,official,12.949167,-16.283889,SN-ZG,,
-2275631,-3140105,hydrographic,ToundouBessète,ToundouBessete,variant,16.234167,-16.286944,SN-SL,,
-2274841,-3139050,settlement,"Tal Diop","Tal Diop",official,15.95,-16.216667,SN-SL,,
-2275812,-3140364,settlement,Yagne,Yagne,official,14.8,-15.933333,SN-DB,,
-2275094,-3139427,settlement,Tialaga,Tialaga,official,16.494191,-14.456723,SN-SL,,
-2274800,-3138992,settlement,"Taïba Dakar","Taiba Dakar",official,14.883333,-16.283333,SN-DB,,
-2275721,-3140259,hydrographic,"Tiangol Venndou Gaoudi","Tiangol Venndou Gaoudi",variant,15.301034,-13.292277,SN-MT,,
-2275250,-3139630,settlement,Tiékène,Tiekene,official,13.9,-14.75,SN-KA,,
-2274793,-3138979,settlement,Taïba,Taiba,official,14.033333,-15.283333,SN-KA,,
-2275441,-3139862,settlement,Tiougoune,Tiougoune,variant,15.45,-16.733333,SN-TH,,
