wgdPlaceId,wgdId,type,name,fullName,nameType,latitude,longitude,administrationGroup,isHistorical,isCapital
9255494,9333138,hydrographic,Kaue,Kaue,short,14.7175,38.107778,ER-GB,,
10042643,10206131,hydrographic,Layle,Layle,short,14.673378,39.554098,ER-DU,,
11600979,13881393,park,Tamla,Tamla,short,16.695623,37.444877,ER-AN,,
11600568,13880477,settlement,Embeyto,Embeyto,short,15.209928,38.96579,ER-MA,,
11564502,13785478,hypsographic,Aslu,Aslu,short,12.911823,42.613598,ER-DK,,
11593203,13864539,hydrographic,Avee,Avee,short,15.656253,37.524943,ER-GB,,
11599194,13877197,park,Khasbi,Khasbi,short,15.08094,38.650741,ER-DU,,
11602812,13886834,park,Bigayt,Bigayt,short,15.322475,38.592238,ER-GB,,
11601732,13884250,hypsographic,"Ad Kealu","Ad Kealu",short,15.231125,38.542515,ER-GB,,
11595462,13869072,hypsographic,Uetro,Uetro,short,15.766825,38.129952,ER-GB,,
11601919,13885001,settlement,Khabela,Khabela,short,15.280905,38.646179,ER-GB,,
11595029,13868226,hypsographic,Enis,Enis,short,16.021867,39.065181,ER-DU,,
-3192110,-4512903,hypsographic,"South West Rocks","South West Rocks",official,13.641028,42.602327,ER-000,,
-2037501,-4834121,hydrographic,"Tiddigille Bôlo","Tiddigille Bolo",official,12.380269,42.727929,S1-000,,
-2037501,-2829611,hydrographic,"Tiddigille Bôlo","Tiddigille Bolo",official,12.380269,42.727929,S1-000,,
-2037352,-2829403,hydrographic,Silalmi‘i,Silalmi`i,official,12.56247,42.85584,S1-000,,
-2037183,-4834114,hydrographic,Sabbali,Sabbali,short,12.499157,42.526365,S1-000,,
-2037183,-2829198,hydrographic,Sabbâli,Sabbali,official,12.499157,42.526365,S1-000,,
-2037156,13826111,hydrographic,Rayrou,Rayrou,variant,12.485462,42.59016,S1-000,,
-2037156,-2829155,hydrographic,Rayrou,Rayrou,official,12.485462,42.59016,S1-000,,
-2037140,-2829132,hydrographic,Randali,Randali,official,12.483936,42.691346,S1-000,,
-2037140,-2829133,hydrographic,Randale,Randale,official,12.483936,42.691346,S1-000,,
-2036951,-4834110,hypsographic,"‘Ounḏa Ganga","`Ounda Ganga",official,12.460241,42.587308,S1-000,,
-2036951,-2828912,hypsographic,"‘Ounḏa Ganga","`Ounda Ganga",official,12.460241,42.587308,S1-000,,
-2036878,-2828838,hydrographic,"Oulla Dabba","Oulla Dabba",short,12.460342,42.832087,ER-DK,,
-2036875,-2828835,park,Oulel,Oulel,official,12.562843,42.847492,S1-000,,
-2036671,-2828540,hydrographic,Na‘asou,Na`asou,official,12.617104,42.890919,S1-000,,
-2036530,-4834102,hydrographic,"Me‘edori Babbô‘a","Me`edori Babbo`a",short,12.432086,42.672231,ER-DK,,
-2036291,-2828036,park,Lili‘ya,Lili`ya,official,12.366908,42.686166,S1-000,,
-2036291,-4834100,park,Lili‘ya,Lili`ya,short,12.366908,42.686166,S1-000,,
-2036277,-4834099,hydrographic,Lêdînisa,Ledinisa,short,12.472571,42.622572,ER-DK,,
-2036231,-4834098,hydrographic,"Lâhi Garbo","Lahi Garbo",short,12.427209,42.693856,ER-DK,,
-2036061,-2827743,hydrographic,Kênalli,Kenalli,official,12.39197,42.655472,S1-000,,
-2036061,13835409,hydrographic,Kenalli,Kenalli,short,12.39197,42.655472,S1-000,,
-2036010,-2826638,hypsographic,"Rocher des Goelands","Rocher des Goelands",variant,12.718419,43.156545,S1-000,,
-2036010,-2824888,hypsographic,"Scoglio Callida","Scoglio Callida",variant,12.718419,43.156545,S1-000,,
-2036010,9042401,hypsographic,Callida,Callida,variant,12.718419,43.156545,S1-000,,
-2036010,-2827679,hypsographic,Kallîda,Kallida,official,12.718419,43.156545,S1-000,,
-2035999,-2827668,hydrographic,Kalla‘assa,Kalla`assa,official,12.383454,42.719438,S1-000,,
-2035999,-4834092,hydrographic,Kalla‘assa,Kalla`assa,short,12.383454,42.719438,S1-000,,
-2035730,-2827365,park,Ilhino,Ilhino,official,12.411366,42.7953,S1-000,,
-2035226,-4834074,hydrographic,Gubi-Bakhertu,Gubi-Bakhertu,short,12.451867,42.821244,S1-000,,
-2034095,-2825257,park,Dannakil,Dannakil,variant,13,41,S1-000,,
-2034095,-2825231,park,Dancali,Dancali,variant,13,41,S1-000,,
-2034492,-2825762,hypsographic,"Cape Doumeira","Cape Doumeira",variant,12.713408,43.13721,S1-000,,
-2034095,-2825215,park,Danakil,Danakil,official,13,41,S1-000,,
-2034356,-2825595,hydrographic,Dimmiyto,Dimmiyto,official,12.575181,42.858298,S1-000,,
-2034095,-2825249,park,Dankalia,Dankalia,variant,13,41,S1-000,,
-2034720,13846380,hypsographic,Gabla,Gabla,short,12.711255,43.134631,S1-000,,
-2034003,-2825122,vegetation,Ḏâle,Dale,official,12.694622,43.093217,S1-000,,
-2034095,-2825409,park,Dauachil,Dauachil,variant,13,41,S1-000,,
-2034492,-2825771,hypsographic,"Ras Dumēra YeMidir Zerf Ch’af","Ras Dumera YeMidir Zerf Ch'af",official,12.713408,43.13721,S1-000,,
-2034095,-2823482,park,"Plaine de l’Afar","Plaine de l'Afar",variant,13,41,S1-000,,
-2034095,-2823485,park,"Afar Depression","Afar Depression",variant,13,41,S1-000,,
-2035159,-2826620,hydrographic,Gôba‘do,Goba`do,official,12.381285,42.748855,S1-000,,
-2034095,-2825232,park,Dancalia,Dancalia,variant,13,41,S1-000,,
-2034095,-2825216,park,"Plateau of Danakil","Plateau of Danakil",variant,13,41,S1-000,,
-2034095,-2825243,park,Dankalē,Dankale,variant,13,41,S1-000,,
-2034095,-2825246,park,Denakil,Denakil,variant,13,41,S1-000,,
-2034095,-2825214,park,Danachil,Danachil,variant,13,41,S1-000,,
-2034492,-2825808,hypsographic,"Ras Dumēra","Ras Dumera",variant,12.713408,43.13721,S1-000,,
-2035501,-2827078,hydrographic,Harroûg,Harroug,official,12.546414,42.84431,S1-000,,
-2034720,-2826080,hypsographic,Gabla,Gabla,official,12.711255,43.134631,S1-000,,
-2034095,-2825230,park,Dancal,Dancal,variant,13,41,S1-000,,
-2034095,-2823484,park,"Plateau of Afar","Plateau of Afar",variant,13,41,S1-000,,
-2034095,-2825218,park,"Danakil Lowlands","Danakil Lowlands",variant,13,41,S1-000,,
-2034492,-2825770,hypsographic,"Ras Doumêra","Ras Doumera",official,12.713408,43.13721,S1-000,,
-2034492,-2825765,hypsographic,"Ras Doumeïra","Ras Doumeira",variant,12.713408,43.13721,S1-000,,
-2034095,-2825217,park,"Dānākil Depression","Danakil Depression",variant,13,41,S1-000,,
-2035226,-2826711,hydrographic,"Goubi Gaẖertou","Goubi Gahertou",official,12.451867,42.821244,S1-000,,
-2034492,-2825807,hypsographic,"Ras Dumeira","Ras Dumeira",variant,12.713408,43.13721,S1-000,,
-2034095,-2825245,park,Dankali,Dankali,variant,13,41,S1-000,,
-2033881,-4834045,hydrographic,"Ḏabẖin Babbô‘a","Dabhin Babbo`a",short,12.433775,42.678877,S1-000,,
-2034095,-2823483,park,"Plains of Afar","Plains of Afar",variant,13,41,S1-000,,
-2034095,-2825251,park,"Dankali Plain","Dankali Plain",variant,13,41,S1-000,,
-2034095,16938552,park,"Dépression de l’Afar","Depression de l'Afar",official,13,41,S1-000,,
-2033908,-2825003,settlement,Dadda’to,Dadda'to,official,12.379327,42.710481,S1-000,,
-2033944,13837162,hydrographic,"Daga Gakhertu","Daga Gakhertu",short,12.422571,42.818352,S1-000,,
-2034095,-2823481,park,Afar,Afar,variant,13,41,S1-000,,
-2033908,13837166,settlement,Deda’-etu,Deda'-etu,official,12.379327,42.710481,S1-000,,
-2033944,-2825048,hydrographic,"Daga Gaẖertou","Daga Gahertou",official,12.422571,42.818352,S1-000,,
-2033281,-2824181,hypsographic,‘Asara‘tou,`Asara`tou,official,12.498208,42.542878,S1-000,,
-2033423,-2824380,hydrographic,Awwalaylis,Awwalaylis,official,12.528616,42.460412,ER-DK,,
-2033326,13842607,hydrographic,’Asgabla,'Asgabla,short,12.40259,42.767389,S1-000,,
-2032762,13844344,hydrographic,Afmako,Afmako,short,12.516353,42.688348,S1-000,,
-2033449,-2824410,hydrographic,"Ayrin Ḏaḏḏa‘","Ayrin Dadda`",official,12.418113,42.813352,S1-000,,
-2032591,-4834017,hydrographic,‘Adbolto,`Adbolto,short,12.408173,42.763715,S1-000,,
-2033281,13842614,hypsographic,’Asara’tou,'Asara'tou,short,12.498208,42.542878,S1-000,,
-2033326,-2824233,hydrographic,‘Asgabla,`Asgabla,official,12.40259,42.767389,S1-000,,
-2032657,-2823393,hydrographic,‘Adkôma,`Adkoma,official,12.412089,42.780622,S1-000,,
-2033449,-4834035,hydrographic,"Ayrin Ḏaḏḏa‘","Ayrin Dadda`",short,12.418113,42.813352,S1-000,,
-2032591,-2823314,hydrographic,‘Adbolto,`Adbolto,official,12.408173,42.763715,S1-000,,
-2032872,-4834023,hydrographic,"Alay le Dola","Alay le Dola",short,12.400381,42.677993,S1-000,,
-2032657,-4834019,hydrographic,‘Adkôma,`Adkoma,short,12.412089,42.780622,S1-000,,
-2033423,-2823974,hydrographic,"Oued Aououalailis","Oued Aououalailis",variant,12.528616,42.460412,ER-DK,,
-2033065,-2823918,hydrographic,Anḏallêlou,Andallelou,official,12.526673,42.8185,S1-000,,
-2032540,-4833988,park,"Ada‘li K Seka","Ada`li K Seka",official,12.696798,42.994379,S1-000,,
-2033409,-2824366,park,Awkammaga‘,Awkammaga`,official,12.689621,43.085169,S1-000,,
-2032762,-2823522,hydrographic,Afmako,Afmako,official,12.516353,42.688348,S1-000,,
-2032872,-2823664,hydrographic,"Alay le Dola","Alay le Dola",official,12.400381,42.677993,S1-000,,
-622774,-878026,hypsographic,"Isole Um es Seil","Isole Um es Seil",variant,16.05,39.883333,ER-000,,
-622778,-878361,hypsographic,"Isola Vusta","Isola Vusta",variant,16.316667,39.816667,ER-000,,
-622457,-877250,settlement,Tsazega,Tsazega,variant,15.350579,38.801214,ER-MA,,
-622412,-879667,settlement,Zahaflam,Zahaflam,official,15.491322,38.86018,ER-MA,,
-622355,-879574,settlement,Ygi’ar,Ygi'ar,variant,15.729444,38.605278,ER-AN,,
-622607,-879947,settlement,Zula,Zula,official,15.245668,39.669012,ER-SK,,
-622175,9042074,spot,"Ye’Assab Nedaj Mat’arīya","Ye'Assab Nedaj Mat'ariya",official,12.987222,42.731111,ER-000,,
-622238,-879454,spot,"Ye’Ītyop’iya Niguse Negest Mengist YePosta YeTēlēfon na YeTēlēgram Mesrīya Bēt","Ye'Ityop'iya Niguse Negest Mengist YePosta YeTelefon na YeTelegram Mesriya Bet",official,15.616667,39.45,ER-SK,,
-622778,-878317,hypsographic,"Isola Uusta","Isola Uusta",variant,16.316667,39.816667,ER-000,,
-622146,-866580,spot,"Forte Iangus","Forte Iangus",variant,15.505697,39.240408,ER-SK,,
-622146,-879333,spot,Yangus,Yangus,official,15.505697,39.240408,ER-SK,,
-622175,-879382,spot,"Ye’aseb Oil Refinery","Ye'aseb Oil Refinery",variant,12.987222,42.731111,ER-000,,
-622608,-851840,hydrographic,"Annesley Bay","Annesley Bay",variant,15.266667,39.75,ER-SK,,
-622457,400132,settlement,Tse’azega,Tse'azega,official,15.350579,38.801214,ER-MA,,
-622756,-1116551,hypsographic,"Seil Norah","Seil Norah",official,16.05,39.966667,ER-000,,
-622608,-879951,hydrographic,"Golfo di Zula","Golfo di Zula",variant,15.266667,39.75,ER-SK,,
-622410,-879662,hypsographic,"Monte Zagher","Monte Zagher",variant,15.555296,38.907803,ER-000,,
-622520,-879834,hydrographic,"Pozzi Zeriba Ambara","Pozzi Zeriba Ambara",variant,15.2,36.9,ER-000,,
-622774,-878021,hypsographic,"Īsola Um-el-Seil","Isola Um-el-Seil",variant,16.05,39.883333,ER-000,,
-622608,-879948,hydrographic,"Ghubbet Zula","Ghubbet Zula",variant,15.266667,39.75,ER-SK,,
-622599,-879936,hypsographic,Zuane,Zuane,official,16.49773,38.436055,ER-DU,,
-622552,-879870,settlement,Zigib,Zigib,official,15.218898,38.993276,ER-MA,,
-622410,-879661,hypsographic,Zagher,Zagher,official,15.555296,38.907803,ER-000,,
-622778,-1116549,hypsographic,Uusta,Uusta,official,16.316667,39.816667,ER-000,,
-622399,-879644,hypsographic,"Zaad Amba","Zaad Amba",official,14.936111,38.505,ER-DU,,
-622520,-879833,hydrographic,"Zeriba Ambara","Zeriba Ambara",official,15.2,36.9,ER-000,,
-622445,-879719,settlement,Zariga,Zariga,official,14.486759,40.312429,ER-SK,,
-622457,-879741,settlement,Zazzega,Zazzega,variant,15.350579,38.801214,ER-MA,,
-622456,-879738,settlement,Zawl,Zawl,official,15.188056,38.764722,ER-000,,
-622453,-879735,hypsographic,"Isola Zauber","Isola Zauber",variant,15.633333,40.783333,ER-000,,
-622553,-879871,spot,"Zigib Maryam Bēte Kristīyan","Zigib Maryam Bete Kristiyan",official,15.216667,38.983333,ER-000,,
-622603,-879940,hypsographic,Zuburai,Zuburai,official,16.567029,37.988575,ER-SK,,
-622404,-879654,settlement,Zaga,Zaga,short,15.6,39.4,ER-SK,,
-622778,-879274,hypsographic,"Wusta Island","Wusta Island",variant,16.316667,39.816667,ER-000,,
-622516,-879829,hydrographic,"Zerbabīt Shet’","Zerbabit Shet'",official,15.163852,39.113788,ER-DU,,
-622409,400126,settlement,Zagr,Zagr,official,15.539654,38.897056,ER-MA,,
-622355,-879590,settlement,Yigi’ār,Yigi'ar,official,15.729444,38.605278,ER-AN,,
-622608,-879952,hydrographic,"Gulf of Zula","Gulf of Zula",official,15.266667,39.75,ER-SK,,
-622608,-879949,hydrographic,"Zula Bahire Selat’ē","Zula Bahire Selat'e",variant,15.266667,39.75,ER-SK,,
-622457,-879739,settlement,Zazega,Zazega,variant,15.350579,38.801214,ER-MA,,
-622546,-879864,hypsographic,"Debra Zibbet","Debra Zibbet",official,16.41754,38.240892,ER-SK,,
-622599,-879963,hypsographic,Zuwane,Zuwane,variant,16.49773,38.436055,ER-DU,,
-622235,-879451,spot,"Ye’Inglīz Bēte Kristīyan","Ye'Ingliz Bete Kristiyan",official,15.333333,38.933333,ER-000,,
-622147,13844413,hydrographic,Langus,Langus,variant,15.587982,39.27841,ER-SK,,
-622602,577827,settlement,"Tsibuk Grat","Tsibuk Grat",official,15.02331,38.378716,ER-GB,,
-622402,-879652,hypsographic,"Zad Amba","Zad Amba",official,15.640193,38.423528,ER-SK,,
-622523,-879838,hydrographic,"Zeuf Emni","Zeuf Emni",official,14.666667,38.433333,ER-000,,
-622534,-879852,hypsographic,"Ziban Āwlat Āmba","Ziban Awlat Amba",official,15.092778,39.035556,ER-DU,,
-622774,-1116550,hypsographic,"Um es Seil","Um es Seil",official,16.05,39.883333,ER-000,,
-622464,-879747,settlement,"Zeban Debri","Zeban Debri",official,14.758611,38.537778,ER-DU,,
-622544,9336968,settlement,"Zeban Ona","Zeban Ona",variant,14.859167,38.815833,ER-DU,,
-622544,-879862,settlement,"Ziban Una","Ziban Una",official,14.859167,38.815833,ER-DU,,
-622147,-879334,hydrographic,"Yangus Shet’","Yangus Shet'",official,15.587982,39.27841,ER-SK,,
-622756,-874787,hypsographic,"Isola Seil Norah","Isola Seil Norah",variant,16.05,39.966667,ER-000,,
-622608,-879950,hydrographic,"Zula Bahir Selat’ē","Zula Bahir Selat'e",variant,15.266667,39.75,ER-SK,,
-622175,-879381,spot,"Ye’Āseb Nedaj Mat’arīya","Ye'Aseb Nedaj Mat'ariya",variant,12.987222,42.731111,ER-000,,
-622399,9336878,hypsographic,"See. Zaad Amba","See. Zaad Amba",variant,14.936111,38.505,ER-DU,,
-622409,-879660,settlement,Zagher,Zagher,variant,15.539654,38.897056,ER-MA,,
-622237,-879453,spot,"Ye’Ītyop’iya Niguse Negest Mengist Hizbawī Nuro ‘Idget Mīnīstēr","Ye'Ityop'iya Niguse Negest Mengist Hizbawi Nuro `Idget Minister",official,15.6,39.45,ER-SK,,
-622219,-879433,spot,"YeFerensay Wetader Metasebīya Hawilt","YeFerensay Wetader Metasebiya Hawilt",official,15.616667,39.466667,ER-SK,,
-622602,-879939,settlement,"Zubuc Grat","Zubuc Grat",variant,15.02331,38.378716,ER-GB,,
-622545,-879863,spot,"Ziban Una Kīdane Mihret Bēte Kristīyan","Ziban Una Kidane Mihret Bete Kristiyan",official,14.866667,38.816667,ER-DU,,
-622453,-879734,hypsographic,Zauber,Zauber,official,15.633333,40.783333,ER-000,,
-622453,-860115,hypsographic,Du-Barr,Du-Barr,variant,15.633333,40.783333,ER-000,,
-620981,-877486,hypsographic,Tunsiu,Tunsiu,official,14.779216,39.749224,ER-SK,,
-621621,-877608,settlement,"Uad Giaba","Uad Giaba",variant,17.099436,38.406878,ER-DU,,
-620531,-876863,hypsographic,"Passo Thaabra","Passo Thaabra",variant,16.666667,38.25,ER-000,,
-620361,-876244,hydrographic,"Mersa Taclai","Mersa Taclai",variant,17.551978,38.852316,ER-SK,,
-622043,13879873,settlement,Rakrabet,Rakrabet,variant,15.822805,39.316171,ER-SK,,
-621183,-877910,hypsographic,Uengiulù,Uengiulu,variant,16.408957,37.730683,ER-SK,,
-621694,-878739,hydrographic,Wê‘ima,We`ima,official,12.804444,42.991667,S1-000,,
-621000,-877515,hypsographic,"Ras Turrik","Ras Turrik",variant,15.857211,39.3621,ER-SK,,
-621368,-878279,hypsographic,"Monte Urug","Monte Urug",variant,15.203117,39.317462,ER-SK,,
-620349,-876609,hypsographic,"Tekay Desēt","Tekay Deset",official,13.671617,42.211965,ER-DK,,
-620830,-877289,spot,"Ts’ets’erat Mīka’ēl Bēte Kristīyan","Ts'ets'erat Mika'el Bete Kristiyan",official,15.333333,38.933333,ER-000,,
-622043,13879871,settlement,Racrabet,Racrabet,variant,15.822805,39.316171,ER-SK,,
-620348,-876608,hydrographic,"Tekay Bahir Selat’ē","Tekay Bahir Selat'e",official,13.577981,42.214923,ER-DK,,
-621447,-878408,hypsographic,"Jebel Wadaraweb","Jebel Wadaraweb",official,16.606251,37.038589,ER-AN,,
-620704,-877098,hydrographic,"Pozzi Tocolai","Pozzi Tocolai",variant,15.422045,37.737222,ER-GB,,
-620532,-876864,hypsographic,Thafa,Thafa,official,17.15,38.033333,ER-000,,
-620466,400182,spot,"Tera-Emnī Timhirt Bēt","Tera-Emni Timhirt Bet",official,15.016667,38.833333,ER-000,,
-621090,-877727,hypsographic,Uangabo,Uangabo,official,14.94979,39.821921,ER-SK,,
-620763,-877200,hypsographic,Toteben,Toteben,official,15.85,36.95,ER-000,,
-621447,-877595,hypsographic,Uadaraue,Uadaraue,variant,16.606251,37.038589,ER-AN,,
-620463,400180,spot,"Tera-Emnī Katolīk Silasē Bēte Kristīyan","Tera-Emni Katolik Silase Bete Kristiyan",official,15.016667,38.833333,ER-000,,
-620762,-877198,spot,"Total YeNedaj Makemacha","Total YeNedaj Makemacha",official,15.584935,39.440406,ER-SK,,
-621689,-878730,hypsographic,"Wehan Terara","Wehan Terara",official,12.755636,42.680339,ER-DK,,
-620363,-876627,hydrographic,"Teklī Shet’","Tekli Shet'",official,15.046667,38.87,ER-000,,
-621014,-876478,hypsographic,Tawlad,Tawlad,variant,15.603504,39.465508,ER-SK,,
-621035,-877588,hypsographic,Uadadare,Uadadare,official,16.716667,37.733333,ER-000,,
-621300,-878114,settlement,Uodgan,Uodgan,official,17.333333,38.6,ER-000,,
-622031,-879145,hypsographic,"Widenī Desēt","Wideni Deset",official,13.752222,42.146111,ER-000,,
-621115,-877779,hypsographic,Uarib,Uarib,official,16.399457,37.554196,ER-SK,,
-621209,-877948,hydrographic,"Torrente Uissa","Torrente Uissa",variant,15.640483,39.464538,ER-SK,,
-621152,-877845,hydrographic,"‘Ubel Shet’","`Ubel Shet'",official,15.041944,38.848056,ER-000,,
-621301,-878115,hypsographic,"Uod Nadeb","Uod Nadeb",official,16.437911,38.603151,ER-SK,,
-621712,-878093,settlement,Uoccherti,Uoccherti,variant,15.148392,39.005354,ER-DU,,
-620395,-876674,hydrographic,"Pozzi Tellina","Pozzi Tellina",variant,14.840556,37.318611,ER-000,,
-620242,13844443,settlement,Tarva,Tarva,variant,15.399234,39.520023,ER-SK,,
-620625,-876985,settlement,"Tinishu Āseb","Tinishu Aseb",variant,13.027222,42.742778,ER-DK,,
-620190,-876344,hypsographic,"Monte Tallasuba","Monte Tallasuba",variant,14.457804,36.943545,ER-GB,,
-621115,-874532,hypsographic,Scinghera,Scinghera,variant,16.399457,37.554196,ER-SK,,
-621690,-878731,hydrographic,"Wehan Wenz","Wehan Wenz",official,12.719065,42.726188,ER-DK,,
-621124,13863187,hypsographic,Uonunae,Uonunae,variant,16.992287,37.808483,ER-SK,,
-620361,-876625,hydrographic,"Mersa Tek’lay","Mersa Tek'lay",official,17.551978,38.852316,ER-SK,,
-621408,-878359,hypsographic,Vurec,Vurec,official,15.803533,39.014712,ER-SK,,
-620499,-876820,settlement,Tesenei,Tesenei,variant,15.11,36.6575,ER-GB,,
-620547,-876886,hypsographic,Ticcabanal,Ticcabanal,variant,16.558908,38.771186,ER-SK,,
-620645,-876891,settlement,Ticho,Ticho,variant,14.689647,40.958817,ER-DK,,
-620175,9329446,hydrographic,Talabiya,Talabiya,variant,14.886944,37.623889,ER-GB,,
-621009,-877524,hydrographic,Tutele,Tutele,official,14.85,37.3,ER-000,,
-620627,-876987,spot,"Tinishu Āseb Mesgīd","Tinishu Aseb Mesgid",official,13.033333,42.733333,ER-000,,
-620762,-877199,spot,"Total Ye’nedas Makemacha","Total Ye'nedas Makemacha",variant,15.584935,39.440406,ER-SK,,
-620730,9320608,settlement,Tolesuka,Tolesuka,variant,14.630833,36.936944,ER-000,,
-621708,-878754,settlement,"Wek Diba","Wek Diba",official,15.3675,38.879722,ER-MA,,
-620191,-876345,hypsographic,Tallemar,Tallemar,official,16.371727,37.586625,ER-SK,,
-620225,-876407,settlement,Tantarna,Tantarna,variant,15.795463,38.461416,ER-SK,,
-620899,-877382,hydrographic,Tulich,Tulich,official,16.55,37.316667,ER-000,,
-621167,-877875,settlement,Udibi,Udibi,official,14.7525,37.827222,ER-GB,,
-621305,-878124,hydrographic,Uogame,Uogame,official,16.919921,37.859818,ER-SK,,
-621176,-877893,hypsographic,"Ueddom Plain","Ueddom Plain",official,16.85,38.316667,ER-000,,
-620334,-876585,hydrographic,Tehit,Tehit,official,16.447169,37.943374,ER-SK,,
-621403,-878346,spot,"Fortino Vigano","Fortino Vigano",variant,15.333333,38.933333,ER-000,,
-620396,-876675,hydrographic,Tellui,Tellui,variant,16.678212,37.818292,ER-SK,,
-620352,-876525,hydrographic,Techana,Techana,variant,15.936718,37.413917,ER-GB,,
-620985,-877494,hydrographic,Turgheman,Turgheman,official,16.433333,37.966667,ER-000,,
-620720,-877130,hydrographic,"Toker Shet’","Toker Shet'",official,15.487506,38.751369,ER-MA,,
-620495,-876811,hydrographic,Territ,Territ,official,16.246285,37.699358,ER-SK,,
-620347,-876522,hypsographic,Tecarai,Tecarai,variant,15.016667,36.833333,ER-000,,
-621017,-877533,spot,"T’walet Maryam Katēdral","T'walet Maryam Katedral",official,15.6,39.466667,ER-SK,,
-620981,-877487,hypsographic,"Monti Tunsiu","Monti Tunsiu",variant,14.779216,39.749224,ER-SK,,
-621712,-878137,settlement,Uogherti,Uogherti,variant,15.148392,39.005354,ER-DU,,
-621071,-877670,hypsographic,Ualeca,Ualeca,official,15.1,39.116667,ER-DU,,
-620724,-877136,settlement,Tole,Tole,official,15.000833,37.7975,ER-000,,
-621014,-877530,hypsographic,"T’walet Desēt","T'walet Deset",official,15.603504,39.465508,ER-SK,,
-621694,-878608,hydrographic,Weaima,Weaima,variant,12.804444,42.991667,S1-000,,
-620392,-876667,hypsographic,"Monte Tella","Monte Tella",variant,14.506667,37.541111,ER-GB,,
-620740,9338946,hypsographic,Tokoyle,Tokoyle,variant,14.774167,39.097778,ER-DU,,
-621255,-878013,hypsographic,Umberto,Umberto,official,15.600985,39.423613,ER-SK,,
-621427,-878386,hydrographic,Wachai,Wachai,official,15.533333,36.933333,ER-000,,
-620244,-876299,hydrographic,"Pozzi Tahasciai","Pozzi Tahasciai",variant,15.183333,36.55,ER-000,,
-620350,-876611,hydrographic,"Tekay Lise Bahir","Tekay Lise Bahir",variant,13.636389,42.168889,ER-000,,
-621265,-878022,hypsographic,"Isola Um-en-Neim","Isola Um-en-Neim",variant,15.55,40.55,ER-000,,
-620275,-876499,hypsographic,Tebabbeh,Tebabbeh,official,16.591585,37.894399,ER-SK,,
-621305,13863124,hydrographic,"Tug Leggumi","Tug Leggumi",variant,16.919921,37.859818,ER-SK,,
-620222,-876404,hypsographic,Taninai,Taninai,official,15.642684,37.94237,ER-GB,,
-620322,-876569,hydrographic,Tegheilu,Tegheilu,official,16.395627,37.163386,ER-AN,,
-620598,-876950,hydrographic,"T’ilhamet Shet’","T'ilhamet Shet'",official,14.7,38.816667,ER-000,,
-621195,-877924,settlement,Ugaro,Ugaro,variant,14.824444,37.441111,ER-000,,
-620493,-876806,hypsographic,Termab,Termab,official,16.411486,39.044638,ER-DU,,
-620645,-877078,settlement,Tiyo,Tiyo,variant,14.689647,40.958817,ER-DK,,
-621251,-878031,hypsographic,"Isola Umm-Ali","Isola Umm-Ali",variant,16.016667,39.666667,ER-SK,,
-621083,-877698,hypsographic,Ualtona,Ualtona,official,13.616667,41.533333,ER-000,,
-620553,-876896,settlement,Ticse,Ticse,official,16.634358,38.628283,ER-SK,,
-621303,-878120,hydrographic,"Aqua Uodrib","Aqua Uodrib",variant,17.216667,37.7,ER-000,,
-621014,-876469,hypsographic,Taulud,Taulud,variant,15.603504,39.465508,ER-SK,,
-620850,-877314,hypsographic,Tuchel,Tuchel,official,16.060222,37.967149,ER-SK,,
-620276,-876502,hypsographic,Tebartud,Tebartud,official,17.027778,37.145556,ER-000,,
-621209,-877947,hydrographic,Uissa,Uissa,short,15.640483,39.464538,ER-SK,,
-620538,-876874,hypsographic,"Jebel Tiaiye","Jebel Tiaiye",official,16.4,37.033333,ER-000,,
-620740,-877165,hypsographic,Toqoile,Toqoile,variant,14.774167,39.097778,ER-DU,,
-620392,9329924,hypsographic,Tellina,Tellina,variant,14.506667,37.541111,ER-GB,,
-620394,-876670,hydrographic,"Tellai Din","Tellai Din",official,16.966667,37.4,ER-000,,
-620491,9338964,hypsographic,Saali,Saali,variant,14.733611,39.421667,ER-DU,,
-621368,-878278,hypsographic,Urug,Urug,official,15.203117,39.317462,ER-SK,,
-620350,-876610,hydrographic,"Tekay Lisane Bahir","Tekay Lisane Bahir",official,13.636389,42.168889,ER-000,,
-620801,-877253,settlement,Ts’e’āda,Ts'e'ada,official,15.310278,38.858611,ER-000,,
-620175,-876327,hydrographic,"Torrente Talabia","Torrente Talabia",variant,14.886944,37.623889,ER-GB,,
-621713,-878759,spot,"Wek’ertī Mīka’ēl Bēte Kristīyan","Wek'erti Mika'el Bete Kristiyan",official,15.15,39,ER-DU,,
-621301,-878116,hypsographic,"Monte Uod Nadeb","Monte Uod Nadeb",variant,16.437911,38.603151,ER-SK,,
-620202,-876361,hydrographic,"Tama Harnai-id","Tama Harnai-id",variant,16.967729,37.205599,ER-AN,,
-621209,-877949,hydrographic,"Uissa River","Uissa River",variant,15.640483,39.464538,ER-SK,,
-620613,9337095,settlement,Timen,Timen,variant,14.653056,38.861667,ER-DU,,
-620348,-876607,hydrographic,"Tekay Bahire Sekat’ē","Tekay Bahire Sekat'e",variant,13.577981,42.214923,ER-DK,,
-620802,-877254,hypsographic,"Ts’e’āda K’alay Shelek’o","Ts'e'ada K'alay Shelek'o",official,14.655,38.808056,ER-DU,,
-621266,401633,hypsographic,Um-les-Sahrig,Um-les-Sahrig,official,15.072706,40.497435,ER-SK,,
-620264,-876467,hydrographic,"Pozzi Tauai","Pozzi Tauai",variant,15.15,36.95,ER-000,,
-620495,-876812,hydrographic,"Pozzo Territ","Pozzo Territ",variant,16.246285,37.699358,ER-SK,,
-620217,-876397,hypsographic,"Isole Tanam","Isole Tanam",variant,16.3,39.75,ER-000,,
-620225,-876408,settlement,Tantarua,Tantarua,official,15.795463,38.461416,ER-SK,,
-620876,579401,settlement,Tkul,Tkul,official,14.796944,38.244444,ER-000,,
-620859,-877332,hypsographic,"Jebel Tuglal","Jebel Tuglal",official,15.2,36.9,ER-000,,
-620517,-876844,park,"Tetēru YeDur Bota","Teteru YeDur Bota",official,13.856204,41.375014,ER-DK,,
-621083,-877699,hypsographic,"Monti Ualtona","Monti Ualtona",variant,13.616667,41.533333,ER-000,,
-621250,-878003,hypsographic,"Um Ālbahār Desēt","Um Albahar Deset",official,12.97177,42.771188,ER-DK,,
-620771,-877214,settlement,Trongo,Trongo,official,15.861222,38.349139,ER-SK,,
-620517,-876843,park,"Tetēru Bota","Teteru Bota",variant,13.856204,41.375014,ER-DK,,
-620408,-876693,hypsographic,Tembelle,Tembelle,official,16.624911,38.209082,ER-DU,,
-621276,-878057,settlement,"Una Lanalay","Una Lanalay",official,15.449722,38.831111,ER-000,,
-620876,-877354,settlement,Tukul,Tukul,variant,14.796944,38.244444,ER-000,,
-621009,-877525,hydrographic,"Torrente Tutele","Torrente Tutele",variant,14.85,37.3,ER-000,,
-620491,9338963,hypsographic,"Amba Terika","Amba Terika",variant,14.733611,39.421667,ER-DU,,
-621076,-877680,hydrographic,Ualid,Ualid,official,16.036688,38.952254,ER-DU,,
-621018,-877536,settlement,"Tzada Addi","Tzada Addi",official,14.863889,38.398333,ER-000,,
-620379,-876645,hydrographic,"Pozzo Telat","Pozzo Telat",variant,16.221841,37.207684,ER-AN,,
-621341,401377,hypsographic,"Ras Uplah","Ras Uplah",official,15.566667,40.316667,ER-000,,
-621266,-878036,hypsographic,"Umm es Sahrig","Umm es Sahrig",variant,15.072706,40.497435,ER-SK,,
-620465,400183,spot,"Tera-Emnī Silasē Bēte Kristīyan","Tera-Emni Silase Bete Kristiyan",official,15.016667,38.833333,ER-000,,
-620261,-876468,settlement,Tauda,Tauda,official,15.178283,37.486768,ER-GB,,
-620231,-876419,hydrographic,Tarambo,Tarambo,official,16.917104,37.3091,ER-AN,,
-621452,-878416,hypsographic,"Jebel Wad Medin","Jebel Wad Medin",official,17.7,38.383333,ER-000,,
-621694,-878737,hydrographic,"Oued Weima","Oued Weima",variant,12.804444,42.991667,S1-000,,
-620877,-877321,hypsographic,"Monte Tucurit","Monte Tucurit",variant,15.416667,36.7,ER-000,,
-620703,-877096,hydrographic,Tocolai,Tocolai,variant,15.406126,37.740488,ER-GB,,
-620352,-876523,hydrographic,"Pozzo Tecbana","Pozzo Tecbana",variant,15.936718,37.413917,ER-GB,,
-620531,-876862,hypsographic,Thaabra,Thaabra,official,16.666667,38.25,ER-000,,
-620192,-876346,hypsographic,"Tallim Amadei","Tallim Amadei",official,16.947828,38.737881,ER-SK,,
-620613,-876970,settlement,Time’ī,Time'i,official,14.653056,38.861667,ER-DU,,
-620723,-877135,settlement,Tole,Tole,official,14.961111,37.755278,ER-GB,,
-620349,-873458,hypsographic,"Isola Rachmaf","Isola Rachmaf",variant,13.671617,42.211965,ER-DK,,
-621403,-878344,spot,Vigano,Vigano,official,15.333333,38.933333,ER-000,,
-620499,9347410,settlement,ተሰነይ,ተሰነይ,unknown,15.11,36.6575,ER-GB,,
-622031,-873423,hypsographic,"Quoin Island","Quoin Island",variant,13.752222,42.146111,ER-000,,
-621696,-878741,hydrographic,"We’īmī Wenz","We'imi Wenz",official,13.936241,40.595955,S1-000,,
-620876,-877318,settlement,Tucul,Tucul,variant,14.796944,38.244444,ER-000,,
-622043,-878764,settlement,Wek’iro,Wek'iro,official,15.822805,39.316171,ER-SK,,
-621250,9042379,hypsographic,"Umm-āl-Bahar Desēt","Umm-al-Bahar Deset",variant,12.97177,42.771188,ER-DK,,
-620804,-877256,hydrographic,"Ts’ebatat Shet’","Ts'ebatat Shet'",short,15.30895,39.003779,ER-MA,,
-620281,-876511,hypsographic,"Tebbo Caie","Tebbo Caie",official,17.302669,38.821488,ER-DU,,
-620206,-876371,hydrographic,Tambai,Tambai,official,16.527082,37.148234,ER-AN,,
-620704,13859381,hydrographic,Tokolay,Tokolay,official,15.422045,37.737222,ER-GB,,
-621694,-878337,hydrographic,"Torrente Veima","Torrente Veima",variant,12.804444,42.991667,S1-000,,
-620499,-876819,settlement,Tesene,Tesene,variant,15.11,36.6575,ER-GB,,
-620347,-876606,hypsographic,"Jebel Tekarai","Jebel Tekarai",official,15.016667,36.833333,ER-000,,
-620742,-877168,hypsographic,Tor,Tor,official,15.583333,40.633333,ER-000,,
-621179,-877897,hypsographic,"Uel Chelmoi","Uel Chelmoi",official,15.466667,38.45,ER-GB,,
-621447,-878406,hypsographic,Wadalaweb,Wadalaweb,variant,16.606251,37.038589,ER-AN,,
-620709,-877106,settlement,"Tof Alaba","Tof Alaba",official,16.514142,38.21702,ER-SK,,
-620244,-876443,hydrographic,Tashai,Tashai,official,15.183333,36.55,ER-000,,
-620466,-876774,spot,"Tera Imnī Timhirt Bēt","Tera Imni Timhirt Bet",variant,15.016667,38.833333,ER-000,,
-620875,-877353,hydrographic,"Tukubat Shet’","Tukubat Shet'",short,15.682778,39.449444,ER-SK,,
-620626,-876986,spot,"Tinishu Āseb Āndenya Dereja Timhirt Bēt","Tinishu Aseb Andenya Dereja Timhirt Bet",official,13.033333,42.733333,ER-000,,
-620379,-876644,hydrographic,Telat,Telat,official,16.221841,37.207684,ER-AN,,
-620393,-876669,hypsographic,"Monte Tellai","Monte Tellai",variant,15.733333,36.916667,ER-000,,
-620985,-877495,hydrographic,"Acqua Turgheman","Acqua Turgheman",variant,16.433333,37.966667,ER-000,,
-620763,-877127,hypsographic,Tohteben,Tohteben,variant,15.85,36.95,ER-000,,
-621691,-878732,hydrographic,"Wehan Wenz","Wehan Wenz",official,12.787184,42.733552,ER-DK,,
-620288,-876520,hydrographic,Tebra,Tebra,official,16.549015,38.474239,ER-SK,,
-621195,9328968,settlement,Ugolo,Ugolo,variant,14.824444,37.441111,ER-000,,
-621300,-878350,settlement,Vodgan,Vodgan,variant,17.333333,38.6,ER-000,,
-620645,-877013,settlement,T’ī’o,T'i'o,variant,14.689647,40.958817,ER-DK,,
-621116,-877780,hydrographic,Uarib,Uarib,official,16.509518,37.682491,ER-SK,,
-620703,-877099,hydrographic,"Torrente Tocolai","Torrente Tocolai",variant,15.406126,37.740488,ER-GB,,
-620491,-876803,hypsographic,"Āmba Terica","Amba Terica",official,14.733611,39.421667,ER-DU,,
-620625,9042066,settlement,"Tinishu Assab","Tinishu Assab",official,13.027222,42.742778,ER-DK,,
-620877,-877355,hypsographic,Tukuret,Tukuret,official,15.416667,36.7,ER-000,,
-620762,-879378,spot,"Ye’ājīp Nedaj Makemacha","Ye'ajip Nedaj Makemacha",variant,15.584935,39.440406,ER-SK,,
-620730,-877144,settlement,Tolesuca,Tolesuca,official,14.630833,36.936944,ER-000,,
-620899,-877383,hydrographic,"Pozzo Tulich","Pozzo Tulich",variant,16.55,37.316667,ER-000,,
-621712,-878758,settlement,Wekertī,Wekerti,official,15.148392,39.005354,ER-DU,,
-620547,-876888,hypsographic,"Monte Ticcanabal","Monte Ticcanabal",variant,16.558908,38.771186,ER-SK,,
-621694,-878738,hydrographic,"We’īma Wenz","We'ima Wenz",official,12.804444,42.991667,S1-000,,
-620322,-876570,hydrographic,"Pozzo Tegheilu","Pozzo Tegheilu",variant,16.395627,37.163386,ER-AN,,
-621266,-878025,hypsographic,"Isola Um es Sarig","Isola Um es Sarig",variant,15.072706,40.497435,ER-SK,,
-621107,-877759,hypsographic,Uarche,Uarche,official,16.002753,38.50947,ER-SK,,
-621127,-877801,hypsographic,Uasciu,Uasciu,official,16.896263,37.156481,ER-AN,,
-621091,-877733,hypsographic,"Uaoag Hesten","Uaoag Hesten",official,17.516863,38.533227,ER-SK,,
-621183,13865035,hypsographic,Uondzhulu,Uondzhulu,variant,16.408957,37.730683,ER-SK,,
-620393,-876668,hypsographic,Tellai,Tellai,official,15.733333,36.916667,ER-000,,
-620766,-877206,hypsographic,"Monte Totu","Monte Totu",variant,15.566667,36.883333,ER-000,,
-620202,-876362,hydrographic,Tamai,Tamai,official,16.967729,37.205599,ER-AN,,
-620210,-876378,hydrographic,Tamiam,Tamiam,official,16.583333,37.133333,ER-000,,
-620823,-879923,settlement,Zolot,Zolot,variant,15.279618,38.966425,ER-MA,,
-621251,-878005,hypsographic,"Isola Um Ali","Isola Um Ali",variant,16.016667,39.666667,ER-SK,,
-621033,-877579,hypsographic,"Uaccara Reba","Uaccara Reba",official,16.64518,37.751747,ER-SK,,
-621013,-876477,settlement,Tawlad,Tawlad,variant,15.600879,39.464991,ER-SK,,
-620352,-876613,hydrographic,Tekebanu,Tekebanu,official,15.936718,37.413917,ER-GB,,
-621400,-878332,hypsographic,Vann,Vann,official,12.55,42.633333,ER-000,,
-621427,-877578,hydrographic,"Pozzi Uaccai","Pozzi Uaccai",variant,15.533333,36.933333,ER-000,,
-621124,-877796,hypsographic,Uarunae,Uarunae,official,16.992287,37.808483,ER-SK,,
-620379,-876646,hydrographic,"Pozzo Telat Bir","Pozzo Telat Bir",variant,16.221841,37.207684,ER-AN,,
-621696,10410093,hydrographic,"Uoili Uonz","Uoili Uonz",variant,13.936241,40.595955,S1-000,,
-620208,-876374,hydrographic,"Tambo Shet’","Tambo Shet'",official,14.580833,38.705278,ER-DU,,
-620215,-876392,hypsographic,Tanadu,Tanadu,official,16.035658,38.538504,ER-DU,,
-620202,-876358,hydrographic,"Pozzo Tama","Pozzo Tama",variant,16.967729,37.205599,ER-AN,,
-621042,-877606,hypsographic,"Uad Gaber","Uad Gaber",official,17.635027,38.692292,ER-SK,,
-620740,-877166,hypsographic,"Āmba Toquile","Amba Toquile",official,14.774167,39.097778,ER-DU,,
-621013,-877529,settlement,T’walet,T'walet,official,15.600879,39.464991,ER-SK,,
-621251,-878004,hypsographic,"Um Ali","Um Ali",official,16.016667,39.666667,ER-SK,,
-620462,-876770,settlement,"Tera Imnī","Tera Imni",variant,15.009549,38.826642,ER-DU,,
-620348,578001,hydrographic,"Tekay Bahire Selat’ē","Tekay Bahire Selat'e",variant,13.577981,42.214923,ER-DK,,
-620231,-876420,hydrographic,"Pozzo Tarambo","Pozzo Tarambo",variant,16.917104,37.3091,ER-AN,,
-620361,-876527,hydrographic,"Mersa Teclai","Mersa Teclai",variant,17.551978,38.852316,ER-SK,,
-621160,-877865,park,"Ud’ālē Bota","Ud'ale Bota",official,12.879948,42.668411,ER-DK,,
-621101,-877751,hydrographic,Uarare,Uarare,official,16.396436,37.161939,ER-AN,,
-620395,-876673,hydrographic,Tellina,Tellina,official,14.840556,37.318611,ER-000,,
-620190,-876343,hypsographic,Tallasuba,Tallasuba,official,14.457804,36.943545,ER-GB,,
-621208,-877945,hypsographic,Uirciaga,Uirciaga,official,16.103549,38.27443,ER-SK,,
-620645,-876869,settlement,Thio,Thio,variant,14.689647,40.958817,ER-DK,,
-621712,13892180,settlement,Uogerti,Uogerti,variant,15.148392,39.005354,ER-DU,,
-620514,-876840,settlement,Tetafil,Tetafil,official,16.111038,38.343038,ER-SK,,
-621092,-877734,settlement,Uara,Uara,official,15.616339,38.778341,ER-AN,,
-621018,9330130,settlement,"Tsada Addi","Tsada Addi",variant,14.863889,38.398333,ER-000,,
-620859,-877115,hypsographic,"Monte Togolel","Monte Togolel",variant,15.2,36.9,ER-000,,
-620236,-876430,settlement,Targhan,Targhan,official,12.65,42.4,ER-000,,
-620462,-876776,settlement,Teramni,Teramni,variant,15.009549,38.826642,ER-DU,,
-620645,578518,settlement,Tio,Tio,official,14.689647,40.958817,ER-DK,,
-620723,-873374,settlement,"Pozzi di Tole","Pozzi di Tole",variant,14.961111,37.755278,ER-GB,,
-622071,-879193,hypsographic,Wirheir,Wirheir,official,17.4,37.883333,ER-000,,
-620763,-876588,hypsographic,Tehteben,Tehteben,variant,15.85,36.95,ER-000,,
-621203,-877934,hypsographic,"Debra Ugul","Debra Ugul",official,15.096107,38.283777,ER-GB,,
-620464,-876772,spot,"Tera Imnī Nora Fabrīka","Tera Imni Nora Fabrika",variant,15.003611,38.825556,ER-000,,
-620498,-876836,hydrographic,"Pozzo Tessanei","Pozzo Tessanei",variant,15.844224,37.08487,ER-GB,,
-620859,-877116,hypsographic,"Monte Togolet","Monte Togolet",variant,15.2,36.9,ER-000,,
-621195,578119,settlement,Awgaro,Awgaro,official,14.824444,37.441111,ER-000,,
-620499,-876837,settlement,Tessenei,Tessenei,variant,15.11,36.6575,ER-GB,,
-621841,-878920,spot,"Wengēlawiyan Mīsīyon Timhirt Bēt","Wengelawiyan Misiyon Timhirt Bet",official,15.333333,38.933333,ER-000,,
-620175,-876326,hydrographic,Talabia,Talabia,official,14.886944,37.623889,ER-GB,,
-620703,577713,hydrographic,Tokolay,Tokolay,official,15.406126,37.740488,ER-GB,,
-620499,-876821,settlement,Teseney,Teseney,official,15.11,36.6575,ER-GB,,
-621128,-877802,settlement,Uasentet,Uasentet,official,15.916667,38.5,ER-AN,,
-621621,-878650,settlement,Wedegiba,Wedegiba,official,17.099436,38.406878,ER-DU,,
-620463,-876771,spot,"Tera Imnī Katolīk Silasē Bēte Kristīyan","Tera Imni Katolik Silase Bete Kristiyan",variant,15.016667,38.833333,ER-000,,
-620465,-876773,spot,"Tera Imnī Silasē Bēte Kristīyan","Tera Imni Silase Bete Kristiyan",variant,15.016667,38.833333,ER-000,,
-621101,-877752,hydrographic,"Torrente Uarare","Torrente Uarare",variant,16.396436,37.161939,ER-AN,,
-621043,-877607,hydrographic,Uadgan,Uadgan,variant,17.516687,38.853,ER-SK,,
-620493,-876807,hypsographic,"Monte Termab","Monte Termab",variant,16.411486,39.044638,ER-DU,,
-621251,-867214,hypsographic,"Īto Um Ali","Ito Um Ali",variant,16.016667,39.666667,ER-SK,,
-620498,-876818,hydrographic,Tesani,Tesani,official,15.844224,37.08487,ER-GB,,
-620217,-876396,hypsographic,Tanam,Tanam,official,16.3,39.75,ER-000,,
-621263,-878028,hypsographic,"Umin Chelmoi","Umin Chelmoi",official,17.266667,37.816667,ER-000,,
-620394,-876671,hydrographic,"Pozzo Tellai Din","Pozzo Tellai Din",variant,16.966667,37.4,ER-000,,
-620392,-876663,hypsographic,Tella,Tella,official,14.506667,37.541111,ER-GB,,
-620714,-877111,settlement,Tognuf,Tognuf,official,16.173087,37.419711,ER-AN,,
-621341,-878225,hypsographic,"Ras Uplali","Ras Uplali",variant,15.566667,40.316667,ER-000,,
-621408,13844378,hypsographic,"Kor Uaret","Kor Uaret",variant,15.803533,39.014712,ER-SK,,
-620538,-876593,hypsographic,"Monti Teiaie","Monti Teiaie",variant,16.4,37.033333,ER-000,,
-620813,-877270,spot,"Ts’egwaro Maryam Bēte Kristīyan","Ts'egwaro Maryam Bete Kristiyan",official,15.033333,39.033333,ER-DU,,
-621044,-877611,hypsographic,"Mount Uadi","Mount Uadi",variant,15.646193,39.410372,ER-SK,,
-620396,-876676,hydrographic,Tellul,Tellul,official,16.678212,37.818292,ER-SK,,
-620812,-877269,settlement,Ts’egwaro,Ts'egwaro,official,15.031389,39.025,ER-DU,,
-621265,-878035,hypsographic,"Umm en Nayim","Umm en Nayim",official,15.55,40.55,ER-000,,
-621090,-877728,hypsographic,"Piana di Uangabo","Piana di Uangabo",variant,14.94979,39.821921,ER-SK,,
-620538,-876592,hypsographic,"Monti Teiaè","Monti Teiae",variant,16.4,37.033333,ER-000,,
-620678,-877055,hypsographic,Tisciait,Tisciait,official,15.340599,38.418177,ER-GB,,
-621286,-878079,hydrographic,"‘Ungula Shet’","`Ungula Shet'",official,15.513333,38.740833,ER-MA,,
-621403,-878345,spot,"Fort Vigano","Fort Vigano",variant,15.333333,38.933333,ER-000,,
-620769,-849738,settlement,"Adi Embela","Adi Embela",variant,15.255556,39.029722,ER-MA,,
-620323,-876572,settlement,Tegheren,Tegheren,official,14.814444,39.346667,ER-DU,,
-620210,-876379,hydrographic,"Pozzo Tamiam","Pozzo Tamiam",variant,16.583333,37.133333,ER-000,,
-621243,-877994,hypsographic,Ulula,Ulula,official,14.99081,39.461248,ER-DU,,
-620464,400186,spot,"Tera-Emnī Nora Fabrīka","Tera-Emni Nora Fabrika",official,15.003611,38.825556,ER-000,,
-620323,9338962,settlement,Tegeren,Tegeren,variant,14.814444,39.346667,ER-DU,,
-621499,-878479,park,"Walaka Bota","Walaka Bota",official,15.123056,38.955278,ER-000,,
-620766,-877205,hypsographic,Totu,Totu,official,15.566667,36.883333,ER-000,,
-620704,-877097,hydrographic,Tocolai,Tocolai,variant,15.422045,37.737222,ER-GB,,
-621025,-877556,hypsographic,"Tzeru Conia","Tzeru Conia",official,13.694607,41.940157,ER-DK,,
-620462,400153,settlement,Tera-Emnī,Tera-Emni,official,15.009549,38.826642,ER-DU,,
-621320,-878157,hypsographic,"Uold Durni","Uold Durni",official,17.493554,38.789377,ER-SK,,
-620276,-876503,hypsographic,"Jebel Tebartud","Jebel Tebartud",variant,17.027778,37.145556,ER-000,,
-621399,-878331,settlement,Vann,Vann,official,12.65,42.633333,ER-000,,
-622087,-879213,hypsographic,"Jebel Woad Adarat","Jebel Woad Adarat",official,17.580755,38.505551,ER-SK,,
-620769,-877212,settlement,Tredīshī,Tredishi,short,15.255556,39.029722,ER-MA,,
-620206,-876370,hydrographic,"Pozzo Tambae","Pozzo Tambae",variant,16.527082,37.148234,ER-AN,,
-620264,-876475,hydrographic,Tawai,Tawai,official,15.15,36.95,ER-000,,
-620349,-873459,hypsographic,"Isola Rachmat","Isola Rachmat",variant,13.671617,42.211965,ER-DK,,
-621696,10422978,hydrographic,"We’īma Wenz","We'ima Wenz",variant,13.936241,40.595955,S1-000,,
-621016,-877532,spot,"T’walet Maryam Bēte Kristīyan","T'walet Maryam Bete Kristiyan",official,15.6,39.466667,ER-SK,,
-620803,-877255,spot,"Ts’e’āda Mīka’ēl Bēte Kristīyan","Ts'e'ada Mika'el Bete Kristiyan",official,15.316667,38.85,ER-000,,
-620242,-876439,settlement,Tarua,Tarua,official,15.399234,39.520023,ER-SK,,
-621709,-878755,spot,"Wek Diba K’usk’wam Bēte Kristīyan","Wek Diba K'usk'wam Bete Kristiyan",official,15.366667,38.883333,ER-000,,
-622043,-879157,settlement,Wik’ro,Wik'ro,variant,15.822805,39.316171,ER-SK,,
-620407,-876692,hydrographic,"T’emami’ā Shet’","T'emami'a Shet'",short,15.291357,39.062408,ER-SK,,
-620742,-877169,hypsographic,"Isola Tor","Isola Tor",variant,15.583333,40.633333,ER-000,,
-620831,-877290,hypsographic,Tseuet,Tseuet,official,16.982069,37.668355,ER-SK,,
-621074,-877684,hypsographic,"Uali Mountains","Uali Mountains",variant,12.960305,42.0881,ER-DK,,
-620393,-876664,hypsographic,Tella,Tella,variant,15.733333,36.916667,ER-000,,
-621400,-878333,hypsographic,"Colle Vann","Colle Vann",variant,12.55,42.633333,ER-000,,
-621043,13868430,hydrographic,Wudgan,Wudgan,official,17.516687,38.853,ER-SK,,
-621000,-877514,hypsographic,"Ras Turrec","Ras Turrec",official,15.857211,39.3621,ER-SK,,
-620769,-860850,settlement,Embela,Embela,variant,15.255556,39.029722,ER-MA,,
-621255,-878014,hypsographic,"Mount Umberto","Mount Umberto",variant,15.600985,39.423613,ER-SK,,
-620361,-876324,hydrographic,"Marsa Taklai","Marsa Taklai",variant,17.551978,38.852316,ER-SK,,
-621015,-877531,spot,"T’walet K’idist Maryam Timhirt Bēt","T'walet K'idist Maryam Timhirt Bet",official,15.6,39.466667,ER-SK,,
-621044,-877610,hypsographic,Uadi,Uadi,official,15.646193,39.410372,ER-SK,,
-620248,-876452,hypsographic,"Ta Taru","Ta Taru",official,14.266667,40.666667,ER-DK,,
-621303,-878119,hydrographic,Uodrib,Uodrib,official,17.216667,37.7,ER-000,,
-621014,-876472,hypsographic,"Taulud Island","Taulud Island",variant,15.603504,39.465508,ER-SK,,
-620396,-876677,hydrographic,"Torrente Tellul","Torrente Tellul",variant,16.678212,37.818292,ER-SK,,
-621074,-877678,hypsographic,Uali,Uali,official,12.960305,42.0881,ER-DK,,
-621183,-877909,hypsographic,Uengilu,Uengilu,official,16.408957,37.730683,ER-SK,,
-620547,-876887,hypsographic,Ticcanabal,Ticcanabal,official,16.558908,38.771186,ER-SK,,
-620823,-877282,settlement,Ts’elot,Ts'elot,official,15.279618,38.966425,ER-MA,,
-620215,-876393,hypsographic,"Monte Tanadu","Monte Tanadu",variant,16.035658,38.538504,ER-DU,,
-619113,-874735,hydrographic,"Pozzo Segh","Pozzo Segh",variant,17,37.783333,ER-000,,
-619334,-875052,hydrographic,"Seredak’o Shet’","Seredak'o Shet'",official,15.165007,39.070947,ER-DU,,
-619416,-875156,hypsographic,"Punta Sha‘ab Shakhs","Punta Sha`ab Shakhs",variant,14.65,41.116667,ER-DK,,
-620158,-876291,hypsographic,"Monte Taghi","Monte Taghi",variant,13.047778,42.650833,ER-DK,,
-618958,-874477,hypsographic,Sciamotat,Sciamotat,official,16.592534,38.364765,ER-DU,,
-618880,-874306,hypsographic,Sassanag,Sassanag,official,16.131528,38.785792,ER-DU,,
-618880,-874307,hypsographic,"Monte Sassanag","Monte Sassanag",variant,16.131528,38.785792,ER-DU,,
-618440,-873563,hypsographic,"Ras Mukwar YeMidir Zerf Ch’af","Ras Mukwar YeMidir Zerf Ch'af",official,12.956581,42.977315,ER-DK,,
-618475,9042398,settlement,Rahayta,Rahayta,variant,12.728518,43.083404,ER-DK,,
-618642,-873877,settlement,Saatta,Saatta,official,16.530119,37.389384,ER-AN,,
-620116,13865391,hydrographic,Tambor,Tambor,variant,16.447851,37.70026,ER-SK,,
-618697,-873970,hydrographic,Safitiena,Safitiena,official,14.583333,40.4,ER-SK,,
-618603,-873808,hypsographic,"Monte Rossi","Monte Rossi",variant,13.6,42.066667,ER-000,,
-619981,-876006,hydrographic,"Aqua Sootai","Aqua Sootai",variant,16.883333,37.45,ER-000,,
-618961,-874486,hypsographic,"Monte Sciangaleti","Monte Sciangaleti",variant,14.781111,37.114167,ER-000,,
-619576,-874459,hydrographic,"Pozzi Scialiedere","Pozzi Scialiedere",variant,15.259826,37.429868,ER-GB,,
-618399,-873482,settlement,Rahei,Rahei,official,16.054886,38.209736,ER-SK,,
-619107,-874723,settlement,Segeleyti,Segeleyti,variant,15.052778,39.187222,ER-DU,,
-618584,-873778,hypsographic,Romia,Romia,official,16.533333,40.05,ER-000,,
-618919,-874374,settlement,"Sceic Abdo Raama","Sceic Abdo Raama",official,15.8,40.016667,ER-SK,,
-618938,-874422,hydrographic,Sciaabor,Sciaabor,official,15.664877,38.06746,ER-000,,
-618753,-874097,hypsographic,"Monti di Salassima","Monti di Salassima",variant,13.016667,42.083333,ER-000,,
-619729,13837239,hypsographic,Suduh-lela,Suduh-lela,official,13.398209,42.004623,ER-DK,,
-620148,-876279,hypsographic,"Monte Taflenai","Monte Taflenai",variant,17.65,38.35,S1-000,,
-618494,-873637,hydrographic,"Rendelī Wenz","Rendeli Wenz",variant,12.841838,42.847585,ER-DK,,
-618706,-873995,hypsographic,"Monte Saghettà","Monte Saghetta",variant,15.1,37.766667,ER-000,,
-619585,-875404,settlement,Shiketī,Shiketi,official,15.151447,38.862094,ER-MA,,
-618454,-873580,hydrographic,Rathale,Rathale,official,14.016667,41.55,ER-DK,,
-619376,10208654,settlement,Sessagede,Sessagede,variant,14.864769,39.689402,ER-SK,,
-618448,512438,hypsographic,"Ras Darma Desēt","Ras Darma Deset",official,13.164722,42.588889,ER-DK,,
-619113,-874734,hydrographic,Segh,Segh,official,17,37.783333,ER-000,,
-618396,-861074,hydrographic,"River Er Rahad","River Er Rahad",variant,14.466667,33.516667,S1-000,,
-620131,-876231,hypsographic,"Monte Tacara","Monte Tacara",variant,15.167205,38.696714,ER-DU,,
-619741,-875616,hypsographic,"Jabal Sigatalim",JabalSigatalim,official,17.55,38.1,S1-000,,
-618348,-873372,settlement,"Port Smyth","Port Smyth",official,15.540133,40,ER-SK,,
-618522,-873680,hydrographic,"Pozzi Rimuddoli","Pozzi Rimuddoli",variant,15.302447,39.960975,ER-SK,,
-618413,9042317,hypsographic,"Ras Rendelī","Ras Rendeli",official,12.863821,42.844056,ER-DK,,
-618691,-873963,hydrographic,"Torrente Sadüm","Torrente Sadum",variant,15.47581,37.66705,ER-GB,,
-619889,13821100,hypsographic,Sokh-Ale,Sokh-Ale,variant,14.487778,41.036603,ER-DK,,
-619001,-874575,hydrographic,Sciuguolguol,Sciuguolguol,variant,15.510966,38.085203,ER-GB,,
-619477,-878382,hydrographic,"Wabi Shebele River","Wabi Shebele River",variant,0.2,42.75,S1-000,,
-619577,-874354,hypsographic,Sceba,Sceba,variant,15.565921,37.366965,ER-GB,,
-619107,415000,settlement,Segheneytī,Segheneyti,official,15.052778,39.187222,ER-DU,,
-619987,10421600,hypsographic,Sorkali,Sorkali,variant,13.179445,41.934814,ER-DK,,
-620148,-876555,hypsographic,"Jebel Tefleinai","Jebel Tefleinai",variant,17.65,38.35,S1-000,,
-619619,-874562,hypsographic,"Monte Scirbo","Monte Scirbo",variant,15.283333,37.3,ER-GB,,
-618973,-874518,settlement,"Sciec Alilo","Sciec Alilo",official,14.616667,41.033333,ER-DK,,
-618875,-874300,spot,"Sasah Debre K’usk’wam Katolīk Mīsīyon","Sasah Debre K'usk'wam Katolik Misiyon",variant,15.114804,39.045289,ER-DU,,
-619506,415072,hypsographic,"Shēk Seyd","Shek Seyd",official,15.592887,39.478413,ER-SK,,
-620114,-856888,settlement,Ciaresci,Ciaresci,variant,15.460027,38.81392,ER-MA,,
-618447,13824306,hypsographic,Rasité,Rasite,variant,13.823973,41.176795,ER-DK,,
-619985,-876015,settlement,Sorbetit,Sorbetit,official,16.016667,36.916667,ER-000,,
-618909,-874352,hydrographic,Sce,Sce,official,16.75,37.666667,ER-000,,
-618477,-873483,park,Raheita,Raheita,variant,12.709445,43.055361,ER-DK,,
-618961,9328443,hypsographic,Shangaleti,Shangaleti,variant,14.781111,37.114167,ER-000,,
-620120,-876212,hydrographic,Tabbih,Tabbih,variant,17.256143,38.448135,ER-DU,,
-618914,-874638,hypsographic,"Seccai Reba","Seccai Reba",variant,16.428634,37.821404,ER-SK,,
-619416,13818987,hypsographic,"Ras Shab Shiaks","Ras Shab Shiaks",official,14.65,41.116667,ER-DK,,
-619600,-875421,settlement,"Shīma Nigus Tahtay","Shima Nigus Tahtay",variant,15.490859,38.733528,ER-GB,,
-619097,-874715,spot,"Segdo Fīlīp’os Bēte Kristīyan","Segdo Filip'os Bete Kristiyan",official,15.333333,38.9,ER-000,,
-618438,-870020,hypsographic,"Ras Loma","Ras Loma",variant,13.039444,42.740278,ER-DK,,
-618492,579637,settlement,Randakoma,Randakoma,official,14.45722,39.989042,ER-DU,,
-618474,-873611,hypsographic,Regi,Regi,official,12.938056,42.530556,ER-000,,
-619584,-875401,settlement,Shigirnī,Shigirni,short,15.366667,38.991944,ER-MA,,
-619881,-875834,hydrographic,"Port Smythe","Port Smythe",variant,15.533333,39.983333,ER-SK,,
-618768,-874118,hydrographic,"Pozzi Salicheti","Pozzi Salicheti",variant,13.066667,42.666667,ER-000,,
-619789,-875686,hypsographic,Simburi,Simburi,official,14.664444,37.340833,ER-000,,
-620029,-876079,hypsographic,Subucle,Subucle,official,14.321312,40.973929,ER-DK,,
-618687,579388,settlement,Ksad-Ika,Ksad-Ika,official,14.520278,38.778056,ER-DU,,
-618363,-873411,settlement,Queddaelli,Queddaelli,official,15.45,38.516667,ER-GB,,
-619477,-875258,hydrographic,"Wabē Shebelē Wenz","Wabe Shebele Wenz",official,0.2,42.75,S1-000,,
-618399,-873489,settlement,Raher,Raher,variant,16.054886,38.209736,ER-SK,,
-619091,-874705,hypsographic,Segala,Segala,official,15.75,40.75,ER-000,,
-619677,-874582,hypsographic,"Isola Sciumma","Isola Sciumma",variant,15.537243,40.002687,ER-SK,,
-619477,-874360,hydrographic,"Scebeli River","Scebeli River",variant,0.2,42.75,S1-000,,
-618436,-873558,hypsographic,"Ras Fatuma YeMidir Zerf Ch’af","Ras Fatuma YeMidir Zerf Ch'af",official,13.039722,42.875556,ER-DK,,
-618706,-873994,hypsographic,Saghetta,Saghetta,official,15.1,37.766667,ER-000,,
-619411,-875153,hydrographic,"Acqua Sfeda","Acqua Sfeda",variant,15.92487,38.184061,ER-SK,,
-619600,-875422,settlement,"Shīma Nigus Tihtay","Shima Nigus Tihtay",variant,15.490859,38.733528,ER-GB,,
-618966,-874497,hypsographic,Sciardeba,Sciardeba,official,15.35,38.416667,ER-GB,,
-619477,-875260,hydrographic,Shebelli,Shebelli,variant,0.2,42.75,S1-000,,
-618925,-874394,hydrographic,Scelab,Scelab,official,15.672012,38.080125,ER-000,,
-618398,-873480,hypsographic,"Monti Rahareh","Monti Rahareh",variant,16.383333,38.466667,ER-000,,
-618981,-874534,hypsographic,"Pianura Scinghilla Sora","Pianura Scinghilla Sora",variant,14.721389,36.851944,ER-000,,
-619016,-874598,spot,"Sebatenyaw K’en Ādvēntīst Mīsīyon Timhirt Bēt","Sebatenyaw K'en Adventist Misiyon Timhirt Bet",official,15.333333,38.933333,ER-000,,
-618990,-874553,hydrographic,Sciotel,Sciotel,official,15.487259,38.219229,ER-GB,,
-618920,-874375,spot,"Sceic Aidah","Sceic Aidah",official,12.95,42.7,ER-000,,
-620061,-876133,hypsographic,"Jebel Sultan","Jebel Sultan",variant,15.483333,36.633333,S1-000,,
-618492,-873634,settlement,Renda,Renda,variant,14.45722,39.989042,ER-DU,,
-618476,-873613,hypsographic,"Ras Rehayto","Ras Rehayto",variant,12.730758,43.114214,ER-DK,,
-618438,-870101,hypsographic,"Ras Lumà","Ras Luma",variant,13.039444,42.740278,ER-DK,,
-619013,-873884,park,Sabarguma,Sabarguma,variant,15.518889,39.101111,ER-SK,,
-619477,-875392,hydrographic,"Webbe Shibeli","Webbe Shibeli",variant,0.2,42.75,S1-000,,
-620116,-876207,hydrographic,"Acqua Tabà","Acqua Taba",variant,16.447851,37.70026,ER-SK,,
-618894,-874328,hydrographic,"Secca Saunders","Secca Saunders",variant,17.2,39.4,ER-000,,
-618664,-873913,hypsographic,"Passo Sacar","Passo Sacar",variant,17.384865,38.203128,ER-DU,,
-618806,-874176,settlement,Samoti,Samoti,official,14.706944,40.061944,ER-SK,,
-619598,-875419,spot,"Shīma Nigus La‘ilay Maryam Bēte Kristīyan","Shima Nigus La`ilay Maryam Bete Kristiyan",official,15.466667,38.85,ER-MA,,
-618786,-874149,hypsographic,"Monte Samait","Monte Samait",variant,16.176806,38.227144,ER-SK,,
-619722,-875585,spot,"Sidi Amin Ghella","Sidi Amin Ghella",variant,12.550029,42.85358,ER-DK,,
-619105,-874726,hydrographic,"Segena Shet’","Segena Shet'",official,15.223611,38.83,ER-000,,
-618381,-873452,hypsographic,"Monte Rabussom","Monte Rabussom",variant,16.75,36.983333,S1-000,,
-618892,-874323,hydrographic,Saua,Saua,official,15.95,37.083333,ER-GB,,
-618986,-875899,park,Soho,Soho,variant,15.333333,39.5,ER-SK,,
-619318,20335171,administrative_region,Serayē,Seraye,official,14.833333,38.5,ER-000,,
-620148,-876554,hypsographic,"Jabal Tefleinai","Jabal Tefleinai",official,17.65,38.35,S1-000,,
-619207,-874871,hypsographic,"Selefī Desēt","Selefi Deset",official,13.66063,42.146538,ER-DK,,
-618894,-874329,hydrographic,"Saunders Reef","Saunders Reef",official,17.2,39.4,ER-000,,
-619490,-875276,settlement,"Shēh Ābdel K’adir","Sheh Abdel K'adir",official,15.623346,39.478091,ER-SK,,
-618494,-873515,hydrographic,Randale,Randale,variant,12.841838,42.847585,ER-DK,,
-618381,-873450,hypsographic,"Jabal Rabussom",JabalRabussom,official,16.75,36.983333,S1-000,,
-619881,-875831,hydrographic,"Porto Smith","Porto Smith",variant,15.533333,39.983333,ER-SK,,
-619137,-874777,hypsographic,"Isola Seil Anber","Isola Seil Anber",variant,16.316667,40.016667,ER-000,,
-619580,414082,spot,"Sha’ab Shakhs","Sha'ab Shakhs",variant,14.649464,41.116181,ER-DK,,
-619107,-874728,settlement,Segeneytī,Segeneyti,variant,15.052778,39.187222,ER-DU,,
-618817,-874196,hypsographic,Sanda,Sanda,official,14.352135,40.53142,ER-DK,,
-619677,-875521,hypsographic,Shumma,Shumma,official,15.537243,40.002687,ER-SK,,
-618939,578437,settlement,Shibah,Shibah,official,15.699551,39.049823,ER-SK,,
-619135,-874771,hypsographic,"Isola Seil Adasi","Isola Seil Adasi",variant,16.166667,39.933333,ER-000,,
-619310,-875016,hypsographic,Serae,Serae,official,15.241401,38.171056,ER-GB,,
-618435,-873557,spot,"Ras Fatuma YeBahir Sīgnal Kifil","Ras Fatuma YeBahir Signal Kifil",official,13.041944,42.873611,ER-000,,
-619477,337798,hydrographic,"Wabē Shebelē","Wabe Shebele",variant,0.2,42.75,S1-000,,
-618716,-874011,park,Sahel,Sahel,official,12.75,42.9,ER-000,,
-618428,-873541,park,Rasciaida,Rasciaida,official,17.75,38.7,ER-000,,
-619872,-875816,hydrographic,Sitona,Sitona,official,14.411638,37.349945,ER-GB,,
-618994,-874559,hypsographic,Scirab,Scirab,official,17.116667,37.883333,ER-000,,
-618818,-874198,hydrographic,"Pozzo Sanda","Pozzo Sanda",variant,13.9,41.75,ER-DK,,
-619586,-875405,spot,"Shiketī Īyesus Bēte Kristīyan","Shiketi Iyesus Bete Kristiyan",official,15.15,38.866667,ER-000,,
-618999,-874571,hypsographic,Sciua,Sciua,variant,14.283333,41.116667,ER-DK,,
-619480,-875264,settlement,Sheburur,Sheburur,official,14.266658,41.463254,ER-DK,,
-619983,9337047,hypsographic,Soranat,Soranat,variant,14.695556,38.922222,ER-DU,,
-618719,20335168,administrative_region,Sahil,Sahil,official,17,38.583333,ER-SK,,
-618687,-873955,settlement,Sadīk’a,Sadik'a,variant,14.520278,38.778056,ER-DU,,
-619013,-874595,park,"Sebar Guma Bota","Sebar Guma Bota",official,15.518889,39.101111,ER-SK,,
-619810,-875720,hypsographic,"Ras Sintian","Ras Sintian",official,12.8413,43.070916,ER-DK,,
-618688,-873956,spot,"Sadīk’a Polīs T’abīya","Sadik'a Polis T'abiya",official,14.516667,38.783333,ER-DU,,
-618910,-874353,hydrographic,Sce,Sce,official,16.859739,37.707651,ER-SK,,
-619867,-875809,hypsographic,Si-Seneb,Si-Seneb,official,16.333333,38.516667,ER-000,,
-618691,-873959,hydrographic,Sadium,Sadium,official,15.47581,37.66705,ER-GB,,
-618743,-874075,hydrographic,"Torrente Sala","Torrente Sala",variant,16.879779,37.596083,ER-SK,,
-618591,-873789,hypsographic,"Rora Maret","Rora Maret",official,16.776844,38.297653,ER-DU,,
-618816,-874195,settlement,Sanda,Sanda,official,14.319673,40.532356,ER-DK,,
-619136,-851623,hypsographic,Anber,Anber,variant,15.473467,40.470073,ER-SK,,
-619426,-874441,hypsographic,"Ras Sciacs","Ras Sciacs",variant,14.619862,41.191445,ER-DK,,
-619145,-874765,hypsographic,"Isola Seiem","Isola Seiem",variant,15.816667,40.266667,ER-000,,
-618717,-874012,park,Sahel,Sahel,official,17.5,38.666667,ER-000,,
-619361,-875090,hypsographic,"Serobitella Hill","Serobitella Hill",variant,15.35,37.95,ER-000,,
-619411,-875152,hydrographic,Sfeda,Sfeda,official,15.92487,38.184061,ER-SK,,
-618411,13818985,hydrographic,Ramda,Ramda,variant,14.634318,41.016239,ER-DK,,
-619722,-875588,spot,"Sidiha Mengela","Sidiha Mengela",variant,12.550029,42.85358,ER-DK,,
-620097,-876183,hydrographic,"Pozzo Surri","Pozzo Surri",variant,14.092283,41.591724,ER-DK,,
-619874,-875820,hypsographic,"Siwadim Terara","Siwadim Terara",official,15.698611,38.57,ER-AN,,
-618894,-876044,hydrographic,"Banco Sounders","Banco Sounders",variant,17.2,39.4,ER-000,,
-618370,-873434,settlement,Raa,Raa,official,14.624308,40.768079,ER-DK,,
-619289,-862934,hydrographic,"Gerar Bay","Gerar Bay",variant,15.615842,39.475661,ER-SK,,
-619289,-863266,hydrographic,"Seno Gherar","Seno Gherar",variant,15.615842,39.475661,ER-SK,,
-619139,-874780,hypsographic,"Seil Badira","Seil Badira",official,16.184305,39.428195,ER-DK,,
-619191,13824330,hypsographic,"Séil Abeilat Island","Seil Abeilat Island",variant,13.856379,42.029965,ER-DK,,
-619585,-875310,settlement,Sheketi,Sheketi,variant,15.151447,38.862094,ER-MA,,
-620008,-876046,hydrographic,"South Massaua Channel","South Massaua Channel",variant,15.333333,40.25,ER-SK,,
-619750,-875632,hypsographic,Sihàl,Sihal,variant,14.941944,39.426111,ER-000,,
-619426,-874455,hypsographic,"Ras Sciaks","Ras Sciaks",variant,14.619862,41.191445,ER-DK,,
-619597,-875418,settlement,"Shīma Nigus La‘ilay","Shima Nigus La`ilay",official,15.475,38.848333,ER-MA,,
-619290,-876470,hydrographic,"Seno Taulud","Seno Taulud",variant,15.596337,39.453043,ER-SK,,
-618692,-873960,hypsographic,Sadla,Sadla,official,13.8792,41.938344,ER-DK,,
-618849,-874257,hypsographic,"Passo Sarat","Passo Sarat",variant,16.8,38.433333,ER-SK,,
-619399,-875140,spot,"Seyid Hashum Mesgīd","Seyid Hashum Mesgid",official,15.616667,39.416667,ER-SK,,
-619496,-875307,spot,"Shēk Āl Āmīn Āndenya Dereja Timhirt Bēt","Shek Al Amin Andenya Dereja Timhirt Bet",variant,15.6,39.466667,ER-SK,,
-618382,-873496,hypsographic,Raka,Raka,variant,15.716667,40.666667,ER-000,,
-618721,-869755,settlement,Lelissa,Lelissa,variant,14.724926,40.82864,ER-DK,,
-620173,-876319,spot,"Takīta Īyesus Bēte Kristīyan","Takita Iyesus Bete Kristiyan",official,15,38.8,ER-DU,,
-620021,-876067,hypsographic,"Mount Suara","Mount Suara",official,16.538228,38.442046,ER-DU,,
-620103,-876189,hydrographic,"Surwa Hāyk’","Surwa Hayk'",official,15.396111,38.902778,ER-000,,
-618596,-873794,hypsographic,"Rora Vogret","Rora Vogret",official,16.367612,38.062887,ER-SK,,
-618994,-874560,hypsographic,"Monti Scirab","Monti Scirab",variant,17.116667,37.883333,ER-000,,
-619610,-875436,hydrographic,"Shinfi’ā Hāyk’","Shinfi'a Hayk'",official,15.424167,38.893889,ER-000,,
-618438,-870102,hypsographic,"Ras Lumah","Ras Lumah",variant,13.039444,42.740278,ER-DK,,
-619136,-874776,hypsographic,"Isola Seil Anber","Isola Seil Anber",variant,15.473467,40.470073,ER-SK,,
-618436,-861337,hypsographic,"Ras Fatuma","Ras Fatuma",variant,13.039722,42.875556,ER-DK,,
-619506,-875318,hypsographic,"Shēk Se’īd Desēt","Shek Se'id Deset",variant,15.592887,39.478413,ER-SK,,
-619477,-874415,hydrographic,"Uebi Schebeli","Uebi Schebeli",variant,0.2,42.75,S1-000,,
-618938,-874423,hydrographic,"Torrente Sciaabor","Torrente Sciaabor",variant,15.664877,38.06746,ER-000,,
-618806,10306394,settlement,Самоти,Самоти,unknown,14.706944,40.061944,ER-SK,,
-618475,-873484,settlement,Raheita,Raheita,official,12.728518,43.083404,ER-DK,,
-618589,-873787,hypsographic,"Rora Ha","Rora Ha",official,16.262148,37.9247,ER-SK,,
-618411,-873513,hydrographic,Ramoda,Ramoda,official,14.634318,41.016239,ER-DK,,
-620148,-876277,hypsographic,Taflenai,Taflenai,official,17.65,38.35,S1-000,,
-618449,-853954,hypsographic,"Ras Beilul","Ras Beilul",variant,13.228333,42.550278,ER-DK,,
-618363,-868483,settlement,"Kidkid Dele","Kidkid Dele",variant,15.45,38.516667,ER-GB,,
-618649,-873892,hypsographic,Saber,Saber,variant,15.791884,38.769573,ER-AN,,
-619190,-874846,settlement,"Selaba She’īb","Selaba She'ib",official,15.744782,38.668597,ER-AN,,
-618810,-874184,hypsographic,"Sanahbor Desēt","Sanahbor Deset",official,13.078333,42.715556,ER-DK,,
-619344,-875068,hypsographic,"Serif Afa","Serif Afa",official,13.292682,42.208857,ER-DK,,
-619363,-875092,hypsographic,Serrari,Serrari,official,16.814077,37.857651,ER-SK,,
-619871,-875817,settlement,Sittona,Sittona,variant,14.407135,37.3509,ER-GB,,
-619191,13824329,hypsographic,"Seil Abalet Island","Seil Abalet Island",variant,13.856379,42.029965,ER-DK,,
-618613,9042075,hydrographic,"Rubitino Boy","Rubitino Boy",variant,12.9825,42.905556,ER-DK,,
-618925,-874395,hydrographic,"Torrente Scelab","Torrente Scelab",variant,15.672012,38.080125,ER-000,,
-619194,-874852,spot,"Sela’i Da’iro Ābune Statiyos Bēte","Sela'i Da'iro Abune Statiyos Bete",official,15.2,38.866667,ER-000,,
-619113,-874702,hydrographic,Seg,Seg,variant,17,37.783333,ER-000,,
-618409,-873509,hypsographic,Ramlu,Ramlu,variant,13.392445,41.727882,ER-DK,,
-618868,13820251,settlement,Seroyta,Seroyta,variant,14.509354,41.295433,ER-DK,,
-619506,-874389,hypsographic,"Isola Sceik Said","Isola Sceik Said",variant,15.592887,39.478413,ER-SK,,
-619001,577768,hydrographic,Shugulgul,Shugulgul,official,15.510966,38.085203,ER-GB,,
-618674,-873936,hydrographic,"Pozzi Sachic","Pozzi Sachic",variant,13.807513,41.987626,ER-DK,,
-619252,-874943,settlement,Sen‘afe,Sen`afe,official,14.698333,39.429167,ER-DU,,
-618950,-874457,hypsographic,Scialaco,Scialaco,official,15.709807,38.360522,ER-SK,,
-618366,-873421,hypsographic,"Isole Quoin","Isole Quoin",variant,13.753795,42.148815,ER-DK,,
-620158,-876239,hypsographic,"Gebel Tachi","Gebel Tachi",variant,13.047778,42.650833,ER-DK,,
-620116,-876206,hydrographic,Taba,Taba,official,16.447851,37.70026,ER-SK,,
-619140,-874783,hypsographic,"Isola Seil Betta","Isola Seil Betta",variant,16,39.916667,ER-SK,,
-618981,-874535,hypsographic,"Scinghilla Sora Plain","Scinghilla Sora Plain",variant,14.721389,36.851944,ER-000,,
-618506,-873653,hypsographic,"Res Maccia","Res Maccia",official,15.208851,38.505264,ER-GB,,
-618958,-874478,hypsographic,"Monte Sciamotat","Monte Sciamotat",variant,16.592534,38.364765,ER-DU,,
-619933,-875921,hypsographic,Solcotom,Solcotom,official,14.533333,39.466667,ER-000,,
-618406,-873504,hydrographic,"Torrente Ramhad","Torrente Ramhad",variant,12.583333,42.416667,ER-000,,
-618985,-874542,hypsographic,"Ras Scioche","Ras Scioche",official,15.566667,40.416667,ER-000,,
-619091,-874736,hypsographic,Seghala,Seghala,variant,15.75,40.75,ER-000,,
-618867,-874287,hydrographic,Saroita,Saroita,variant,14.411797,41.335008,ER-DK,,
-618976,-874525,settlement,Scillichi,Scillichi,short,15.405008,39.489182,ER-SK,,
-618938,-874426,hydrographic,Sciabar,Sciabar,variant,15.664877,38.06746,ER-000,,
-619477,-875165,hydrographic,"Wèbi Shabēlle","Webi Shabelle",variant,0.2,42.75,S1-000,,
-618908,13864127,hydrographic,Sata,Sata,official,16.679477,37.662632,ER-SK,,
-618613,-873824,hydrographic,"Rubattino Channel","Rubattino Channel",variant,12.9825,42.905556,ER-DK,,
-619141,-874784,hypsographic,"Seil Harmil","Seil Harmil",official,16.483333,40.183333,ER-000,,
-618382,-873453,hypsographic,Raca,Raca,official,15.716667,40.666667,ER-000,,
-619190,-874870,settlement,"Seleba She’īb","Seleba She'ib",variant,15.744782,38.668597,ER-AN,,
-619874,-876068,hypsographic,Suardum,Suardum,variant,15.698611,38.57,ER-AN,,
-618997,-874568,settlement,Scisci,Scisci,official,14.393664,36.900908,ER-GB,,
-619136,-874774,hypsographic,"Seil Anber","Seil Anber",official,15.473467,40.470073,ER-SK,,
-619741,-875614,hypsographic,Sigatalim,Sigatalim,official,17.55,38.1,S1-000,,
-618435,262094,spot,"Ras Fatuma","Ras Fatuma",variant,13.041944,42.873611,ER-000,,
-619477,-875393,hydrographic,"Shibeli River","Shibeli River",variant,0.2,42.75,S1-000,,
-618449,-873573,hypsographic,"Ras Terma Zerf Ch’af","Ras Terma Zerf Ch'af",variant,13.228333,42.550278,ER-DK,,
-619289,-874989,hydrographic,"Seno Cherar YeBahir Weshmet’","Seno Cherar YeBahir Weshmet'",official,15.615842,39.475661,ER-SK,,
-618382,-873454,hypsographic,"Isola Raca","Isola Raca",variant,15.716667,40.666667,ER-000,,
-618640,-873875,hydrographic,Saada,Saada,official,14.478823,40.556774,ER-DK,,
-618774,-874132,hypsographic,"Jebel Saloda","Jebel Saloda",official,17.491201,38.190222,ER-DU,,
-619922,579722,hypsographic,Soyra,Soyra,official,14.737882,39.513275,ER-DU,,
-618993,-874558,settlement,Scipitale,Scipitale,official,15.072093,37.75436,ER-GB,,
-620136,415062,settlement,Dengolo,Dengolo,variant,15.471529,39.12959,ER-SK,,
-618454,-873581,hydrographic,"Pozzi Rathale","Pozzi Rathale",variant,14.016667,41.55,ER-DK,,
-618437,-873560,settlement,"Ras Kasar","Ras Kasar",official,17.975439,38.55789,ER-SK,,
-619597,-874578,settlement,Sciuma,Sciuma,variant,15.475,38.848333,ER-MA,,
-618902,-874340,hypsographic,"Sayal Island","Sayal Island",official,13.327153,42.566129,ER-DK,,
-618981,9320460,hypsographic,"Ravnina Shingilla Sora","Ravnina Shingilla Sora",variant,14.721389,36.851944,ER-000,,
-618385,-873460,hypsographic,"Ras Rachmat","Ras Rachmat",official,13.636685,42.236347,ER-DK,,
-618871,13846369,hypsographic,Sosa,Sosa,variant,16.607004,38.316193,ER-DU,,
-618922,-875302,hypsographic,"Sheikhul Abu","Sheikhul Abu",variant,16.032911,39.441166,ER-DK,,
-619480,13821021,settlement,Shebrur,Shebrur,variant,14.266658,41.463254,ER-DK,,
-618462,-873592,hydrographic,Rebbeboit,Rebbeboit,official,15.803566,37.453713,ER-GB,,
-619092,-874710,hydrographic,Segalu,Segalu,variant,14.783333,38.683333,ER-000,,
-619506,-874387,hypsographic,"Sceic Said Island","Sceic Said Island",variant,15.592887,39.478413,ER-SK,,
-618396,-873475,hydrographic,"Fiume Rahad","Fiume Rahad",variant,14.466667,33.516667,S1-000,,
-618916,-874364,hypsographic,Scechdeba,Scechdeba,official,16.087256,38.023849,ER-SK,,
-618367,-873428,hydrographic,Quorcu,Quorcu,official,14.749722,37.725,ER-GB,,
-618986,-874546,park,Scioho,Scioho,short,15.333333,39.5,ER-SK,,
-619060,-874658,hypsographic,Seddu,Seddu,official,14.402321,40.973559,ER-DK,,
-618997,10395613,settlement,Shiski,Shiski,variant,14.393664,36.900908,ER-GB,,
-618476,-873486,hypsographic,"Ras Raheita","Ras Raheita",official,12.730758,43.114214,ER-DK,,
-618953,-874465,hydrographic,Scialote,Scialote,official,15.916667,36.833333,ER-000,,
-619339,-875059,park,Seremid,Seremid,official,16.844598,38.846381,ER-SK,,
-618918,-874369,hydrographic,"Scech Scech","Scech Scech",official,16.151408,37.733254,ER-SK,,
-619137,-874775,hypsographic,"Seil Anber","Seil Anber",official,16.316667,40.016667,ER-000,,
-618427,-855401,hypsographic,"Ras Buganni","Ras Buganni",variant,13.715733,42.080034,ER-DK,,
-619058,-874654,spot,"Sedawo YeMembratina Hayl T’abīya","Sedawo YeMembratina Hayl T'abiya",official,15.421667,38.924167,ER-000,,
-619416,-875167,hypsographic,"Shab Shakhs","Shab Shakhs",variant,14.65,41.116667,ER-DK,,
-619386,-875125,settlement,"Seud Bui","Seud Bui",variant,13.282029,42.183802,ER-DK,,
-619411,-851912,hydrographic,"Pozzo Aqua Sfedà","Pozzo Aqua Sfeda",variant,15.92487,38.184061,ER-SK,,
-619091,-874704,hypsographic,"Isola Segaia","Isola Segaia",variant,15.75,40.75,ER-000,,
-619853,-875790,hypsographic,"Monti Siror","Monti Siror",variant,15.676537,37.212573,ER-GB,,
-619289,-863267,hydrographic,"Gherar Bay","Gherar Bay",variant,15.615842,39.475661,ER-SK,,
-618922,-874378,hypsographic,"Isola Sceic el Abu","Isola Sceic el Abu",variant,16.032911,39.441166,ER-DK,,
-618810,9042071,hypsographic,"Senaabor Island","Senaabor Island",variant,13.078333,42.715556,ER-DK,,
-619345,-875069,hypsographic,"Seri Galla","Seri Galla",official,15.15601,38.035131,ER-GB,,
-619427,-875182,hydrographic,"Sha‘ab Shakhs","Sha`ab Shakhs",variant,14.7,41.133333,ER-DK,,
-620009,-876049,hypsographic,"South-West Haycock","South-West Haycock",official,13.524837,42.609231,ER-000,,
-618396,-873435,hydrographic,Raad,Raad,variant,14.466667,33.516667,S1-000,,
-619145,-860299,hypsographic,Dulcos,Dulcos,variant,15.816667,40.266667,ER-000,,
-618413,-873518,hypsographic,"Ras Randale","Ras Randale",variant,12.863821,42.844056,ER-DK,,
-619227,-874900,hypsographic,"Sella Magasas","Sella Magasas",official,15.65,38.8,ER-AN,,
-620121,-876214,hypsographic,"Valle Tabeh","Valle Tabeh",variant,17.45,38.25,ER-000,,
-618784,-874146,hypsographic,Samadrisat,Samadrisat,official,17.613547,38.721115,ER-SK,,
-620174,-876325,hypsographic,"Jebel Takl Aiat","Jebel Takl Aiat",variant,17.476526,38.354396,ER-DU,,
-618478,-873616,hydrographic,"Pozzi Rehib","Pozzi Rehib",variant,17.480783,38.713173,ER-DU,,
-619318,-875028,administrative_region,"Serayē Āwraja","Seraye Awraja",official,14.833333,38.5,ER-000,,
-618703,-873980,hypsographic,"Monte Sagahele","Monte Sagahele",variant,14.678412,40.601061,ER-DK,,
-618922,-874388,hypsographic,Sceik-al-Abù,Sceik-al-Abu,variant,16.032911,39.441166,ER-DK,,
-618853,-874271,hypsographic,"Isola Sargadur","Isola Sargadur",variant,12.869722,42.802778,ER-DK,,
-618411,13819145,hydrographic,Ramuda,Ramuda,variant,14.634318,41.016239,ER-DK,,
-618893,-874327,hypsographic,Saul,Saul,official,15.743156,38.719029,ER-AN,,
-618980,-874530,hydrographic,Scincla,Scincla,official,16.75,37.633333,ER-000,,
-620008,-876100,hydrographic,"Canale Sud","Canale Sud",variant,15.333333,40.25,ER-SK,,
-620114,-876202,settlement,T’a’āreshī,T'a'areshi,official,15.460027,38.81392,ER-MA,,
-620136,578370,settlement,"Dengolo Tahtay","Dengolo Tahtay",official,15.471529,39.12959,ER-SK,,
-618462,-873596,hydrographic,Rebbibinet,Rebbibinet,variant,15.803566,37.453713,ER-GB,,
-618477,-873614,park,"Rehayto Bota","Rehayto Bota",official,12.709445,43.055361,ER-DK,,
-619477,-875259,hydrographic,"Webi Shabeelle","Webi Shabeelle",official,0.2,42.75,S1-000,,
-618396,-852358,hydrographic,"Ar Rahad","Ar Rahad",variant,14.466667,33.516667,S1-000,,
-618753,-874098,hypsographic,"Salassima Range","Salassima Range",official,13.016667,42.083333,ER-000,,
-618649,-873893,hypsographic,"Monte Saber","Monte Saber",variant,15.791884,38.769573,ER-AN,,
-618475,-873490,settlement,Rahita,Rahita,variant,12.728518,43.083404,ER-DK,,
-618598,-873796,hypsographic,Roribet,Roribet,official,17.566667,38.066667,S1-000,,
-619108,-874729,spot,"Segeneytī Mīka’ēl Bēte Kristīyan","Segeneyti Mika'el Bete Kristiyan",variant,15.052778,39.187222,ER-DU,,
-618423,-873534,settlement,Rasa,Rasa,official,14.971683,40.377682,ER-SK,,
-618431,-858711,hypsographic,"Ras Dehaneba","Ras Dehaneba",variant,12.891158,43.002364,ER-DK,,
-619580,-875396,spot,"Shībshab Lighthouse","Shibshab Lighthouse",variant,14.649464,41.116181,ER-DK,,
-618853,-874270,hypsographic,Sargadur,Sargadur,official,12.869722,42.802778,ER-DK,,
-618946,-874448,hydrographic,Sciaglet,Sciaglet,official,15.476187,37.66858,ER-GB,,
-619469,-874517,hypsographic,"Monte Sciebbebit","Monte Sciebbebit",variant,15.683969,37.076037,ER-GB,,
-619740,-875613,hypsographic,"Monte Sigat","Monte Sigat",variant,16.4,38.433333,ER-000,,
-619945,-875938,hypsographic,"Monti Solle","Monti Solle",variant,14.816667,40.083333,ER-SK,,
-619193,-874851,settlement,"Sela’i Da’iro","Sela'i Da'iro",variant,15.205278,38.875833,ER-MA,,
-618367,-873429,hydrographic,"Acqua Quorcu","Acqua Quorcu",variant,14.749722,37.725,ER-GB,,
-619014,-874596,hydrographic,"Sebar Guma Minch’","Sebar Guma Minch'",official,15.506869,39.12175,ER-SK,,
-618428,-873540,park,Rasceida,Rasceida,variant,17.75,38.7,ER-000,,
-619881,-875832,hydrographic,"Port Smyth","Port Smyth",official,15.533333,39.983333,ER-SK,,
-619684,-875530,hypsographic,Sialam,Sialam,variant,15.387587,39.334417,ER-SK,,
-618902,-874024,hypsographic,"Isola Saial","Isola Saial",variant,13.327153,42.566129,ER-DK,,
-620009,-866078,hypsographic,"Isolotto Haycock Sud-Ovest","Isolotto Haycock Sud-Ovest",variant,13.524837,42.609231,ER-000,,
-619506,-875292,hypsographic,"Shēh Se’īd Desēt","Sheh Se'id Deset",variant,15.592887,39.478413,ER-SK,,
-619092,-874706,hydrographic,Segala,Segala,official,14.783333,38.683333,ER-000,,
-619001,-874576,hydrographic,"Torrente Sciuguolguol","Torrente Sciuguolguol",variant,15.510966,38.085203,ER-GB,,
-618868,13820252,settlement,Saroita,Saroita,variant,14.509354,41.295433,ER-DK,,
-618908,-874351,hydrographic,Scatta,Scatta,variant,16.679477,37.662632,ER-SK,,
-619226,-874898,hypsographic,"Sella Aivalo","Sella Aivalo",official,15.766667,38.716667,ER-AN,,
-620031,-876081,hydrographic,Subucle,Subucle,official,14.3,40.85,ER-DK,,
-619138,-874779,hypsographic,"Seil Badira","Seil Badira",official,16.016667,39.6,ER-SK,,
-618348,-873371,settlement,"Porto Smyth","Porto Smyth",variant,15.540133,40,ER-SK,,
-618810,261993,hypsographic,"Sanahor Desēt","Sanahor Deset",variant,13.078333,42.715556,ER-DK,,
-618494,13788355,hydrographic,Randali,Randali,official,12.841838,42.847585,ER-DK,,
-619416,-875168,hypsographic,"Punta Shab Shakhs","Punta Shab Shakhs",variant,14.65,41.116667,ER-DK,,
-619789,-875687,hypsographic,"Monte Simburi","Monte Simburi",variant,14.664444,37.340833,ER-000,,
-618786,-874148,hypsographic,Samait,Samait,official,16.176806,38.227144,ER-SK,,
-618743,-874071,hydrographic,Sal’a,Sal'a,official,16.879779,37.596083,ER-SK,,
-618932,13863707,settlement,Sherit,Sherit,official,16.631676,37.825407,ER-SK,,
-619411,-850075,hydrographic,"Adi Sfeda","Adi Sfeda",variant,15.92487,38.184061,ER-SK,,
-618961,-874484,hypsographic,Sciangaleti,Sciangaleti,official,14.781111,37.114167,ER-000,,
-618428,-873559,park,Rashaida,Rashaida,variant,17.75,38.7,ER-000,,
-618868,-874290,settlement,Saroyta,Saroyta,official,14.509354,41.295433,ER-DK,,
-618873,-875102,settlement,Sesah,Sesah,official,15.114231,39.043351,ER-DU,,
-619361,-875089,hypsographic,"Collina Serobitella","Collina Serobitella",variant,15.35,37.95,ER-000,,
-619945,-875937,hypsographic,Solle,Solle,official,14.816667,40.083333,ER-SK,,
-618587,-873785,hypsographic,"Rora Caie","Rora Caie",official,16.766667,38.283333,ER-000,,
-620008,-876103,hydrographic,"Canale Sud di Massaua","Canale Sud di Massaua",variant,15.333333,40.25,ER-SK,,
-620136,-876241,settlement,"Tachinyaw Dongolo","Tachinyaw Dongolo",variant,15.471529,39.12959,ER-SK,,
-618892,-874325,hydrographic,"Torrente Saud","Torrente Saud",variant,15.95,37.083333,ER-GB,,
-619477,-875160,hydrographic,"Wabiga Shabeele","Wabiga Shabeele",variant,0.2,42.75,S1-000,,
-618593,-859938,hypsographic,"Ras Dogon","Ras Dogon",variant,15.651244,39.478361,ER-SK,,
-618762,-874110,hypsographic,Salela,Salela,official,16.874076,37.814979,ER-SK,,
-619096,-874714,settlement,Segdo,Segdo,official,15.342129,38.901295,ER-MA,,
-619741,-875617,hypsographic,"Jebel Sigatalim","Jebel Sigatalim",variant,17.55,38.1,S1-000,,
-618431,-857649,hypsographic,"Ras Dahannaba","Ras Dahannaba",variant,12.891158,43.002364,ER-DK,,
-619585,-874515,settlement,Scicchetti,Scicchetti,variant,15.151447,38.862094,ER-MA,,
-619107,-874712,settlement,Seganeiti,Seganeiti,variant,15.052778,39.187222,ER-DU,,
-619750,-875633,hypsographic,Sihat,Sihat,official,14.941944,39.426111,ER-000,,
-618440,-870163,hypsographic,"Ras Macaua","Ras Macaua",variant,12.956581,42.977315,ER-DK,,
-620131,577877,hypsographic,Emba-Tekera,Emba-Tekera,official,15.167205,38.696714,ER-DU,,
-620125,-876222,hypsographic,"Monte Tabit","Monte Tabit",variant,16.651537,38.767719,ER-SK,,
-618902,-874339,hypsographic,"Isolloto Sayal","Isolloto Sayal",variant,13.327153,42.566129,ER-DK,,
-619750,9338900,hypsographic,Sikhat,Sikhat,variant,14.941944,39.426111,ER-000,,
-618720,9320607,settlement,Sakhlat,Sakhlat,variant,14.606389,36.816667,ER-000,,
-618594,-873792,hypsographic,"Rora Sceca","Rora Sceca",official,16.308964,38.110708,ER-SK,,
-618720,-874018,settlement,Sahlat,Sahlat,official,14.606389,36.816667,ER-000,,
-618802,-874151,hypsographic,Samar,Samar,variant,15.669349,39.261486,ER-SK,,
-618719,-874015,administrative_region,"Sahil Āwraja","Sahil Awraja",official,17,38.583333,ER-SK,,
-619140,-874782,hypsographic,"Seil Betta","Seil Betta",official,16,39.916667,ER-SK,,
-620109,-851347,settlement,Amarti,Amarti,variant,14.277635,41.096296,ER-DK,,
-619882,-875835,hydrographic,Soba,Soba,official,14.845833,36.996667,ER-000,,
-618996,-874566,hypsographic,Scisceba,Scisceba,official,14.483688,37.384358,ER-GB,,
-618427,-873539,hypsographic,"Ras Bugenī YeMidir Zerf Ch’af","Ras Bugeni YeMidir Zerf Ch'af",official,13.715733,42.080034,ER-DK,,
-618847,-874247,hypsographic,Sarad,Sarad,official,15.830295,39.904087,ER-SK,,
-619729,-875598,hypsographic,"Sidoha Ela","Sidoha Ela",variant,13.398209,42.004623,ER-DK,,
-618593,13884030,hypsographic,"Ras El’ Garara","Ras El' Garara",variant,15.651244,39.478361,ER-SK,,
-619318,-875015,administrative_region,Serae,Serae,variant,14.833333,38.5,ER-000,,
-618914,-874362,hypsographic,"Sceccai Reba","Sceccai Reba",official,16.428634,37.821404,ER-SK,,
-619722,-875589,spot,"Sidiha Monghella","Sidiha Monghella",variant,12.550029,42.85358,ER-DK,,
-619290,-876479,hydrographic,"Tawlad Bay","Tawlad Bay",variant,15.596337,39.453043,ER-SK,,
-618946,-874450,hydrographic,"Pozzi Sciaglet","Pozzi Sciaglet",variant,15.476187,37.66858,ER-GB,,
-620097,-876182,hydrographic,Surri,Surri,official,14.092283,41.591724,ER-DK,,
-619469,-875247,hypsographic,Shebabit,Shebabit,official,15.683969,37.076037,ER-GB,,
-618645,-873883,spot,"Saba Mekane Īyesus Bēte Kristīyan","Saba Mekane Iyesus Bete Kristiyan",official,15.333333,38.933333,ER-000,,
-619018,-874105,settlement,Salderat,Salderat,variant,15.45,36.65,ER-000,,
-619513,-875308,settlement,"Sheka Wedī Bisrat","Sheka Wedi Bisrat",official,14.961944,38.81,ER-000,,
-618584,-873780,hypsographic,Romiya,Romiya,variant,16.533333,40.05,ER-000,,
-618440,-872466,hypsographic,"Ras Mukwar","Ras Mukwar",variant,12.956581,42.977315,ER-DK,,
-619477,-875257,hydrographic,"Webi Shebelle","Webi Shebelle",variant,0.2,42.75,S1-000,,
-618802,-874170,hypsographic,Samhar,Samhar,official,15.669349,39.261486,ER-SK,,
-618427,-855406,hypsographic,"Ras Bugeni","Ras Bugeni",variant,13.715733,42.080034,ER-DK,,
-618675,-873937,hypsographic,"Ras Sachic","Ras Sachic",official,13.822695,41.99914,ER-DK,,
-618396,-873473,hydrographic,Rahad,Rahad,official,14.466667,33.516667,S1-000,,
-619477,-875391,hydrographic,Shibeli,Shibeli,variant,0.2,42.75,S1-000,,
-619252,-874182,settlement,Sanafè,Sanafe,variant,14.698333,39.429167,ER-DU,,
-619191,-874767,hypsographic,"Seil Abail","Seil Abail",variant,13.856379,42.029965,ER-DK,,
-619190,-873520,settlement,Rapto,Rapto,variant,15.744782,38.668597,ER-AN,,
-620113,-876199,spot,Suzena,Suzena,official,15.1,37.75,ER-000,,
-618598,-873799,hypsographic,"Jebel Roribet","Jebel Roribet",variant,17.566667,38.066667,S1-000,,
-618438,-873561,hypsographic,"Ras Loma Zerf Ch’af","Ras Loma Zerf Ch'af",official,13.039444,42.740278,ER-DK,,
-618448,-873572,hypsographic,"Ras Terma Desēt","Ras Terma Deset",variant,13.164722,42.588889,ER-DK,,
-620008,-876047,hydrographic,"South Massawa Channel","South Massawa Channel",official,15.333333,40.25,ER-SK,,
-619145,401343,hypsographic,Siem,Siem,official,15.816667,40.266667,ER-000,,
-618431,-873551,hypsographic,"Ras Dehaneba YeMidir Zerf Ch’af","Ras Dehaneba YeMidir Zerf Ch'af",official,12.891158,43.002364,ER-DK,,
-619427,-874442,hydrographic,"Shab Sciacs","Shab Sciacs",variant,14.7,41.133333,ER-DK,,
-619768,-875657,park,"Sīlka Bota","Silka Bota",official,14.240544,41.036673,ER-DK,,
-618711,-2829241,hydrographic,Saẖalalta,Sahalalta,short,12.484759,42.796296,S1-000,,
-620125,-876221,hypsographic,Tabit,Tabit,official,16.651537,38.767719,ER-SK,,
-618875,13827218,spot,"Sesah Debre K’usk’wam Katolīk Mīsīyon","Sesah Debre K'usk'wam Katolik Misiyon",official,15.114804,39.045289,ER-DU,,
-618974,9328999,hydrographic,"May Shigla","May Shigla",variant,14.520278,37.168889,ER-000,,
-618372,-873437,hydrographic,Raba,Raba,official,16.917102,37.975711,ER-SK,,
-620136,-876240,settlement,"Tachinyaw Dengolo","Tachinyaw Dengolo",variant,15.471529,39.12959,ER-SK,,
-620162,-876298,hypsographic,Taharba,Taharba,official,17.133333,37.7,ER-000,,
-618743,-874844,hydrographic,Sela,Sela,variant,16.879779,37.596083,ER-SK,,
-619684,13844013,hypsographic,Spalam,Spalam,short,15.387587,39.334417,ER-SK,,
-618406,-873503,hydrographic,"Torrente Ramhaa","Torrente Ramhaa",variant,12.583333,42.416667,ER-000,,
-619091,-874707,hypsographic,"Isola Segala","Isola Segala",variant,15.75,40.75,ER-000,,
-619191,-874769,hypsographic,"Seil Abelat Island","Seil Abelat Island",variant,13.856379,42.029965,ER-DK,,
-619477,-874359,hydrographic,"Uebi Scebeli","Uebi Scebeli",variant,0.2,42.75,S1-000,,
-619137,-851428,hypsographic,"Isola Àmber","Isola Amber",variant,16.316667,40.016667,ER-000,,
-620119,-876211,hypsographic,Tabat,Tabat,official,16.8,38.466667,ER-SK,,
-618462,-873597,hydrographic,"Pozzo Rebbibòiet","Pozzo Rebbiboiet",variant,15.803566,37.453713,ER-GB,,
-619580,-875397,spot,"Shībshab YeMilikit Mesch’a Segenet","Shibshab YeMilikit Mesch'a Segenet",official,14.649464,41.116181,ER-DK,,
-618380,-873446,hypsographic,Rabuo,Rabuo,official,13.271819,42.039335,ER-DK,,
-619145,401347,hypsographic,Sayin,Sayin,variant,15.816667,40.266667,ER-000,,
-618613,-873823,hydrographic,"Canale Rubattino","Canale Rubattino",variant,12.9825,42.905556,ER-DK,,
-619881,-875833,hydrographic,"Porto Smyth","Porto Smyth",variant,15.533333,39.983333,ER-SK,,
-618847,-874248,hypsographic,"Isole Sarad","Isole Sarad",variant,15.830295,39.904087,ER-SK,,
-618398,-873479,hypsographic,Rahareh,Rahareh,official,16.383333,38.466667,ER-000,,
-618941,-874433,hypsographic,Sciacate,Sciacate,official,16.902229,37.845782,ER-SK,,
-619207,-879176,hypsographic,"Isola Williamson","Isola Williamson",variant,13.66063,42.146538,ER-DK,,
-620131,-876230,hypsographic,Tacara,Tacara,variant,15.167205,38.696714,ER-DU,,
-618576,-873765,hypsographic,Rohoret,Rohoret,official,16.531944,38.580556,ER-SK,,
-620174,13846488,hypsographic,Tekl,Tekl,official,17.476526,38.354396,ER-DU,,
-619496,-875282,spot,"Shēh Āl Āmīn Āndenya Dereja Timhirt Bēt","Sheh Al Amin Andenya Dereja Timhirt Bet",official,15.6,39.466667,ER-SK,,
-618406,-873502,hydrographic,Ramhaa,Ramhaa,official,12.583333,42.416667,ER-000,,
-618598,-873798,hypsographic,"Jabal Roribet","Jabal Roribet",official,17.566667,38.066667,S1-000,,
-620061,-1116622,hypsographic,"Jabal Sulţān","Jabal Sultan",official,15.483333,36.633333,S1-000,,
-619416,-875166,hypsographic,"Punta Shab Sciacs","Punta Shab Sciacs",variant,14.65,41.116667,ER-DK,,
-619882,-875836,hydrographic,"Acqua Sobà","Acqua Soba",variant,14.845833,36.996667,ER-000,,
-619987,-876017,hypsographic,Sorcali,Sorcali,official,13.179445,41.934814,ER-DK,,
-619889,-875846,hypsographic,Soch-ale,Soch-ale,official,14.487778,41.036603,ER-DK,,
-619477,-875252,hydrographic,"Wabī Shebelē","Wabi Shebele",variant,0.2,42.75,S1-000,,
-618522,-873677,hydrographic,"Pozzi Rimiddoli","Pozzi Rimiddoli",variant,15.302447,39.960975,ER-SK,,
-618478,-873615,hydrographic,Rehib,Rehib,official,17.480783,38.713173,ER-DU,,
-620099,-876185,settlement,Surto,Surto,official,15.672042,38.520423,ER-AN,,
-619872,10394239,hydrographic,Sittona,Sittona,variant,14.411638,37.349945,ER-GB,,
-619477,-875161,hydrographic,"River Shabeelee","River Shabeelee",variant,0.2,42.75,S1-000,,
-619191,-874768,hypsographic,"Isola Seil Abelat","Isola Seil Abelat",variant,13.856379,42.029965,ER-DK,,
-619376,-875110,settlement,Sessaghede,Sessaghede,official,14.864769,39.689402,ER-SK,,
-618986,-875909,park,Soko,Soko,variant,15.333333,39.5,ER-SK,,
-619018,-873891,settlement,Sabderat,Sabderat,variant,15.45,36.65,ER-000,,
-618392,-873469,settlement,Ragali,Ragali,official,14.550692,40.131204,ER-SK,,
-620100,-876186,settlement,"Suru Inferiore","Suru Inferiore",official,15.1,39.533333,ER-SK,,
-619094,-874711,hydrographic,"Segalu Shet’","Segalu Shet'",official,14.490897,37.6539,ER-000,,
-619922,-876065,hypsographic,Suairà,Suaira,variant,14.737882,39.513275,ER-DU,,
-618721,-874019,settlement,Sahlī,Sahli,official,14.724926,40.82864,ER-DK,,
-618975,-874523,hydrographic,"Secche Scilla","Secche Scilla",variant,12.990443,43.044501,ER-DK,,
-618911,-874356,hypsographic,Scebatet,Scebatet,official,16.21571,38.569137,ER-DU,,
-618447,13824304,hypsographic,Rasseyta,Rasseyta,variant,13.823973,41.176795,ER-DK,,
-618999,-874572,hypsographic,"Piana di Sciua","Piana di Sciua",variant,14.283333,41.116667,ER-DK,,
-618974,-874520,hydrographic,"Mai Scigla","Mai Scigla",official,14.520278,37.168889,ER-000,,
-618588,-873786,hypsographic,"Rora Chistan","Rora Chistan",official,16.385013,38.438731,ER-DU,,
-618810,-874185,hypsographic,"Sanah-bor Island","Sanah-bor Island",variant,13.078333,42.715556,ER-DK,,
-618610,-873821,hydrographic,"Ruba Shet’","Ruba Shet'",official,14.748056,39.051667,ER-000,,
-620029,-876083,hypsographic,"Monti di Subucle","Monti di Subucle",variant,14.321312,40.973929,ER-DK,,
-619195,-874853,spot,"Sela’i Da’iro Timhirt Bēt","Sela'i Da'iro Timhirt Bet",official,15.2,38.866667,ER-000,,
-619135,-874770,hypsographic,"Seil Adasi","Seil Adasi",official,16.166667,39.933333,ER-000,,
-618711,-874005,hydrographic,Saẖalalta,Sahalalta,official,12.484759,42.796296,S1-000,,
-618810,-874183,hypsographic,"Isola Sanah Bor","Isola Sanah Bor",variant,13.078333,42.715556,ER-DK,,
-618674,-873935,hydrographic,Sachic,Sachic,official,13.807513,41.987626,ER-DK,,
-618867,13820250,hydrographic,Saroyta,Saroyta,official,14.411797,41.335008,ER-DK,,
-619490,-875305,settlement,"Shēk Ābdel K’adir","Shek Abdel K'adir",variant,15.623346,39.478091,ER-SK,,
-618911,-874357,hypsographic,"Monte Scebatet","Monte Scebatet",variant,16.21571,38.569137,ER-DU,,
-618873,13825573,settlement,Sessa,Sessa,variant,15.114231,39.043351,ER-DU,,
-618381,-873451,hypsographic,"Jebel Rabussom","Jebel Rabussom",variant,16.75,36.983333,S1-000,,
-619426,-875183,hypsographic,"Ras Shakhs","Ras Shakhs",variant,14.619862,41.191445,ER-DK,,
-620158,-876293,hypsographic,"Tagī Terara","Tagi Terara",official,13.047778,42.650833,ER-DK,,
-618462,-873593,hydrographic,Rebbebout,Rebbebout,variant,15.803566,37.453713,ER-GB,,
-618922,-874377,hypsographic,"Sceic el Abu","Sceic el Abu",official,16.032911,39.441166,ER-DK,,
-618953,-874466,hydrographic,"Pozzo Scialote","Pozzo Scialote",variant,15.916667,36.833333,ER-000,,
-619696,-875547,spot,"Sibi’ā Mīka’ēl Bēte Kristīyan","Sibi'a Mika'el Bete Kristiyan",official,14.75,38.783333,ER-DU,,
-618950,-874458,hypsographic,"Punta Scialaco","Punta Scialaco",variant,15.709807,38.360522,ER-SK,,
-618939,-874427,settlement,Sciabba,Sciabba,variant,15.699551,39.049823,ER-SK,,
-618818,-874197,hydrographic,Sanda,Sanda,official,13.9,41.75,ER-DK,,
-618593,-873791,hypsographic,"Rora Ras Dogan YeMidir Lank’a","Rora Ras Dogan YeMidir Lank'a",official,15.651244,39.478361,ER-SK,,
-619695,-875546,settlement,Sibi’ā,Sibi'a,official,14.746389,38.785278,ER-DU,,
-618367,9329449,hydrographic,Kvorku,Kvorku,variant,14.749722,37.725,ER-GB,,
-619316,-875026,hydrographic,"Pozzo Serarat","Pozzo Serarat",variant,16.052891,37.551224,ER-SK,,
-619114,-874739,hypsographic,Segher,Segher,official,15.919828,38.873844,ER-SK,,
-618662,-875843,settlement,Socalatta,Socalatta,variant,12.516667,42.766667,ER-000,,
-619477,-875162,hydrographic,"Webi Shabeelle","Webi Shabeelle",variant,0.2,42.75,S1-000,,
-618664,-873912,hypsographic,Sacar,Sacar,official,17.384865,38.203128,ER-DU,,
-618771,-874122,hypsographic,"Isola Salima","Isola Salima",variant,15.566667,40.8,ER-000,,
-618921,-874376,spot,"Sceic Duran","Sceic Duran",official,12.884163,42.772517,ER-DK,,
-618974,-870448,hydrographic,"Torrente Mai Scigla","Torrente Mai Scigla",variant,14.520278,37.168889,ER-000,,
-619599,-875420,spot,"Shīma Nigus La‘ilay Wengēlawī Medhanē ‘Alem Bēte Kristīyan","Shima Nigus La`ilay Wengelawi Medhane `Alem Bete Kristiyan",official,15.466667,38.85,ER-MA,,
-618522,-873679,hydrographic,Rimuddoli,Rimuddoli,official,15.302447,39.960975,ER-SK,,
-619252,9347409,settlement,ሰንዓፈ,ሰንዓፈ,unknown,14.698333,39.429167,ER-DU,,
-618649,399627,hypsographic,Sabr,Sabr,official,15.791884,38.769573,ER-AN,,
-618692,-873948,hypsographic,"Isola Saddle","Isola Saddle",variant,13.8792,41.938344,ER-DK,,
-618426,-873537,hypsographic,"Ras Armas","Ras Armas",official,16.490395,38.583747,ER-SK,,
-618990,-874554,hydrographic,"Torrente Sciotel","Torrente Sciotel",variant,15.487259,38.219229,ER-GB,,
-618454,13821599,hydrographic,Ratale,Ratale,variant,14.016667,41.55,ER-DK,,
-618781,-874142,hypsographic,"Sal Sal Hill","Sal Sal Hill",official,16.726425,38.361199,ER-DU,,
-619107,-873983,settlement,Saganeiti,Saganeiti,variant,15.052778,39.187222,ER-DU,,
-619722,-875587,spot,"Sidiha Manguéla","Sidiha Manguela",variant,12.550029,42.85358,ER-DK,,
-620102,-876188,settlement,"Suru Superiore","Suru Superiore",official,15.067457,39.503669,ER-SK,,
-618768,-874117,hydrographic,Salicheti,Salicheti,official,13.066667,42.666667,ER-000,,
-619316,-875025,hydrographic,Serarat,Serarat,official,16.052891,37.551224,ER-SK,,
-618396,-873476,hydrographic,"Nahr ar Rahad",NahrarRahad,official,14.466667,33.516667,S1-000,,
-618657,-873902,hypsographic,Sabraha,Sabraha,official,16.244937,38.640336,ER-DU,,
-618603,-873807,hypsographic,Rossi,Rossi,official,13.6,42.066667,ER-000,,
-618662,-873910,settlement,Sacalatta,Sacalatta,official,12.516667,42.766667,ER-000,,
-620031,-876082,hydrographic,"Acqua di Subucle","Acqua di Subucle",variant,14.3,40.85,ER-DK,,
-620061,-876132,hypsographic,"Jabal Sulţān",JabalSultan,official,15.483333,36.633333,S1-000,,
-619141,-874778,hypsographic,"Seil Armil","Seil Armil",variant,16.483333,40.183333,ER-000,,
-619506,-875301,hypsographic,"Sheikh Said Island","Sheikh Said Island",variant,15.592887,39.478413,ER-SK,,
-619386,-875126,settlement,"Seud Buij","Seud Buij",official,13.282029,42.183802,ER-DK,,
-618592,-873790,hypsographic,"Rora Massal","Rora Massal",official,16.472915,38.349072,ER-DU,,
-619821,-875737,hypsographic,"Ras Sirbut","Ras Sirbut",official,14.262809,41.469142,ER-DK,,
-618493,-873636,hydrographic,"Rendelī Shet’","Rendeli Shet'",official,12.516567,42.688704,ER-DK,,
-618947,-874449,hydrographic,Sciaglet,Sciaglet,official,17.418313,38.372512,ER-DU,,
-619872,-875818,hydrographic,"Torrente Sittona","Torrente Sittona",variant,14.411638,37.349945,ER-GB,,
-620143,-876267,hydrographic,Tadluk,Tadluk,official,15.13535,37.105165,ER-GB,,
-618806,417873,settlement,Simoti,Simoti,variant,14.706944,40.061944,ER-SK,,
-619577,-875390,hypsographic,Shiba,Shiba,official,15.565921,37.366965,ER-GB,,
-620120,13846489,hydrographic,Tibh,Tibh,official,17.256143,38.448135,ER-DU,,
-620008,-876048,hydrographic,"South Mits’iwa Channel","South Mits'iwa Channel",variant,15.333333,40.25,ER-SK,,
-619001,-874574,hydrographic,Sciugulgul,Sciugulgul,variant,15.510966,38.085203,ER-GB,,
-618940,-874432,park,Sciacat,Sciacat,official,16.21628,38.473123,ER-000,,
-619191,-874847,hypsographic,"Sēl Ābayil Desēt","Sel Abayil Deset",official,13.856379,42.029965,ER-DK,,
-618692,-848651,hypsographic,"Isola Abail Piccola","Isola Abail Piccola",variant,13.8792,41.938344,ER-DK,,
-619427,-875184,hydrographic,"Shab Shakhs","Shab Shakhs",variant,14.7,41.133333,ER-DK,,
-619506,415073,hypsographic,"Green Island","Green Island",variant,15.592887,39.478413,ER-SK,,
-619477,-874416,hydrographic,Scebelli,Scebelli,variant,0.2,42.75,S1-000,,
-618942,-878347,settlement,"Villaggi Sciacchen","Villaggi Sciacchen",variant,15.416667,38.05,ER-GB,,
-618719,-872631,administrative_region,Nacfa,Nacfa,variant,17,38.583333,ER-SK,,
-618613,-873829,hydrographic,"Rubetīno Canal","Rubetino Canal",variant,12.9825,42.905556,ER-DK,,
-619018,-874600,settlement,Sebderat,Sebderat,official,15.45,36.65,ER-000,,
-619107,13827329,settlement,Segheneiti,Segheneiti,variant,15.052778,39.187222,ER-DU,,
-618449,-876805,hypsographic,"Ras Terma","Ras Terma",variant,13.228333,42.550278,ER-DK,,
-619864,-875806,hypsographic,"Monte Siscebo","Monte Siscebo",variant,14.753333,37.642222,ER-000,,
-618396,-873477,hydrographic,"River Rahad","River Rahad",variant,14.466667,33.516667,S1-000,,
-619002,-874579,settlement,Sciumagalle,Sciumagalle,official,16.583333,38.5,ER-SK,,
-618780,-874140,hypsographic,Salsalat,Salsalat,official,15.930922,38.753902,ER-SK,,
-618613,-873828,hydrographic,"Rubetino Boy","Rubetino Boy",official,12.9825,42.905556,ER-DK,,
-618590,-873788,hypsographic,"Rora Laba","Rora Laba",official,16.369238,38.319648,ER-SK,,
-619058,421094,spot,"Sedawo Ye’mebratina Hayl T’abīya","Sedawo Ye'mebratina Hayl T'abiya",variant,15.421667,38.924167,ER-000,,
-619140,-874781,hypsographic,"Seil Bella","Seil Bella",variant,16,39.916667,ER-SK,,
-619108,415003,spot,"Segheneytī Mīka’ēl Bēte Kristīyan","Segheneyti Mika'el Bete Kristiyan",official,15.052778,39.187222,ER-DU,,
-619145,-874792,hypsographic,Sejen,Sejen,variant,15.816667,40.266667,ER-000,,
-619386,-875127,settlement,"Seud Buy","Seud Buy",variant,13.282029,42.183802,ER-DK,,
-619107,13827332,settlement,Seganeyti,Seganeyti,variant,15.052778,39.187222,ER-DU,,
-618802,-874014,hypsographic,Saher,Saher,variant,15.669349,39.261486,ER-SK,,
-618380,-873447,hypsographic,"Monte Rabuo","Monte Rabuo",variant,13.271819,42.039335,ER-DK,,
-619477,-875256,hydrographic,"Webi Shebeli","Webi Shebeli",variant,0.2,42.75,S1-000,,
-619922,-875903,hypsographic,Soira,Soira,variant,14.737882,39.513275,ER-DU,,
-619193,-874078,settlement,Saladaro,Saladaro,official,15.205278,38.875833,ER-MA,,
-618575,-873764,hypsographic,"Mount Rohare","Mount Rohare",official,16.617603,38.745141,ER-SK,,
-618476,-873485,hypsographic,"Capo Raheita","Capo Raheita",variant,12.730758,43.114214,ER-DK,,
-619059,-874655,hypsographic,Seddai,Seddai,official,17.016351,38.142044,ER-DU,,
-619587,-875406,spot,"Shiketī Timhirt Bēt","Shiketi Timhirt Bet",official,15.15,38.866667,ER-000,,
-618665,-873917,settlement,Sacatare,Sacatare,official,15.120811,39.524531,ER-SK,,
-619290,-876471,hydrographic,"Taulud Bay","Taulud Bay",variant,15.596337,39.453043,ER-SK,,
-618981,-874533,hypsographic,"Scinghilla Sora","Scinghilla Sora",official,14.721389,36.851944,ER-000,,
-618409,-873508,hypsographic,Ramlo,Ramlo,official,13.392445,41.727882,ER-DK,,
-618760,-874107,hypsographic,"Debra Sale","Debra Sale",variant,15.879722,38.026389,ER-000,,
-618999,13821373,hypsographic,Suwa,Suwa,official,14.283333,41.116667,ER-DK,,
-619091,-861289,hypsographic,Farcha,Farcha,variant,15.75,40.75,ER-000,,
-620102,13825326,settlement,"Suru Sup","Suru Sup",variant,15.067457,39.503669,ER-SK,,
-618411,-873514,hydrographic,"Pozzi de Ramoda","Pozzi de Ramoda",variant,14.634318,41.016239,ER-DK,,
-619852,-875789,hypsographic,Siror,Siror,official,16.240683,37.688675,ER-SK,,
-619141,-874785,hypsographic,"Isola Seil Harmil","Isola Seil Harmil",variant,16.483333,40.183333,ER-000,,
-618692,-873961,hypsographic,"Isola Sadla","Isola Sadla",variant,13.8792,41.938344,ER-DK,,
-618475,-873481,settlement,Raẖayto,Rahayto,variant,12.728518,43.083404,ER-DK,,
-620172,-876318,settlement,Takīta,Takita,official,15,38.8,ER-000,,
-618449,-858159,hypsographic,"Ras Darma","Ras Darma",official,13.228333,42.550278,ER-DK,,
-618426,-873538,hypsographic,"Passo di Ras Armas","Passo di Ras Armas",variant,16.490395,38.583747,ER-SK,,
-618867,-874288,hydrographic,"Pozzo Saroita","Pozzo Saroita",variant,14.411797,41.335008,ER-DK,,
-618932,-874406,settlement,Scerit,Scerit,variant,16.631676,37.825407,ER-SK,,
-618664,-873914,hypsographic,"Sacar Pass","Sacar Pass",variant,17.384865,38.203128,ER-DU,,
-618381,-873448,hypsographic,Rabussom,Rabussom,official,16.75,36.983333,S1-000,,
-618576,-873768,hypsographic,"Mount Rohoret","Mount Rohoret",variant,16.531944,38.580556,ER-SK,,
-618614,-873832,park,"Ruderi Tzertzera","Ruderi Tzertzera",official,16.4,38.383333,ER-000,,
-619015,-874597,hydrographic,"Sebar Guma Shet’","Sebar Guma Shet'",official,15.555379,39.131462,ER-SK,,
-619740,-875612,hypsographic,Sigat,Sigat,official,16.4,38.433333,ER-000,,
-618849,-874256,hypsographic,Sarat,Sarat,official,16.8,38.433333,ER-SK,,
-618700,-873974,hypsographic,"Mount Sagad Diglet","Mount Sagad Diglet",official,16.771111,38.510278,ER-SK,,
-619853,-875791,hypsographic,"Siror Mountains","Siror Mountains",official,15.676537,37.212573,ER-GB,,
-620161,-876297,settlement,Tahara,Tahara,official,16.566667,38.183333,ER-000,,
-618931,-874405,hypsographic,"Ras Sceraier","Ras Sceraier",variant,13.772282,42.032348,ER-DK,,
-619600,399638,settlement,Shīmangus-Tahtay,Shimangus-Tahtay,official,15.490859,38.733528,ER-GB,,
-619361,-875088,hypsographic,Serobitella,Serobitella,official,15.35,37.95,ER-000,,
-618703,-873979,hypsographic,Sagahele,Sagahele,official,14.678412,40.601061,ER-DK,,
-618447,-873571,hypsographic,Rasseitao,Rasseitao,official,13.823973,41.176795,ER-DK,,
-618771,-874121,hypsographic,Salima,Salima,official,15.566667,40.8,ER-000,,
-619695,9337035,settlement,"Aki Akolu","Aki Akolu",variant,14.746389,38.785278,ER-DU,,
-618931,13824442,hypsographic,"Ras Siraier","Ras Siraier",official,13.772282,42.032348,ER-DK,,
-619866,-875808,hypsographic,Si-Seneb,Si-Seneb,official,16.171774,38.577444,ER-DU,,
-619981,-876005,hydrographic,Sootai,Sootai,official,16.883333,37.45,ER-000,,
-619426,578520,hypsographic,"Ras Shiaks","Ras Shiaks",official,14.619862,41.191445,ER-DK,,
-618801,-874169,settlement,Samero,Samero,official,15.2,37.716667,ER-000,,
-619722,13789267,spot,"Sidina Monghella","Sidina Monghella",official,12.550029,42.85358,ER-DK,,
-619134,-874766,hypsographic,Seigghe,Seigghe,official,16.266667,38.466667,ER-000,,
-618492,-873635,settlement,"Renda Coma","Renda Coma",variant,14.45722,39.989042,ER-DU,,
-619246,-874931,hydrographic,"Sememo Shet’","Sememo Shet'",official,14.7,38.816667,ER-000,,
-619140,-853410,hypsographic,Balaa,Balaa,variant,16,39.916667,ER-SK,,
-618975,-874522,hydrographic,Scilla,Scilla,official,12.990443,43.044501,ER-DK,,
-618641,-873876,settlement,Saati,Saati,official,15.579303,39.255979,ER-SK,,
-618615,-873833,hypsographic,"Ruderi Tzertzera","Ruderi Tzertzera",official,16.383333,38.383333,ER-000,,
-619477,-878379,hydrographic,"Wabē Wenz","Wabe Wenz",variant,0.2,42.75,S1-000,,
-620109,-876195,settlement,Suwa,Suwa,official,14.277635,41.096296,ER-DK,,
-619576,-875389,hydrographic,Shialidere,Shialidere,official,15.259826,37.429868,ER-GB,,
-619427,13819141,hydrographic,"Shab Shiaks","Shab Shiaks",official,14.7,41.133333,ER-DK,,
-620136,-860016,settlement,Dongollo,Dongollo,variant,15.471529,39.12959,ER-SK,,
-618378,-873444,hypsographic,Raboba,Raboba,official,17.416667,37.816667,ER-000,,
-620121,-876213,hypsographic,Tabeh,Tabeh,official,17.45,38.25,ER-000,,
-618399,-873487,settlement,Rahel,Rahel,variant,16.054886,38.209736,ER-SK,,
-618962,-874485,hypsographic,Sciangaleti,Sciangaleti,official,15.05,37.616667,ER-000,,
-619136,-874773,hypsographic,"Seil Amber","Seil Amber",variant,15.473467,40.470073,ER-SK,,
-618718,-874013,settlement,Sahelia,Sahelia,official,16.066667,40.05,ER-000,,
-620143,-877322,hydrographic,"Pozzi Tudluc","Pozzi Tudluc",variant,15.13535,37.105165,ER-GB,,
-618584,-873779,hypsographic,"Īsola Romia","Isola Romia",variant,16.533333,40.05,ER-000,,
-618595,-873793,hypsographic,"Rora Tallim","Rora Tallim",official,16.886701,38.528596,ER-SK,,
-619290,-874990,hydrographic,"Seno T’walet YeBahir Weshmet’","Seno T'walet YeBahir Weshmet'",official,15.596337,39.453043,ER-SK,,
-619871,-875815,settlement,Sitona,Sitona,official,14.407135,37.3509,ER-GB,,
-618598,-873800,hypsographic,"Monte Roribet","Monte Roribet",variant,17.566667,38.066667,S1-000,,
-618760,577881,hypsographic,"Debre Sala","Debre Sala",official,15.879722,38.026389,ER-000,,
-618931,13824443,hypsographic,"Ras Sheraer","Ras Sheraer",variant,13.772282,42.032348,ER-DK,,
-619048,-874636,hydrographic,"Secbat Tsuma","Secbat Tsuma",official,16.726406,37.797288,ER-SK,,
-619983,-876010,hypsographic,Sorahat,Sorahat,official,14.695556,38.922222,ER-DU,,
-619510,-875296,settlement,Sheib,Sheib,official,16.033333,39.25,ER-000,,
-619145,-874032,hypsographic,"Isola Sain","Isola Sain",variant,15.816667,40.266667,ER-000,,
-619486,-875272,settlement,"Shegilet Wedī Merīr","Shegilet Wedi Merir",official,15.68,38.672778,ER-AN,,
