wgdPlaceId,wgdId,type,name,fullName,nameType,latitude,longitude,administrationGroup,isHistorical,isCapital
-1636675,-2319212,hydrographic,"Canal Viejo de Bahama","Canal Viejo de Bahama",variant,22.767424,-78.400273,S1-000,,
-1636675,17202971,hydrographic,"Canal Viejo de Bahamas","Canal Viejo de Bahamas",official,22.767424,-78.400273,S1-000,,
-1636229,-2313892,hydrographic,"Canal de San Nicolás","Canal de San Nicolas",official,23.312833,-80.056752,S1-000,,
-1636229,-2305081,hydrographic,"Nicholas Channel","Nicholas Channel",official,23.312833,-80.056752,S1-000,,
-1636675,-2305617,hydrographic,"Old Bahama Channel","Old Bahama Channel",variant,22.767424,-78.400273,S1-000,,
-1544315,-2199093,settlement,"Stuart Manor","Stuart Manor",official,23.633333,-76,BS-EX,,
-1543803,-2198407,hypsographic,"Moraine Cay","Moraine Cay",official,27.040601,-77.771266,BS-HT,,
-1543978,-2198643,hypsographic,"Pine Cay","Pine Cay",official,24.333648,-77.860069,BS-CS,,
-1544045,-2198740,hypsographic,"Red Shank Cay","Red Shank Cay",official,24.39591,-77.769814,BS-CS,,
-1543560,-2198088,hypsographic,"Lantern Head","Lantern Head",variant,25.886969,-77.182606,BS-SO,,
-1543355,-2197807,settlement,Grays,Grays,official,23.252925,-75.102926,BS-LI,,
-1543542,-2198061,hypsographic,"Kemp Cay","Kemp Cay",official,24.230753,-76.501032,BS-BP,,
-1543695,-2198253,hydrographic,"Mackie Shoal","Mackie Shoal",official,25.685603,-78.657695,BS-BI,,
-1543338,-2197781,hypsographic,"Gordon Bluff","Gordon Bluff",official,22.834038,-74.305642,BS-CK,,
-1543990,-2197709,hypsographic,"French Cays","French Cays",variant,22.600067,-73.604483,BS-AK,,
-1544026,-2198713,hydrographic,"Racoon Cut","Racoon Cut",official,22.332989,-75.80086,BS-RI,,
-1543808,-2198414,hypsographic,"Moriah Harbour Cay","Moriah Harbour Cay",official,23.466667,-75.666667,BS-EX,,
-1543869,-2198503,hypsographic,"Northeast Point","Northeast Point",variant,22.726894,-73.853788,BS-AK,,
-1544149,-2198877,hypsographic,"Sandy Cay","Sandy Cay",official,26.866667,-77.516667,BS-NO,,
-1544319,-2199098,hypsographic,"Sugar Loaf Cay","Sugar Loaf Cay",official,26.551419,-77.017793,BS-CO,,
-1543456,-2197943,settlement,"Highbury Park","Highbury Park",official,25.033333,-77.316667,BS-000,,
-1544435,-2199251,hydrographic,"West Bay","West Bay",official,24.583333,-75.966667,BS-CI,,
-1543522,-2198031,hypsographic,"James Point","James Point",official,25.350571,-76.373725,BS-NE,,
-1543936,-2198587,hypsographic,"Parrot Cays","Parrot Cays",official,26.539183,-76.973642,BS-HT,,
-1544407,-2199211,hydrographic,"Walker Cay Channel","Walker Cay Channel",short,27.316667,-78.466667,BS-000,,
-1544439,-2199260,settlement,"West End Settlement","West End Settlement",variant,26.670575,-78.975369,BS-WG,,
-1543613,-2198161,hypsographic,"Little Major’s Spot","Little Major's Spot",official,24.193396,-76.45,BS-BP,,
-1544377,-2199171,hypsographic,"Turtle Rocks","Turtle Rocks",official,25.662671,-79.307892,BS-BI,,
-1543579,-2198115,settlement,"Lisbon Creek Settlement","Lisbon Creek Settlement",variant,24.213653,-77.636139,BS-MC,,
-1543793,-2198389,hydrographic,"Passe de Mira Por Vos","Passe de Mira Por Vos",variant,22.103081,-74.393837,BS-AK,,
-1544194,-2198937,settlement,"Seymours Settlement","Seymours Settlement",variant,23.656191,-75.311356,BS-LI,,
-1544410,-2199215,hydrographic,"Warren’s Harbour","Warren's Harbour",variant,24.25,-75.333333,BS-CI,,
-1543683,-2198239,hypsographic,"Low Water Harbour Cay","Low Water Harbour Cay",official,22.416667,-75.816667,BS-RI,,
-1544125,-2198840,hypsographic,"Salt Point","Salt Point",variant,23.666667,-75.916667,BS-EX,,
-1543753,-2198328,hypsographic,"Mastic Point","Mastic Point",official,25.05,-77.966667,BS-NS,,
-1543650,-2198204,hypsographic,"Long Island","Long Island",official,23.207815,-75.108632,BS-LI,,
-1543825,17643239,hydrographic,"Nugents Harbour","Nugents Harbour",variant,22.12584,-74.317802,BS-AK,,
-1544304,-2199078,settlement,"Stephenson Settlement","Stephenson Settlement",variant,24.444202,-75.542025,BS-CI,,
-1544383,-2199178,hypsographic,"Umbrella Cay","Umbrella Cay",official,27.005668,-77.715067,BS-HT,,
-1543743,-2198318,settlement,"Marsh Harbour","Marsh Harbour",official,26.540931,-77.059735,BS-CO,,
-1544269,-2199030,hypsographic,"South Rocks","South Rocks",official,23.808637,-75.083375,BS-RC,,
-1544024,-2198710,hypsographic,"Quintus Rocks","Quintus Rocks",official,25.270221,-76.87936,BS-NE,,
-1543635,-2198187,hypsographic,"Loggerhead Point","Loggerhead Point",official,25.081387,-78.181084,BS-NS,,
-1543665,-2198220,hydrographic,"Lovely Bay","Lovely Bay",official,22.718233,-74.00993,BS-AK,,
-1543402,-2197873,hypsographic,"Gun Bluff","Gun Bluff",official,22.836154,-74.319135,BS-CK,,
-1543599,-2198138,settlement,"Little Farmers Cay","Little Farmers Cay",official,23.95,-76.316667,BS-BP,,
-1543587,-2198123,hypsographic,"Little Bersus Cay","Little Bersus Cay",official,26.448904,-77.731689,BS-EG,,
-1544286,-2199051,hydrographic,"Spar Creek","Spar Creek",official,22.297072,-74.120362,BS-AK,,
-1544136,-2198862,hypsographic,"Sanders Island","Sanders Island",short,25.366667,-76.7,BS-NE,,
-1544568,-2604073,hypsographic,"Palacca Point","Palacca Point",official,21.229835,-73.389641,BS-IN,,
-1543530,-2198046,hypsographic,"John Downer Cays","John Downer Cays",variant,26.642867,-77.434066,BS-CO,,
-1543857,-2198488,hypsographic,"Norman’s Pond Cay","Norman's Pond Cay",official,23.775238,-76.129966,BS-EX,,
-1543403,-2197874,hypsographic,"Gun Cay","Gun Cay",official,25.582534,-79.298968,BS-BI,,
-1544110,-2197736,hypsographic,"George Island","George Island",variant,25.55,-76.766667,BS-HI,,
-1543341,-2197791,hydrographic,"Governor’s Harbour","Governor's Harbour",official,25.200503,-76.257261,BS-CE,,
-1543745,-2198320,settlement,"Martin Town","Martin Town",short,26.533333,-78.8,BS-WG,,
-1543508,-2198017,hypsographic,"Iron Cay","Iron Cay",official,26.422432,-77.037161,BS-CO,,
-1543771,-2198358,settlement,"Mc Queens Settlement","Mc Queens Settlement",variant,24.177907,-75.470808,BS-CI,,
-1543795,-2198396,hydrographic,"Mitchell Creek","Mitchell Creek",official,26.673444,-77.345359,BS-CO,,
-1543628,-2198179,park,"Loafers Seat","Loafers Seat",official,26.543612,-77.059345,BS-CO,,
-1544221,-2198973,hypsographic,"Six Shillings","Six Shillings",variant,25.283333,-76.916667,BS-NE,,
-1543790,-2198384,settlement,Millerton,Millerton,official,23.55,-75.25,BS-LI,,
-1543550,-2198071,hydrographic,"Lake Killarney","Lake Killarney",official,25.05,-77.45,BS-000,,
-1543425,-2197902,hypsographic,"Harry Creek Point","Harry Creek Point",variant,22.5,-73.05,BS-MG,,
-1544069,-2198771,hydrographic,"Rocky Harbour","Rocky Harbour",official,21.149177,-73.308642,BS-IN,,
-1543342,-2197792,administrative_region,"Governor’s Harbour District","Governor's Harbour District",official,25.2,-76.5,BS-000,1,
-1544421,-2199229,settlement,"Waterford Settlement","Waterford Settlement",variant,24.75,-76.233333,BS-SE,,
-1543892,-2198532,hypsographic,"Northwest Point","Northwest Point",official,25.066667,-77.516667,BS-000,,
-1544202,-2198945,hypsographic,"Sheep Cay","Sheep Cay",short,25.133333,-76.183333,BS-CE,,
-1543849,-2198475,settlement,"Nixes Harbour","Nixes Harbour",variant,25.699734,-79.301998,BS-BI,,
-1543874,-2198508,hypsographic,"North East Rock","North East Rock",official,26.041468,-79.063386,BS-BI,,
-1543631,17322812,hypsographic,"Lobster Cays","Lobster Cays",official,25.463237,-76.786294,BS-NE,,
-1543475,-2197969,hypsographic,"Hog Cay","Hog Cay",official,23.602255,-75.338594,BS-LI,,
-1543577,-2198111,hydrographic,"Lime Pond","Lime Pond",official,23.65,-74.9,BS-RC,,
-1543645,-2197687,hypsographic,"Ile de la Fortune","Ile de la Fortune",variant,22.593745,-74.344265,BS-CK,,
-1544298,-2199066,hypsographic,"Staniel Cay","Staniel Cay",official,24.171721,-76.440148,BS-BP,,
-1543336,-2197780,hypsographic,"Gorda Rock","Gorda Rock",official,26.112999,-77.556671,BS-SO,,
-1543433,-2197913,hypsographic,"Hawk Point","Hawk Point",short,25.55,-76.683333,BS-NE,,
-1543762,-2198341,administrative_region,Mayaguana,Mayaguana,official,22.38417,-72.95389,BS-MG,,
-1544433,-2199247,settlement,"Wemyss Bight","Wemyss Bight",official,24.75,-76.25,BS-SE,,
-1544089,-2198797,hypsographic,"Round Rock","Round Rock",official,25.55,-79.3,BS-BI,,
-1544110,-2198826,hypsographic,"Saint Georges Island","Saint Georges Island",official,25.55,-76.766667,BS-HI,,
-1544125,-2198848,hypsographic,"Salt Pond Point","Salt Pond Point",official,23.666667,-75.916667,BS-EX,,
-1544332,-2199115,hydrographic,"Tea Bay","Tea Bay",official,24.414782,-75.57651,BS-CI,,
-1544152,-2198880,hypsographic,"Sandy Cay","Sandy Cay",official,24.42101,-77.802151,BS-CS,,
-1544213,-2198960,hydrographic,"Simon Creek","Simon Creek",official,25.016667,-78.166667,BS-NS,,
-1544229,-2198983,hypsographic,"Snake Cay","Snake Cay",official,26.453644,-77.048801,BS-CO,,
-1543465,-2197956,settlement,"High Rock Settlement","High Rock Settlement",variant,24.166667,-77.583333,BS-SA,,
-1544465,-2199288,hydrographic,"White Horses","White Horses",official,24.116667,-76.383333,BS-BP,,
-1544079,-2198784,settlement,Rolletown,Rolletown,official,23.463122,-75.704208,BS-EX,,
-1544016,-2198701,hypsographic,"Pumpion Cay","Pumpion Cay",official,24.7,-78.316667,BS-NS,,
-1543763,-2198306,hypsographic,"Mariguana Island","Mariguana Island",variant,22.381683,-72.942577,BS-MG,,
-1544234,-2198989,settlement,"Snug Corner","Snug Corner",official,22.552947,-73.878827,BS-AK,,
-1544447,-2199268,hypsographic,"Wet Cay","Wet Cay",official,23.69206,-77.664243,BS-SA,,
-1543625,-2198175,hypsographic,"Little Whale Cay","Little Whale Cay",official,25.44767,-77.758511,BS-BY,,
-1543455,83512,hydrographic,"Highbourn Cut","Highbourn Cut",variant,24.746464,-76.81561,BS-EX,,
-1543888,-2198528,hydrographic,"Northwest Channel","Northwest Channel",official,25.471523,-78.161376,BS-000,,
-1543752,-2198327,settlement,"Mastic Point","Mastic Point",variant,25.068765,-77.960362,BS-NS,,
-1543977,-2199036,settlement,"Southwest Point","Southwest Point",variant,26.483333,-78.683333,BS-FP,,
-1544291,-2199057,hypsographic,"Spring Point","Spring Point",official,22.448777,-74.00101,BS-AK,,
-1543759,-2198339,hypsographic,"Mattis Point","Mattis Point",official,26.570842,-77.263761,BS-CO,,
-1543309,-2197745,hypsographic,"Gilpin Point","Gilpin Point",official,26.10325,-77.178982,BS-SO,,
-1543844,-2198468,hypsographic,"New Zealand Point","New Zealand Point",official,24.086301,-77.927364,BS-MC,,
-1543764,-2198346,hydrographic,"Mayaguana Passage","Mayaguana Passage",official,22.516143,-73.223919,BS-MG,,
-1543445,-2197927,hydrographic,"Hawksnest Creek","Hawksnest Creek",variant,23.754098,-77.546892,BS-SA,,
-1543573,-2198107,hypsographic,"Lignumvitae Cay","Lignumvitae Cay",official,23.842932,-76.202882,BS-BP,,
-1544140,-2198866,hydrographic,"Sandy Bay","Sandy Bay",official,24.633333,-75.583333,BS-CI,,
-1544330,-2199112,hypsographic,"Tarzan Cay","Tarzan Cay",variant,22.925918,-75.842878,BS-RI,,
-1543440,-2197921,hydrographic,"Hawks Nest","Hawks Nest",official,24.15,-75.516667,BS-CI,,
-1543304,17642594,settlement,"George Town","George Town",variant,23.506327,-75.769575,BS-EX,,
-1543444,-2197926,spot,"Hawks Nest Creek","Hawks Nest Creek",short,24.15,-75.516667,BS-CI,,
-1544297,-2199065,spot,"Staniel Cay","Staniel Cay",short,24.15,-76.433333,BS-BP,,
-1543726,-2198291,settlement,"Man of War Cay","Man of War Cay",variant,26.595363,-77.000765,BS-HT,,
-1544212,-2198961,hypsographic,"Simon Point","Simon Point",variant,25,-78.166667,BS-NS,,
-1543452,-2197937,hydrographic,"High Bank Bay","High Bank Bay",official,25.933333,-77.183333,BS-SO,,
-1544336,-2199120,hydrographic,"Ten Bay","Ten Bay",short,25.116667,-76.15,BS-CE,,
-1543927,-2198576,hypsographic,"Over Yonder Cay","Over Yonder Cay",official,24.224243,-76.479288,BS-BP,,
-1543690,-2198246,hypsographic,"Simms Cay","Simms Cay",variant,25.033333,-77.566667,BS-000,,
-1543498,-2198146,hydrographic,"Little Harbour","Little Harbour",variant,26.333333,-77.016667,BS-CO,,
-1544363,-2199156,hypsographic,"Top Cay","Top Cay",official,26.236283,-77.572509,BS-MI,,
-1543832,-2197355,settlement,"City of Nassau","City of Nassau",variant,25.067951,-77.309929,BS-000,,
-1543725,-2198297,hypsographic,"Man o’ War Cay","Man o' War Cay",variant,26.596259,-77.000354,BS-HT,,
-1543747,-2198322,hydrographic,"Mason Bay","Mason Bay",official,22.520533,-73.882821,BS-AK,,
-1543788,-2198380,settlement,Millers,Millers,official,23.4,-75.166667,BS-LI,,
-1544183,-2198921,hypsographic,"Scrub Cays","Scrub Cays",official,24.118865,-76.915484,BS-SA,,
-1544358,-2199150,hydrographic,"Timber Bay","Timber Bay",official,22.346534,-72.746201,BS-MG,,
-1544129,-2198853,settlement,"Sam McKinnons","Sam McKinnons",official,23.4,-75.183333,BS-LI,,
-1544403,-2199205,hypsographic,"Vigilant Cay","Vigilant Cay",official,25.432634,-77.773191,BS-BY,,
-1544027,-2198715,hypsographic,"Ragged Island","Ragged Island",official,22.193524,-75.728782,BS-RI,,
-1543835,-2198449,spot,"Nassau International","Nassau International",variant,25.038958,-77.466231,BS-000,,
-1544289,-2199055,hydrographic,"Springfield Bay","Springfield Bay",official,24.134713,-75.424555,BS-CI,,
-1543720,-2198285,hydrographic,"Man of War Bay","Man of War Bay",official,21.060587,-73.665384,BS-IN,,
-1543985,-2198650,hypsographic,"Pipe Cay","Pipe Cay",official,24.245203,-76.517441,BS-BP,,
-1544203,-2198946,hypsographic,"Sheep Cay","Sheep Cay",official,25.218678,-78.232398,BS-NS,,
-1543410,-2197881,hypsographic,"Halfway Rock","Halfway Rock",official,25.116667,-77.233333,BS-000,,
-1544020,-2198704,hydrographic,"Pye Harbour","Pye Harbour",variant,24.462408,-77.745966,BS-CS,,
-1543419,-2197898,settlement,"Hard Bargain Settlement","Hard Bargain Settlement",variant,23.01848,-74.892452,BS-LI,,
-1544264,-2199025,settlement,"South Palmetto Point Settlement","South Palmetto Point Settlement",variant,25.15,-76.183333,BS-CE,,
-1543882,-2198521,hypsographic,"North Rock","North Rock",official,22.144199,-74.530635,BS-AK,,
-1543607,-2198153,hypsographic,"Little Inagua Island","Little Inagua Island",variant,21.5,-73,BS-IN,,
-1543995,-2198669,hydrographic,"Pompey Bay","Pompey Bay",official,22.405374,-74.014371,BS-AK,,
-1543869,17643707,hypsographic,"North East Point","North East Point",official,22.726894,-73.853788,BS-AK,,
-1544246,-2199003,hypsographic,"South Cat Cay","South Cat Cay",official,25.533067,-79.263737,BS-BI,,
-1544076,-2198759,settlement,Roakers,Roakers,official,24.519222,-75.583333,BS-CI,,
-1543799,-2198401,hydrographic,"Montagu Bay","Montagu Bay",official,25.066667,-77.3,BS-000,,
-1543924,-2198573,settlement,"Orange Hill","Orange Hill",official,25.066667,-77.483333,BS-000,,
-1543775,-2198397,settlement,Mitchison,Mitchison,variant,23.483333,-75.766667,BS-EX,,
-1544162,-2198884,administrative_region,"Sandy Point","Sandy Point",variant,26.116667,-77.366667,BS-000,1,
-1544482,-2199313,hydrographic,"Winding Bay","Winding Bay",official,26.3,-77.016667,BS-CO,,
-1543959,-2198622,hydrographic,"Pierre Rock Reef","Pierre Rock Reef",variant,25.566667,-76.783333,BS-HI,,
-1544320,-2199099,hypsographic,"Sugar Rock","Sugar Rock",official,24.543533,-77.688844,BS-CS,,
-1543855,-2198489,hypsographic,"Normans Pond Cay","Normans Pond Cay",variant,24.625859,-76.816569,BS-BP,,
-1543905,-2198550,hydrographic,"Ocean Bight","Ocean Bight",official,23.622361,-75.9124,BS-EX,,
-1544314,-2199092,hypsographic,"Strangers Cay Rocks","Strangers Cay Rocks",short,27.133333,-78.133333,BS-HT,,
-1544417,-2199227,settlement,"Water Cay Settlement","Water Cay Settlement",variant,26.75,-78.5,BS-WG,,
-1543556,-2198086,settlement,"Landrail Point Settlement","Landrail Point Settlement",variant,22.803526,-74.337305,BS-CK,,
-1544104,-2198818,hypsographic,"Saddle Cay","Saddle Cay",official,24.654615,-76.811535,BS-EX,,
-1543610,-2198158,hydrographic,"Little Lake","Little Lake",short,24.1,-74.466667,BS-SS,,
-1544393,-2199189,hypsographic,"Upper Wreck Point","Upper Wreck Point",short,25.116667,-76.1,BS-CE,,
-1544123,-2198846,hypsographic,"Salt Pond Cay","Salt Pond Cay",official,23.100487,-74.942085,BS-LI,,
-1543846,-2198472,settlement,"Nicolls Town","Nicolls Town",variant,25.145344,-78.001597,BS-NS,,
-1543357,-2197091,hypsographic,"Big Bersus Cay","Big Bersus Cay",variant,26.425732,-77.780083,BS-EG,,
-1544337,-2199122,hypsographic,"Thatch Point","Thatch Point",official,26.312904,-77.252908,BS-CO,,
-1544039,-2198731,hypsographic,"Ratman Cay","Ratman Cay",variant,23.693687,-77.624545,BS-SA,,
-1544211,-2198957,hypsographic,"Simms Point","Simms Point",official,25.029527,-77.551036,BS-000,,
-1544165,-2198899,hypsographic,"San Salvador Island","San Salvador Island",official,24.033333,-74.466667,BS-SS,,
-1543832,-2198445,settlement,Nassau,Nassau,official,25.067951,-77.309929,BS-000,,
-1544386,-2199181,settlement,"Upper Bogue","Upper Bogue",official,25.45,-76.666667,BS-NE,,
-1543328,-2197769,hydrographic,"Gold Rock Creek","Gold Rock Creek",official,26.6,-78.383333,BS-EG,,
-1544473,-2199302,settlement,"William Town","William Town",variant,23.425953,-75.558918,BS-EX,,
-1544301,-2199073,hypsographic,"Steamer Cay","Steamer Cay",short,24.033333,-77.75,BS-SA,,
-1543463,-2197950,hypsographic,"High Point Cay","High Point Cay",official,23.901555,-77.491132,BS-SA,,
-1543667,-2198222,hypsographic,"Lovely Bay Cay","Lovely Bay Cay",variant,22.683333,-74.016667,BS-AK,,
-1544339,-2199124,hydrographic,"The Bight","The Bight",official,24.263869,-75.428914,BS-CI,,
-1543314,-2197753,hydrographic,"Glenton Sound","Glenton Sound",official,23.608643,-75.317043,BS-LI,,
-1543550,-2198617,hydrographic,"Petty Sound","Petty Sound",variant,25.05,-77.45,BS-000,,
-1544064,-2198766,hydrographic,"Rock Sound","Rock Sound",official,23.83585,-77.785861,BS-SA,,
-1544004,-2198681,settlement,"Port Boyd Settlement","Port Boyd Settlement",variant,23.703544,-74.820684,BS-RC,,
-1544507,-2199343,settlement,Zonicles,Zonicles,official,24.133333,-75.366667,BS-CI,,
-1543593,-2198131,hydrographic,"Little Creek","Little Creek",official,23.946509,-77.521841,BS-SA,,
-1544077,-2198779,hypsographic,"Roker Cay","Roker Cay",official,22.3089,-74.182944,BS-AK,,
-1543886,-2198526,hypsographic,"Northwest Cay","Northwest Cay",official,21.683333,-73.85,BS-IN,,
-1543697,-2198255,hypsographic,"Madiera Cay","Madiera Cay",short,24.316667,-77.733333,BS-000,,
-1544205,-2198948,hypsographic,"Ship Channel Cay","Ship Channel Cay",official,24.82149,-76.822813,BS-BP,,
-1544420,-2199226,hypsographic,"Water Cays","Water Cays",short,23.989311,-80.273198,BS-BI,,
-1543552,-2198076,hypsographic,"Kits Cay","Kits Cay",official,24.570293,-77.72028,BS-CS,,
-1543849,-2198476,settlement,"Nixon’s Harbour","Nixon's Harbour",official,25.699734,-79.301998,BS-BI,,
-1543977,-2198642,settlement,"Pinders Point","Pinders Point",official,26.483333,-78.683333,BS-FP,,
-1544302,-2199074,spot,"Stella Maris","Stella Maris",short,23.583333,-75.266667,BS-LI,,
-1544002,-2198677,hypsographic,"Pork Fish Rocks","Pork Fish Rocks",official,25.1,-77.333333,BS-000,,
-1543603,-2198147,spot,"Little Harbour","Little Harbour",short,26.316667,-76.983333,BS-000,,
-1544379,-2199173,settlement,Tusculum,Tusculum,official,25.066667,-77.483333,BS-000,,
-1544164,12296837,administrative_region,"San Salvador","San Salvador",official,24.03667,-74.49306,BS-SS,,
-1543689,-2198245,hypsographic,"Lydia Point","Lydia Point",official,21.25,-73.116667,BS-IN,,
-1543338,-2197783,hypsographic,"Gordon’s Bluff","Gordon's Bluff",variant,22.834038,-74.305642,BS-CK,,
-1544373,-2199167,hydrographic,"Turner Sound","Turner Sound",official,24.473193,-78.069724,BS-CS,,
-1543718,-2198281,hypsographic,"Man Head Cay","Man Head Cay",official,25.116667,-74.433333,BS-000,,
-1543656,-2198210,hydrographic,"Long Pond","Long Pond",official,23.65,-74.883333,BS-RC,,
-1543632,-2198184,hypsographic,"Lockhart Cay","Lockhart Cay",official,26.587692,-77.36129,BS-CO,,
-1543455,17322518,hydrographic,"Highborne Cut","Highborne Cut",official,24.746464,-76.81561,BS-EX,,
-1543345,-2197810,hypsographic,"Great Bahama Island","Great Bahama Island",variant,26.633333,-78.416667,BS-000,,
-1543975,-2198640,hypsographic,"Pinder Point","Pinder Point",official,26.5,-78.733333,BS-WG,,
-1544227,-2198980,settlement,"Smith’s Hill","Smith's Hill",official,24.05,-77.533333,BS-SA,,
-1544046,-2198741,hypsographic,"Red Shank Cay","Red Shank Cay",official,26.49504,-77.746675,BS-EG,,
-1543481,-2197979,hypsographic,"Hog Point","Hog Point",official,22.235274,-75.758584,BS-RI,,
-1544137,-2198863,settlement,"Sandilands Village","Sandilands Village",official,25.05,-77.316667,BS-000,,
-1544202,-2197813,hypsographic,"Great Cay","Great Cay",variant,25.133333,-76.183333,BS-CE,,
-1543514,-2198023,hydrographic,"Jamaica Bay","Jamaica Bay",official,22.235825,-74.211613,BS-AK,,
-1543556,-2198084,settlement,"Landrail Point","Landrail Point",official,22.803526,-74.337305,BS-CK,,
-1543437,-2197918,hydrographic,"Hawksbill Creek","Hawksbill Creek",official,26.533333,-78.716667,BS-WG,,
-1543532,-2198045,hydrographic,"John Creek","John Creek",official,24.216667,-78.133333,BS-CS,,
-1543618,-2198166,hypsographic,"Little Ragged Island","Little Ragged Island",official,22.160341,-75.701986,BS-RI,,
-1543734,-2198303,hypsographic,"Margaret Cay","Margaret Cay",official,22.2987,-75.778935,BS-RI,,
-1543670,-2198226,hypsographic,"Low Cay","Low Cay",official,23.938952,-74.481457,BS-SS,,
-1543875,-2198510,hypsographic,"North End","North End",official,23.683333,-75.333333,BS-LI,,
-1543699,-2198258,hydrographic,"Magallanes Bank","Magallanes Bank",official,22,-76.133333,BS-RI,,
-1543951,-2198603,settlement,"Pelican Point","Pelican Point",official,26.65,-78.083333,BS-EG,,
-1544470,-2199295,hydrographic,"Wide Opening","Wide Opening",short,24.416667,-78.183333,BS-000,,
-1544081,-2198787,hydrographic,Rompidas,Rompidas,official,23.766667,-80.45,BS-BI,,
-1543652,17297536,hypsographic,"Big Mangrove","Big Mangrove",official,26.292911,-77.288219,BS-CO,,
-1544219,-2198967,hypsographic,"Sister Rocks","Sister Rocks",variant,25.462583,-77.74312,BS-BY,,
-1544488,-2199319,hypsographic,"Witch Point","Witch Point",official,26.493555,-77.033627,BS-CO,,
-1544333,-2199117,settlement,"Tea Bay Settlement","Tea Bay Settlement",variant,24.4,-75.516667,BS-CI,,
-1544228,-2198981,hypsographic,"Smith Sloop Point","Smith Sloop Point",short,21.1,-73.616667,BS-IN,,
-1543619,-2198167,hypsographic,"Little Romers Cay","Little Romers Cay",short,27.15,-78.183333,BS-HT,,
-1544220,-2198971,hypsographic,"Six Shilling Cays","Six Shilling Cays",official,25.279183,-76.900795,BS-NE,,
-1544274,-2199035,hydrographic,"South West Bay","South West Bay",official,25,-77.533333,BS-000,,
-1543627,-2198178,hypsographic,"Lloyd Rock","Lloyd Rock",official,22.026992,-75.689669,BS-RI,,
-1543928,-2198577,settlement,"Owens Town","Owens Town",official,24.877622,-78.035752,BS-NS,,
-1543392,-2197857,hypsographic,"Guana Cay","Guana Cay",official,22.458477,-74.228121,BS-CK,,
-1543394,-2197859,hypsographic,"Guana Cay","Guana Cay",official,24.083333,-76.383333,BS-BP,,
-1543516,-2198025,hypsographic,"Jamaica Cay","Jamaica Cay",official,22.737356,-75.903077,BS-RI,,
-1544190,-2198929,settlement,"Seaview Settlement","Seaview Settlement",official,22.816667,-74.283333,BS-CK,,
-1543772,17322810,hypsographic,"Meeks Patch","Meeks Patch",official,25.514403,-76.781765,BS-000,,
-1543562,-2198092,undersea,"Large Hole","Large Hole",short,22.316667,-76.4,BS-RI,,
-1543836,-2198451,hypsographic,"Nesbitt Point","Nesbitt Point",official,23.65,-74.883333,BS-RC,,
-1544197,-2198940,hydrographic,"Shark Spit","Shark Spit",official,23.433333,-76.65,BS-SA,,
-1543771,-2198357,settlement,McQueens,McQueens,official,24.177907,-75.470808,BS-CI,,
-1543363,-2197821,hydrographic,"Great Harbour","Great Harbour",official,23.098934,-74.952016,BS-LI,,
-1543712,-2198274,settlement,"Mangrove Cay","Mangrove Cay",official,24.25,-77.65,BS-MC,,
-1544025,-2198711,hypsographic,"Racoon Cay","Racoon Cay",variant,22.366849,-75.814604,BS-RI,,
-1543350,-2197802,hydrographic,"Granny Lake","Granny Lake",official,24.033333,-74.483333,BS-SS,,
-1543357,-2197255,hypsographic,"Bursis Cay","Bursis Cay",variant,26.425732,-77.780083,BS-EG,,
-1543415,-2197888,settlement,"Harbour Estate","Harbour Estate",official,24.1,-74.516667,BS-SS,,
-1544241,-2198845,hydrographic,"Salt Pond Bay","Salt Pond Bay",variant,20.95,-73.583333,BS-IN,,
-1543735,-2198304,hydrographic,"Maria Bay","Maria Bay",official,22.4,-74.05,BS-AK,,
-1544110,-2197734,hypsographic,"Ile George","Ile George",variant,25.55,-76.766667,BS-HI,,
-1543988,-2198653,hydrographic,"Pirates Well Pond","Pirates Well Pond",official,22.416667,-73.066667,BS-MG,,
-1544487,-2199318,settlement,"Winton Meadows","Winton Meadows",official,25.033333,-77.266667,BS-000,,
-1543479,-2197974,spot,"Hog Cay/Long Island","Hog Cay/Long Island",short,23.6,-75.333333,BS-LI,,
-1544389,-2199185,hydrographic,"Upper Cut","Upper Cut",official,26.555379,-77.05815,BS-CO,,
-1543496,-2197998,hydrographic,"Hurricane Flats","Hurricane Flats",official,23.583333,-78.333333,BS-000,,
-1544372,-2199164,hypsographic,"Tumar Cay","Tumar Cay",variant,25.7,-77.833333,BS-BY,,
-1544414,-2199220,hypsographic,"Water Cay","Water Cay",official,26.45,-77.766667,BS-EG,,
-1544223,-2198975,spot,"S & M Farm","S & M Farm",official,26.448638,-77.133746,BS-CO,,
-1543420,-2197895,settlement,"Hard Bargain","Hard Bargain",official,24.066667,-74.45,BS-SS,,
-1543435,-2197915,hypsographic,"Hawksbill Cay","Hawksbill Cay",official,24.485903,-76.769468,BS-BP,,
-1544146,-2198874,hypsographic,"Sandy Cay","Sandy Cay",official,25.502097,-77.800466,BS-BY,,
-1543774,-2198361,hypsographic,"Memory Rock","Memory Rock",official,26.95,-79.10613,BS-WG,,
-1543662,-2198217,settlement,Love,Love,official,25.066667,-77.5,BS-000,,
-1544205,-2198949,hypsographic,"Ship Channel Cays","Ship Channel Cays",variant,24.82149,-76.822813,BS-BP,,
-1543817,-2198427,settlement,"Mount Pleasant","Mount Pleasant",official,25.016667,-77.516667,BS-000,,
-1544275,-2199037,hypsographic,"South West Point","South West Point",official,20.914703,-73.646889,BS-IN,,
-1543893,-2198481,hydrographic,"Canal Nord Ouest de la Providence","Canal Nord Ouest de la Providence",variant,26.007868,-77.840907,BS-000,,
-1543371,-2197830,hypsographic,"Great Porpoise Rocks","Great Porpoise Rocks",variant,25.13357,-77.136646,BS-000,,
-1544198,-2198941,hypsographic,"Sharp Rock Point","Sharp Rock Point",official,24.208859,-77.598112,BS-SA,,
-1543780,-2198367,hypsographic,"Middle Cay","Middle Cay",official,23.944208,-74.475598,BS-SS,,
-1543574,-2198108,hypsographic,"Lignumvitae Cay","Lignumvitae Cay",official,25.794984,-77.896505,BS-BY,,
-1543763,-2198305,hypsographic,"Ile Mariguana","Ile Mariguana",variant,22.381683,-72.942577,BS-MG,,
-1543880,-2198517,hypsographic,"North Hall’s Spot","North Hall's Spot",official,25.466667,-77.85,BS-BY,,
-1544330,17263049,hypsographic,"Torzon Cay","Torzon Cay",official,22.925918,-75.842878,BS-RI,,
-1544378,-2199172,hydrographic,"Turtle Sound","Turtle Sound",official,22.779454,-74.290386,BS-CK,,
-1543359,-2197815,hypsographic,"Great Exuma Island","Great Exuma Island",variant,23.574758,-75.889659,BS-EX,,
-1543557,-2198085,hypsographic,"Landrail Point","Landrail Point",official,22.833333,-74.35,BS-CK,,
-1543477,-2197972,hydrographic,"Hog Cay Cut","Hog Cay Cut",official,23.402189,-75.512226,BS-EX,,
-1544028,-2198718,administrative_region,"Ragged Island District","Ragged Island District",official,22.37083,-75.815,BS-RI,,
-1543775,-2198362,settlement,Michelson,Michelson,official,23.483333,-75.766667,BS-EX,,
-1544101,-2198817,hypsographic,"Saddleback Cays","Saddleback Cays",variant,24.854256,-77.863851,BS-NS,,
-1543818,-2198428,hypsographic,"Mount Pleasant Point","Mount Pleasant Point",official,22.416667,-73.016667,BS-MG,,
-1543531,-2198044,hypsographic,"John Cash Point","John Cash Point",official,26.555641,-77.020776,BS-CO,,
-1544164,-2198898,administrative_region,"San Salvador and Rum Cay District","San Salvador and Rum Cay District",variant,24.03667,-74.49306,BS-SS,,
-1544185,-2198923,settlement,"Scrub Hill","Scrub Hill",official,23.483333,-75.233333,BS-LI,,
-1544306,-2199082,settlement,Steventon,Steventon,official,23.642654,-75.944796,BS-EX,,
-1543605,-2198149,hypsographic,"Little Harbour Cay","Little Harbour Cay",official,25.581347,-77.721327,BS-BY,,
-1544342,9284024,settlement,"The Bluff Settlement","The Bluff Settlement",variant,25.499073,-76.723371,BS-NE,,
-1543728,-2198293,hydrographic,"Man of War Channel","Man of War Channel",official,26.616667,-77.016667,BS-HT,,
-1543692,-2198250,settlement,Macbride,Macbride,official,25.066667,-77.466667,BS-000,,
-1543380,-2197842,hypsographic,"Green Cay","Green Cay",official,25.105687,-77.191785,BS-000,,
-1543300,-2197732,hypsographic,"Gaulding Cay","Gaulding Cay",short,25.033333,-76.116667,BS-CE,,
-1543639,-2198191,hydrographic,"Long Bay","Long Bay",official,25.066667,-76.116667,BS-CE,,
-1544005,-2198682,settlement,"Port Howe","Port Howe",official,24.158476,-75.338606,BS-CI,,
-1543344,-2197795,spot,"Grand Bahama Aux. A.F.B.","Grand Bahama Aux. A.F.B.",variant,26.60802,-78.363645,BS-EG,,
-1543383,-2198458,hypsographic,"New Plymouth Town","New Plymouth Town",variant,26.779718,-77.328852,BS-NO,,
-1544065,-2198767,settlement,"Rock Sound","Rock Sound",official,24.866645,-76.157423,BS-SE,,
-1544306,-2199079,settlement,Stephentown,Stephentown,variant,23.642654,-75.944796,BS-EX,,
-1543398,-2197864,hypsographic,"Guano Cay","Guano Cay",official,25.566667,-77.733333,BS-BY,,
-1544451,-2199272,hydrographic,"Whale Cay Channel","Whale Cay Channel",official,26.75,-77.316667,BS-HT,,
-1544328,-2197751,settlement,Glenelg,Glenelg,variant,24.970003,-76.181567,BS-SE,,
-1544349,-2199140,hypsographic,"Thomas George Point","Thomas George Point",official,25.216667,-76.233333,BS-000,,
-1543324,-2197765,hypsographic,"Golding Cays","Golding Cays",official,25.206802,-78.034763,BS-NS,,
-1543672,-2197343,hypsographic,"Chub Point","Chub Point",variant,25.4,-77.916667,BS-BY,,
-1543693,-2198251,hypsographic,"Mackerel Point","Mackerel Point",official,25.216667,-76.25,BS-000,,
-1543854,13919773,spot,"Norman Cay","Norman Cay",short,24.614492,-76.768028,BS-BP,,
-1544426,-2199239,hypsographic,"Wedge Point","Wedge Point",official,23.808398,-75.112503,BS-RC,,
-1544366,-2199159,hypsographic,Cay,Cay,official,26.674281,-77.266717,BS-CO,,
-1544153,-2198881,hypsographic,"Sandy Cay","Sandy Cay",official,25.416667,-79.2,BS-BI,,
-1543919,-2198566,hypsographic,"Old Yankee Cay","Old Yankee Cay",variant,27.08469,-78.0168,BS-HT,,
-1543413,-2197884,hypsographic,"Halls Pond Cay","Halls Pond Cay",official,24.355266,-76.582196,BS-EX,,
-1543758,-2198338,settlement,"Matthew Town","Matthew Town",official,20.951092,-73.674757,BS-IN,,
-1543367,-2197826,hypsographic,"Great Issac Island","Great Issac Island",variant,26.029936,-79.086981,BS-BI,,
-1543590,-2198128,hypsographic,"Little Cay","Little Cay",short,25.15,-76.116667,BS-CE,,
-1544380,-2199174,hypsographic,"Twin Cay","Twin Cay",official,24.208773,-76.504645,BS-BP,,
-1543929,-2198578,hypsographic,"Oyster Cay","Oyster Cay",short,24.716667,-76.816667,BS-EX,,
-1543497,-2197999,hydrographic,"Hurricane Hole","Hurricane Hole",official,23.689819,-77.427238,BS-SA,,
-1544201,-2198944,hypsographic,"Sheep Cay","Sheep Cay",official,25.716667,-77.833333,BS-BY,,
-1544478,-2199307,hypsographic,"Wilson Point","Wilson Point",official,22.183333,-75.75,BS-RI,,
-1543841,-2198461,administrative_region,"New Providence","New Providence",variant,25.033333,-77.283333,BS-000,1,
-1544374,-2199168,hydrographic,"Turtle Cove","Turtle Cove",official,23.146562,-75.102679,BS-LI,,
-1544094,-2198804,hypsographic,"Rudder Cut Cay","Rudder Cut Cay",official,23.87658,-76.24115,BS-BP,,
-1543378,-2197840,hypsographic,"Green Cay","Green Cay",official,24.135528,-74.502927,BS-SS,,
-1544028,-2198716,administrative_region,"Ragged Island and Cays","Ragged Island and Cays",variant,22.37083,-75.815,BS-RI,,
-1543669,-2198225,hypsographic,"Low Cay","Low Cay",official,22.315017,-72.669383,BS-MG,,
-1544382,-2199176,hypsographic,"Twin Rocks","Twin Rocks",official,23.943573,-77.067776,BS-SA,,
-1544422,-2199230,settlement,Waterloo,Waterloo,official,25.033333,-77.533333,BS-000,,
-1544497,-2199330,hypsographic,"Wood Hill","Wood Hill",official,23.25,-75.116667,BS-LI,,
-1543907,-2198552,hypsographic,"Ocean Point","Ocean Point",official,26.283333,-77.016667,BS-CO,,
-1544380,17334702,hypsographic,"Twin Cays","Twin Cays",variant,24.208773,-76.504645,BS-BP,,
-1544124,-2198847,hypsographic,"Saltpond Hill","Saltpond Hill",official,20.966667,-73.633333,BS-IN,,
-1544173,-2198911,hydrographic,"Savanna Sound","Savanna Sound",variant,25.108786,-76.117473,BS-CE,,
-1544501,-2199334,settlement,"Yamacraw Beach Estate","Yamacraw Beach Estate",official,25.033333,-77.283333,BS-000,,
-1543536,-2198050,hypsographic,"Josephs Cay","Josephs Cay",short,24.933333,-76.15,BS-SE,,
-1544066,-2198764,administrative_region,"Rock Sound","Rock Sound",variant,24.833333,-76.333333,BS-000,1,
-1543819,-2198430,settlement,"Mount Thompson Settlement","Mount Thompson Settlement",variant,23.583333,-75.883333,BS-EX,,
-1544151,-2198879,hypsographic,"Sandy Cay","Sandy Cay",official,24.186429,-76.4903,BS-BP,,
-1544450,-2199271,hypsographic,"Whale Cay","Whale Cay",official,26.707801,-77.230478,BS-HT,,
-1543306,-2197742,hypsographic,"Gibson Hog Cay","Gibson Hog Cay",variant,24.329034,-77.681647,BS-CS,,
-1543541,-2198059,spot,"Junker’s Landing","Junker's Landing",official,23.15,-75.083333,BS-LI,,
-1543973,-2198637,hypsographic,"Pimlico Islands","Pimlico Islands",official,25.327174,-76.871435,BS-NE,,
-1544010,-2198687,hypsographic,"Pots Rocks","Pots Rocks",short,23.25,-76.866667,BS-SA,,
-1543776,-2198363,park,"Middle America","Middle America",official,21,-86,BS-000,,
-1543386,-2197851,settlement,"Gregory Town","Gregory Town",official,25.390861,-76.557152,BS-NE,,
-1544196,-2198939,hydrographic,"Shamrock Bay","Shamrock Bay",short,21.183333,-73.5,BS-IN,,
-1543473,-2197978,hypsographic,"Hog Key","Hog Key",variant,23.393528,-75.480454,BS-EX,,
-1543466,-2197954,settlement,"High Rock","High Rock",official,26.609991,-78.278626,BS-EG,,
-1543962,-2198625,hypsographic,"Pigeon Cay","Pigeon Cay",official,23.687005,-77.381586,BS-SA,,
-1544459,-2199281,hypsographic,"White Cay","White Cay",official,23.066667,-73.666667,BS-CK,,
-1543467,-2197952,administrative_region,"High Rock","High Rock",variant,27,-78.2,BS-000,1,
-1544270,-2199031,hypsographic,"South Sail Rock","South Sail Rock",official,24.914252,-76.798943,BS-EX,,
-1543970,-2198634,hypsographic,"Pigeon Island","Pigeon Island",short,25.516667,-76.666667,BS-NE,,
-1544099,-2198812,hypsographic,"Russell Island","Russell Island",official,25.543646,-76.780432,BS-HI,,
-1544000,-2198674,hypsographic,"Porgee Rock","Porgee Rock",variant,22.501375,-75.892273,BS-RI,,
-1543691,-2198150,hypsographic,"Little Harbour Cay","Little Harbour Cay",variant,26.369681,-76.981946,BS-HT,,
-1543784,-2198379,settlement,"Miller Hill","Miller Hill",variant,24.65,-76.166667,BS-SE,,
-1543561,-2198091,hypsographic,"Lanzadera Cay","Lanzadera Cay",official,22.965703,-75.791467,BS-RI,,
-1544309,-2199085,hydrographic,"Storr’s Lake","Storr's Lake",official,24.05,-74.433333,BS-SS,,
-1544495,-2199327,hypsographic,"Wood Cay Point","Wood Cay Point",official,24.424081,-77.714057,BS-CS,,
-1543971,-2198635,hypsographic,"Pimlico Cays","Pimlico Cays",official,23.8,-76.183333,BS-BP,,
-1543446,-2197929,hypsographic,"Hawks Nest Point","Hawks Nest Point",official,24.154338,-75.531558,BS-CI,,
-1543872,-2198480,hydrographic,"Canal Nord Est de la Providence","Canal Nord Est de la Providence",variant,25.737994,-76.956744,BS-000,,
-1543979,-2198644,hypsographic,"Pine Cay","Pine Cay",official,25.203196,-78.193742,BS-NS,,
-1543374,-2197836,hypsographic,"Great Stirrups Cay","Great Stirrups Cay",variant,25.824012,-77.908622,BS-BY,,
-1544320,-2199095,hypsographic,"Sugar Cay","Sugar Cay",variant,24.543533,-77.688844,BS-CS,,
-1544218,17649936,hypsographic,"Sister Rocks","Sister Rocks",official,23.657857,-77.367034,BS-SA,,
-1543398,-2198177,hypsographic,"Lizard Cay","Lizard Cay",variant,25.566667,-77.733333,BS-BY,,
-1543390,-2197855,hypsographic,"Grouper Rocks","Grouper Rocks",official,27.043401,-77.952069,BS-HT,,
-1543716,-2198279,hypsographic,"Mangrove Point","Mangrove Point",short,27.033333,-78.166667,BS-000,,
-1543893,-2198533,hydrographic,"Northwest Providence Channel","Northwest Providence Channel",official,26.007868,-77.840907,BS-000,,
-1544128,-2198852,hypsographic,"Samana Cay","Samana Cay",official,23.081782,-73.738657,BS-CK,,
-1543495,-2197997,settlement,"Hunter Settlement","Hunter Settlement",variant,26.483333,-78.716667,BS-WG,,
-1543703,-2197112,hypsographic,"Big Major’s Spot","Big Major's Spot",official,24.183591,-76.454645,BS-BP,,
-1544292,-2199058,hypsographic,"Square Rocks","Square Rocks",official,25.310922,-79.169464,BS-BI,,
-1544293,-2199060,hydrographic,"Stafford Creek","Stafford Creek",official,25.9,-77.933333,BS-BY,,
-1543290,-2197713,administrative_region,"Fresh Creek","Fresh Creek",variant,24.583333,-78,BS-000,1,
-1543434,-2197914,settlement,Hawksbill,Hawksbill,short,26.5,-78.733333,BS-WG,,
-1544350,-2199141,settlement,"Thomas Town","Thomas Town",short,26.65,-78.966667,BS-WG,,
-1543387,-2197852,hypsographic,"Griffins Cay","Griffins Cay",short,23.6,-76.016667,BS-EX,,
-1543664,-2198219,settlement,"Love Hill","Love Hill",official,24.75,-77.85,BS-NS,,
-1543860,-2198494,hypsographic,"North Bimini","North Bimini",official,25.756327,-79.251932,BS-BI,,
-1544433,-2199244,settlement,Wemyss,Wemyss,variant,24.75,-76.25,BS-SE,,
-1543510,-2198019,hydrographic,"Jack Fish Channel","Jack Fish Channel",official,23.683333,-77.666667,BS-SA,,
-1543991,-2198664,hydrographic,"Pleasant Bay","Pleasant Bay",official,25.016667,-77.55,BS-000,,
-1544108,-2198822,hypsographic,"Sail Rock Cays","Sail Rock Cays",variant,24.93966,-76.773374,BS-BP,,
-1543968,-2198632,hypsographic,"Pigeon Cays","Pigeon Cays",official,23.466667,-75.616667,BS-EX,,
-1543490,-2197990,settlement,"Hope Town","Hope Town",official,26.53972,-76.95839,BS-HT,,
-1543631,-2198183,hypsographic,"Lobster Island","Lobster Island",variant,25.463237,-76.786294,BS-NE,,
-1543372,-2198831,hypsographic,"Sales Cay","Sales Cay",variant,27.005184,-78.198583,BS-GC,,
-1543333,20081951,hydrographic,Goose,Goose,official,24.375314,-78.1154,BS-CS,,
-1543579,-2198113,settlement,"Lisbon Creek","Lisbon Creek",official,24.213653,-77.636139,BS-MC,,
-1544254,17646062,hypsographic,"South East Point","South East Point",variant,22.2844,-72.781271,BS-MG,,
-1544004,-2198680,settlement,"Port Boyd","Port Boyd",official,23.703544,-74.820684,BS-RC,,
-1543447,-2197930,park,"Head of Harbour","Head of Harbour",official,26.586583,-76.995032,BS-HT,,
-1543842,-2198463,hypsographic,"Island of New Providence","Island of New Providence",variant,25.030419,-77.404308,BS-000,,
-1543629,-2198181,hypsographic,"Lobos Cay","Lobos Cay",variant,22.4,-77.533333,BS-000,,
-1544134,-2198859,settlement,"San Andros Bahama Village","San Andros Bahama Village",variant,25.066667,-78.05,BS-NS,,
-1543301,-2197733,hypsographic,"Gaulin Cay","Gaulin Cay",official,24.116667,-76.4,BS-BP,,
-1543361,-2197817,hypsographic,"Great Guana Cay","Great Guana Cay",official,26.672512,-77.130162,BS-HT,,
-1543702,-2198261,settlement,Majors,Majors,official,22.726774,-74.156159,BS-CK,,
-1543769,-2198354,settlement,McKenzie,McKenzie,official,23.133333,-75.066667,BS-LI,,
-1543954,-2198609,hypsographic,"Periwinkle Rock","Periwinkle Rock",official,25.066667,-77.25,BS-000,,
-1544025,-2198712,hypsographic,"Raccoon Cay","Raccoon Cay",official,22.366849,-75.814604,BS-RI,,
-1544405,17334699,hypsographic,"Warderick Wells Cay","Warderick Wells Cay",variant,24.387052,-76.623739,BS-EX,,
-1543528,-2198040,hypsographic,"Joe Cays","Joe Cays",official,27.094201,-78.056199,BS-HT,,
-1543576,-2198110,hydrographic,"Lily Bank","Lily Bank",official,27.253446,-78.653015,BS-000,,
-1544283,-2199047,hypsographic,"Spanish Cay","Spanish Cay",official,26.933615,-77.550151,BS-HT,,
-1543636,-2198188,hydrographic,"London Creek","London Creek",official,24.916667,-77.933333,BS-NS,,
-1543723,-2198288,hypsographic,"Man-of-War Cay","Man-of-War Cay",official,22.807021,-75.892563,BS-RI,,
-1543792,-2198390,hypsographic,"Mira Por Vos Islands","Mira Por Vos Islands",variant,22.106437,-74.506616,BS-AK,,
-1543370,-2197829,hydrographic,"Great Lake","Great Lake",official,24.183727,-75.35986,BS-CI,,
-1544277,-2198889,hypsographic,"Sandy Point","Sandy Point",official,23.944492,-74.566667,BS-SS,,
-1543288,-2197711,hypsographic,"French Wells","French Wells",official,22.693207,-74.287917,BS-CK,,
-1544568,-2197280,hypsographic,"Point Carmichael","Point Carmichael",variant,21.229835,-73.389641,BS-IN,,
-1543833,-2198447,settlement,"Nassau Estate","Nassau Estate",official,25.033333,-77.283333,BS-000,,
-1543629,-2198180,hypsographic,"Cay Lobos","Cay Lobos",official,22.4,-77.533333,BS-000,,
-1543460,-2197947,hypsographic,"High Cay","High Cay",official,26.89685,-77.461325,BS-HT,,
-1544353,-2199145,hypsographic,"Three Sisters Rocks","Three Sisters Rocks",official,23.583333,-75.866667,BS-EX,,
-1543676,17343513,settlement,"Lowe Sound Settlement","Lowe Sound Settlement",official,25.148912,-78.091699,BS-NS,,
-1544079,17641765,settlement,"Rolle Town","Rolle Town",variant,23.463122,-75.704208,BS-EX,,
-1544452,-2199273,hypsographic,"Whale Head","Whale Head",official,23.406038,-75.203921,BS-LI,,
-1543296,-2197727,spot,"Galloway Landing","Galloway Landing",short,23.066667,-74.966667,BS-LI,,
-1544312,-2199087,hypsographic,"Stranger Cay","Stranger Cay",variant,27.121474,-78.090669,BS-GC,,
-1544391,-2199187,hypsographic,"Upper Samphire Cay","Upper Samphire Cay",official,25.2,-76.966667,BS-000,,
-1544248,-2199005,hypsographic,"South Cay","South Cay",official,22.409068,-74.234274,BS-CK,,
-1544250,-2199007,hypsographic,"South Channel Cay","South Channel Cay",official,22.499656,-75.847431,BS-RI,,
-1543442,-2197924,hypsographic,"Hawksnest Cay","Hawksnest Cay",official,25.74534,-77.819929,BS-BY,,
-1543911,-2198556,spot,"Old Bight Landing","Old Bight Landing",short,24.216667,-75.383333,BS-CI,,
-1544076,-2198780,settlement,Roker’s,Roker's,variant,24.519222,-75.583333,BS-CI,,
-1544082,-2199314,hydrographic,"Lake Windsor","Lake Windsor",variant,21.024567,-73.496831,BS-IN,,
-1544165,19802740,hypsographic,"San Salvador","San Salvador",official,24.033333,-74.466667,BS-SS,,
-1544119,-2198841,hydrographic,"Salt Pond","Salt Pond",official,23.35,-75.133333,BS-LI,,
-1543404,-2197875,hypsographic,"Gun Point","Gun Point",official,20.955431,-73.230022,BS-IN,,
-1543578,-2198112,hypsographic,"Linder Cay","Linder Cay",official,24.187541,-77.664468,BS-MC,,
-1543760,-2198336,hypsographic,"Mat Lowe’s Cay","Mat Lowe's Cay",variant,26.563604,-77.010391,BS-CO,,
-1544182,-2198920,hypsographic,"Scrubby Hill","Scrubby Hill",short,22.416667,-73.1,BS-MG,,
-1544091,-2198799,hypsographic,"Isle Royale","Isle Royale",variant,25.517943,-76.829038,BS-SW,,
-1543733,-2198301,hypsographic,"Man o’ War Point","Man o' War Point",short,24.666667,-75.416667,BS-CI,,
-1544430,-2199243,settlement,Wemyss,Wemyss,official,23.416667,-75.183333,BS-LI,,
-1543538,-2198056,hypsographic,"Jumentos Chays","Jumentos Chays",variant,22.7,-75.916667,BS-RI,,
-1543321,-2197762,settlement,"Golden Grove","Golden Grove",official,26.6,-78.333333,BS-EG,,
-1543895,-2198536,hypsographic,"Nuevitas Rock","Nuevitas Rock",variant,23.15729,-75.377713,BS-RI,,
-1543595,-2198133,hypsographic,"Little Darby Island","Little Darby Island",official,23.854184,-76.218759,BS-BP,,
-1543870,-2198504,hypsographic,"Northeast Point","Northeast Point",official,24.116667,-74.45,BS-SS,,
-1543597,-2198136,hypsographic,"Little Exuma Island","Little Exuma Island",variant,23.423988,-75.575698,BS-EX,,
-1543600,-2198139,hypsographic,"Little Grand Cay","Little Grand Cay",short,27.216667,-78.316667,BS-GC,,
-1543557,-2197142,hypsographic,"Bird Point","Bird Point",variant,22.833333,-74.35,BS-CK,,
-1543329,-2197771,hydrographic,"Good Hope Pond","Good Hope Pond",official,22.75,-74.183333,BS-CK,,
-1544057,-2198755,hypsographic,"Riding Rock Point","Riding Rock Point",official,24.067216,-74.537723,BS-SS,,
-1543511,-2198020,hypsographic,"Jacks Bluff","Jacks Bluff",official,24.78196,-76.170383,BS-SE,,
-1543904,-2198549,hydrographic,"Ocean Bight","Ocean Bight",official,21.217351,-73.231275,BS-IN,,
-1543982,-2198647,settlement,"Pine Ridge","Pine Ridge",short,26.55,-78.733333,BS-WG,,
-1544157,-2198894,settlement,"Sandy Point Settlement","Sandy Point Settlement",variant,26.020525,-77.389996,BS-SO,,
-1543841,-2198464,administrative_region,"New Providence District","New Providence District",official,25.033333,-77.283333,BS-000,1,
-1544257,-2199016,hypsographic,"South Point","South Point",variant,22.855259,-74.856215,BS-LI,,
-1544052,-2198748,settlement,Richmond,Richmond,official,22.8,-74.333333,BS-CK,,
-1544051,-2198747,hypsographic,"Rhoda Rocks","Rhoda Rocks",official,26.566667,-78.866667,BS-WG,,
-1543295,-2197724,hydrographic,"Galliot Cut","Galliot Cut",official,23.921858,-76.281119,BS-BP,,
-1543504,-2198011,hypsographic,"Indian Head Point","Indian Head Point",official,23.355262,-75.158281,BS-LI,,
-1543827,-2198440,hydrographic,"Munnings Knoll","Munnings Knoll",official,25.176302,-79.015494,BS-BI,,
-1543987,-2198652,settlement,"Pirates Well","Pirates Well",official,22.430706,-73.094569,BS-MG,,
-1544365,-2199158,spot,"Treasure Cay","Treasure Cay",short,26.736839,-77.40385,BS-NO,,
-1543725,-2198295,hypsographic,"Man-of-War Key","Man-of-War Key",variant,26.596259,-77.000354,BS-HT,,
-1543821,-2198432,hypsographic,"Mouth of Harbour Cay","Mouth of Harbour Cay",official,26.541925,-76.964388,BS-HT,,
-1544279,-2199013,settlement,"Southeast Point","Southeast Point",variant,26.491393,-78.74999,BS-WG,,
-1544408,-2199212,hypsographic,"Walkers Cay","Walkers Cay",official,25.102218,-78.003252,BS-NS,,
-1543640,-2198192,settlement,"Long Bay","Long Bay",official,24,-74.516667,BS-SS,,
-1544084,-2198790,hypsographic,"Rose Island Rocks","Rose Island Rocks",official,25.1,-77.266667,BS-000,,
-1543298,-2197730,settlement,"Gambier Village","Gambier Village",official,25.066667,-77.5,BS-000,,
-1543621,-2198170,hypsographic,"Little San Salvador","Little San Salvador",official,24.572684,-75.932025,BS-CI,,
-1543989,-2198659,hypsographic,Pizgah,Pizgah,variant,22.733333,-74.1,BS-CK,,
-1543396,-2197861,hypsographic,"Guana Cay","Guana Cay",official,24.974763,-77.43476,BS-000,,
-1544388,-2199184,hypsographic,"Upper Conch Point","Upper Conch Point",official,26.533333,-78.566667,BS-WG,,
-1543832,-2198446,settlement,"Nassau City","Nassau City",variant,25.067951,-77.309929,BS-000,,
-1543858,-2198491,hydrographic,"North Bar Channel","North Bar Channel",official,26.4,-76.983333,BS-HT,,
-1543900,-2198542,hydrographic,"Nurse Channel","Nurse Channel",official,22.517037,-75.84705,BS-RI,,
-1543341,-2197787,hydrographic,"Governor Harbor","Governor Harbor",variant,25.200503,-76.257261,BS-CE,,
-1544486,-2199317,settlement,"Winton Heights","Winton Heights",official,25.033333,-77.266667,BS-000,,
-1543626,-2198176,hypsographic,"Little Whale Cay","Little Whale Cay",official,26.663486,-78.839298,BS-WG,,
-1543856,-2198487,hydrographic,"Norman Spit","Norman Spit",official,24.616516,-76.866818,BS-EX,,
-1544095,-2198805,hypsographic,"Rudder Cut Cay","Rudder Cut Cay",official,23.883333,-73.25,BS-000,,
-1543584,-2198120,settlement,"Little Bay","Little Bay",official,25.833333,-77.166667,BS-SO,,
-1543964,-2198627,hypsographic,"Pigeon Cay","Pigeon Cay",official,25.416667,-77.8,BS-BY,,
-1544112,-2198835,hypsographic,"Salt Cay","Salt Cay",variant,23.7,-80.4,BS-BI,,
-1543853,-2198484,settlement,"Normans Castle","Normans Castle",official,26.719067,-77.443803,BS-NO,,
-1544472,-2199299,hypsographic,"Williams Island","Williams Island",official,24.650819,-78.454306,BS-NS,,
-1543981,-2198646,hypsographic,"Pinefield Point","Pinefield Point",official,22.658882,-73.87501,BS-AK,,
-1543850,-2198477,hypsographic,"Noah Bethel Cays","Noah Bethel Cays",official,26.3,-77.066667,BS-CO,,
-1544038,-2198730,hypsographic,"Rat Cay","Rat Cay",official,24.983333,-77.933333,BS-NS,,
-1543358,-2197812,hypsographic,"Great Cay","Great Cay",short,25.133333,-76.116667,BS-CE,,
-1544050,-2198778,hypsographic,"Roder Rocks","Roder Rocks",variant,27.143601,-78.184465,BS-HT,,
-1544217,-2198966,hypsographic,"Sister Rocks","Sister Rocks",variant,22.571985,-75.892396,BS-RI,,
-1544242,-2198998,hydrographic,"South Bay","South Bay",short,22.35,-73.15,BS-MG,,
-1543958,-2198613,hypsographic,"Petit Cay","Petit Cay",official,25.769696,-77.834265,BS-BY,,
-1544477,-2199306,settlement,"Wilson City","Wilson City",official,26.366667,-77.033333,BS-CO,,
-1543897,-2198284,hypsographic,"Manjack Cay","Manjack Cay",variant,26.829569,-77.371419,BS-HT,,
-1544105,-2198819,hypsographic,"Saddle Cay","Saddle Cay",official,24.428021,-76.695719,BS-EX,,
-1544444,-2196990,hypsographic,Antillas,Antillas,variant,19.383333,-71.216667,S1-000,,
-1543914,-2198558,hypsographic,"Pointe Old Fort","Pointe Old Fort",variant,25.056716,-77.501748,BS-000,,
-1543566,-2198096,hypsographic,"Lavanderas Rocks","Lavanderas Rocks",variant,23.7,-80.35,BS-BI,,
-1543938,-2198589,hypsographic,"Paw Paw Cay","Paw Paw Cay",official,25.009088,-77.950932,BS-NS,,
-1543902,13920277,spot,Oakes,Oakes,short,25.058042,-77.343139,BS-000,,
-1543622,-2198172,hypsographic,"Little Stirrup Cay","Little Stirrup Cay",official,25.817599,-77.939857,BS-BY,,
-1544258,-2199000,hydrographic,"South Bight","South Bight",official,24.117532,-77.680542,BS-SA,,
-1543933,-2198581,hypsographic,"Palmetto Pointe","Palmetto Pointe",variant,25.12679,-76.116164,BS-CE,,
-1544001,-2198676,hypsographic,"Porgy Rocks","Porgy Rocks",variant,25.066667,-77.266667,BS-000,,
-1543679,-2198235,hypsographic,"Low Point","Low Point",official,22.4,-72.883333,BS-MG,,
-1543454,-2197939,hypsographic,"Highborne Cay","Highborne Cay",official,24.722129,-76.818781,BS-BP,,
-1543563,-2198093,hydrographic,"Lark Channel","Lark Channel",official,23.333333,-76.666667,BS-SA,,
-1543920,-2198568,settlement,O’Neils,O'Neils,official,23.5,-75.216667,BS-LI,,
-1543990,-2197673,hypsographic,"Flat Keys","Flat Keys",variant,22.600067,-73.604483,BS-AK,,
-1544278,17334694,hypsographic,"South West Point","South West Point",variant,25.846014,-77.216387,BS-SO,,
-1544259,-2199019,hypsographic,"Southern Cay","Southern Cay",official,26.225732,-77.553934,BS-MI,,
-1544418,-2199224,hypsographic,"Water Cay","Water Cay",official,25.210996,-78.144896,BS-NS,,
-1543384,-2197844,administrative_region,"Green Turtle Cay","Green Turtle Cay",variant,26.833333,-77.5,BS-000,1,
-1543400,-2197870,hypsographic,"Guinchos Cay","Guinchos Cay",official,22.749773,-78.115416,BS-000,,
-1544041,-2198734,hydrographic,"Red Bay","Red Bay",official,26.599098,-77.194655,BS-CO,,
-1544000,40038,hypsographic,"Porgee Rocks","Porgee Rocks",official,22.501375,-75.892273,BS-RI,,
-1544331,-2199114,settlement,Tatnall,Tatnall,official,23.483333,-75.2,BS-LI,,
-1543813,-2198422,settlement,"Moss Town","Moss Town",official,23.546748,-75.855714,BS-EX,,
-1544044,-2198739,hypsographic,"Red Shank Cay","Red Shank Cay",official,23.982074,-77.821062,BS-SA,,
-1543806,-2198412,settlement,"Morgan’s Bluff","Morgan's Bluff",official,25.166667,-78.033333,BS-NS,,
-1543916,-2198563,hypsographic,"Old House Point","Old House Point",official,26.552727,-77.045592,BS-CO,,
-1544187,-2198925,settlement,"Sea Grape","Sea Grape",official,26.533333,-78.816667,BS-WG,,
-1544028,-2198714,administrative_region,"Ragged Island","Ragged Island",official,22.37083,-75.815,BS-RI,,
-1543494,-2197995,hypsographic,"Hose Point","Hose Point",official,24.133333,-77.683333,BS-MC,,
-1544412,-2199218,hypsographic,"Water Cay","Water Cay",official,23.014751,-75.724394,BS-RI,,
-1543598,-2198137,hypsographic,"Little Farmer’s Cay","Little Farmer's Cay",official,23.956978,-76.321993,BS-BP,,
-1543866,-2198500,hypsographic,"Northeast Breaker","Northeast Breaker",variant,22.713746,-73.777935,BS-AK,,
-1544017,-2198702,hydrographic,"Pumpion Lake","Pumpion Lake",official,24.666667,-78.35,BS-NS,,
-1544110,-2198825,hypsographic,"Saint Georges Cay","Saint Georges Cay",variant,25.55,-76.766667,BS-HI,,
-1544237,-2198992,hypsographic,"Soldier Cays","Soldier Cays",official,25.666667,-77.766667,BS-BY,,
-1543325,-2197766,hypsographic,"Gold Rock","Gold Rock",short,22.666667,-73.883333,BS-AK,,
-1543763,-2198347,hypsographic,Mayaguara,Mayaguara,variant,22.381683,-72.942577,BS-MG,,
-1543379,-2197841,hypsographic,"Green Cay","Green Cay",official,24.584147,-77.691833,BS-CS,,
-1544432,-2199246,hydrographic,"Wemyss Bight","Wemyss Bight",official,24.733333,-76.216667,BS-SE,,
-1544055,-2198752,hypsographic,"Riding Point","Riding Point",official,26.61796,-78.250951,BS-EG,,
-1543559,-2198089,hydrographic,"Lantern Head Harbour","Lantern Head Harbour",official,20.955281,-73.284432,BS-IN,,
-1543513,-2198022,hypsographic,"Jacobs Island","Jacobs Island",short,25.516667,-76.633333,BS-NE,,
-1543459,-2197946,hypsographic,"High Cay","High Cay",official,25.683333,-77.766667,BS-BY,,
-1544281,-2199045,hydrographic,"Southwest Reef","Southwest Reef",official,25.440265,-76.864062,BS-SW,,
-1544442,-2199259,hypsographic,"West End Point","West End Point",official,26.894986,-77.955272,BS-NO,,
-1543501,-2198005,administrative_region,Inagua,Inagua,official,21.07694,-73.31167,BS-IN,,
-1544128,-2197003,hypsographic,"Atwood’s Cay","Atwood's Cay",variant,23.081782,-73.738657,BS-CK,,
-1543694,-2198252,hydrographic,"Mackie Bank","Mackie Bank",official,25.55,-78.783333,BS-BI,,
-1544251,-2199008,hypsographic,"South Dog","South Dog",official,24.874643,-76.796378,BS-EX,,
-1543466,74528,settlement,"High Rocks","High Rocks",variant,26.609991,-78.278626,BS-EG,,
-1544224,-2198977,settlement,"Smith Bay Settlement","Smith Bay Settlement",variant,24.343784,-75.477315,BS-CI,,
-1543383,-2197849,hypsographic,"Green Turtle Key","Green Turtle Key",variant,26.779718,-77.328852,BS-NO,,
-1544080,-2198786,settlement,Rolleville,Rolleville,official,23.673316,-75.984837,BS-EX,,
-1543820,-2198431,hypsographic,"Mount View","Mount View",short,24.183333,-75.35,BS-CI,,
-1543615,-2198163,hypsographic,"Little Nurse Cay","Little Nurse Cay",official,22.45,-75.833333,BS-RI,,
-1543922,-2198571,settlement,"Orange Creek","Orange Creek",official,24.65,-75.716667,BS-CI,,
-1543367,-2197825,hypsographic,"Great Isaac","Great Isaac",official,26.029936,-79.086981,BS-BI,,
-1544218,-2198969,hypsographic,"Sisters Rocks","Sisters Rocks",variant,23.657857,-77.367034,BS-SA,,
-1544126,-2198850,hypsographic,"Salvador Point","Salvador Point",official,24.489235,-77.717422,BS-CS,,
-1543868,-2198502,hypsographic,"Northeast Point","Northeast Point",official,22.335739,-72.731417,BS-MG,,
-1544411,17649937,hydrographic,"Washerwoman’s Cut","Washerwoman's Cut",official,23.668135,-77.373861,BS-SA,,
-1544029,-2198719,hydrographic,"Ragged Island Harbour","Ragged Island Harbour",official,22.235205,-75.734736,BS-RI,,
-1543333,-2197775,hydrographic,"River Goose","River Goose",variant,24.375314,-78.1154,BS-CS,,
-1543368,-2197827,hydrographic,"Great Lake","Great Lake",official,22.916667,-74.85,BS-LI,,
-1544222,-2198974,hydrographic,"Slaughter Harbour","Slaughter Harbour",official,25.822026,-77.932168,BS-BY,,
-1543416,-2197887,hypsographic,"Harbor Island","Harbor Island",variant,25.499826,-76.63612,BS-NE,,
-1544238,-2198993,hydrographic,"Somerset Creek","Somerset Creek",official,24.683333,-77.766667,BS-NS,,
-1544303,-2199075,settlement,"Stella Maris","Stella Maris",official,23.593137,-75.265559,BS-LI,,
-1543644,-2198197,hydrographic,"Long Cay","Long Cay",variant,26.216667,-77.15,BS-SO,,
-1543535,-2198049,hypsographic,"Johnson Cay","Johnson Cay",official,22.336417,-75.778332,BS-RI,,
-1544063,-2198765,hydrographic,"Rock Sound","Rock Sound",official,24.831232,-76.239644,BS-SE,,
-1544071,-2198773,hypsographic,"Rocky Point","Rocky Point",official,21.254121,-73.014333,BS-IN,,
-1543946,-2198598,hypsographic,"Pelican Cay","Pelican Cay",official,25.277136,-76.338193,BS-NE,,
-1543357,-2197250,hypsographic,"Burroughs Cay","Burroughs Cay",variant,26.425732,-77.780083,BS-EG,,
-1543960,-2198623,hypsographic,"Pierres Island","Pierres Island",variant,25.555574,-76.661093,BS-NE,,
-1544294,-2199059,settlement,Stafford,Stafford,variant,24.90594,-77.936682,BS-NS,,
-1543865,-2198499,hypsographic,"North Dog","North Dog",official,24.880379,-76.794415,BS-EX,,
-1543569,-2198103,hypsographic,"Levi Island","Levi Island",official,25.209376,-76.267041,BS-NE,,
-1544166,-2198901,hypsographic,"Cape Santa Maria","Cape Santa Maria",official,23.672608,-75.34064,BS-LI,,
-1543490,-2197991,settlement,"Hope Town Settlement","Hope Town Settlement",variant,26.53972,-76.95839,BS-HT,,
-1544381,-2199175,settlement,"Twin Lakes","Twin Lakes",official,24.725803,-77.997984,BS-NS,,
-1543381,-2197843,hydrographic,"Green’s Harbour","Green's Harbour",official,24.066667,-74.433333,BS-000,,
-1544295,-2199063,settlement,"Staniard Creek Settlement","Staniard Creek Settlement",variant,24.831415,-77.887625,BS-NS,,
-1544364,-2199157,hypsographic,"Top Cay","Top Cay",short,27.083333,-78.033333,BS-HT,,
-1543801,-2198403,settlement,Montreal,Montreal,official,23.966667,-74.5,BS-SS,,
-1543877,-2198513,hydrographic,"Northern Bight","Northern Bight",variant,24.369382,-77.824141,BS-CS,,
-1543348,-2197800,hydrographic,"Grand Lucayan Waterway","Grand Lucayan Waterway",official,26.54829,-78.558723,BS-WG,,
-1543826,-2198437,hypsographic,"Muertos Cays","Muertos Cays",official,24.016667,-80.083333,BS-BI,,
-1543537,-2198051,hypsographic,"Joulter Cays","Joulter Cays",official,25.307156,-78.128044,BS-NS,,
-1543430,17322510,hypsographic,"Harvey Cay","Harvey Cay",official,24.152322,-76.484623,BS-BP,,
-1544360,-2199152,hypsographic,"Tinker Rocks","Tinker Rocks",official,23.975832,-77.487556,BS-SA,,
-1543469,-2197959,hypsographic,"Hinchinbroke Rocks","Hinchinbroke Rocks",official,23.937175,-74.491342,BS-SS,,
-1543721,-2198286,hypsographic,"Man-of-War Bush","Man-of-War Bush",official,26.068377,-77.351881,BS-SO,,
-1543345,-2197794,hypsographic,"Grand Bahama","Grand Bahama",official,26.633333,-78.416667,BS-000,,
-1544503,-2199336,hypsographic,"Yellow Cay","Yellow Cay",official,24.223639,-77.974871,BS-CS,,
-1544158,-2198887,hypsographic,"Sandy Point","Sandy Point",official,20.936214,-73.395336,BS-IN,,
-1543977,-2198618,settlement,"Philippi Settlement","Philippi Settlement",variant,26.483333,-78.683333,BS-FP,,
-1543289,-2197714,hydrographic,"Fresh Creek","Fresh Creek",official,24.725703,-77.784197,BS-NS,,
-1543990,-2198661,hypsographic,"Plana Keys","Plana Keys",variant,22.600067,-73.604483,BS-AK,,
-1543294,-2197725,hypsographic,"Galliot Island","Galliot Island",variant,23.9,-76.266667,BS-BP,,
-1544313,-2197304,hydrographic,"Caye des étrangers Chenal de la","Caye des etrangers Chenal de la",variant,27.196594,-78.165273,BS-HT,,
-1544279,-2199042,settlement,"Southwest Point","Southwest Point",official,26.491393,-78.74999,BS-WG,,
-1544066,-2198768,administrative_region,"Rock Sound District","Rock Sound District",official,24.833333,-76.333333,BS-000,1,
-1544390,-2199186,hypsographic,"Upper Point","Upper Point",official,22.41677,-72.953976,BS-MG,,
-1544461,-2199283,hypsographic,"White Cay","White Cay",official,24.16374,-74.475082,BS-SS,,
-1543688,-2198244,hypsographic,"Lucretia Point","Lucretia Point",official,22.2,-75.733333,BS-RI,,
-1544372,-2199166,hypsographic,"Turner Cay","Turner Cay",official,25.7,-77.833333,BS-BY,,
-1544409,-2199210,hypsographic,"Walker Cay","Walker Cay",variant,27.253269,-78.413998,BS-GC,,
-1544191,-2198932,settlement,Seminets,Seminets,official,24.866667,-77.933333,BS-NS,,
-1543913,-2198559,hydrographic,"Old Fort Bay","Old Fort Bay",official,25.05,-77.533333,BS-000,,
-1543839,-2198455,hypsographic,"New Cay","New Cay",short,23.716667,-76.166667,BS-EX,,
-1543684,-2198240,hypsographic,"Lubbers Quarters","Lubbers Quarters",official,26.500969,-76.99405,BS-HT,,
-1544342,-2199128,settlement,"The Bluff","The Bluff",official,25.499073,-76.723371,BS-NE,,
-1543725,-2198300,hypsographic,"Man-o’-War Cays","Man-o'-War Cays",variant,26.596259,-77.000354,BS-HT,,
-1544177,-2198915,hypsographic,"Scopley Rock","Scopley Rock",official,26.601195,-77.007403,BS-HT,,
-1543349,-2197801,hydrographic,"Grand Pa’s Channel","Grand Pa's Channel",official,23.166667,-75.15,BS-LI,,
-1544102,-2198815,hypsographic,"Saddle Back Cay","Saddle Back Cay",official,25.616667,-77.733333,BS-BY,,
-1544267,17343558,hypsographic,"South Riding Rock","South Riding Rock",official,25.235613,-79.152719,BS-BI,,
-1543641,-2198194,park,"Long Bay Cays","Long Bay Cays",official,24.1,-77.566667,BS-SA,,
-1544195,-2198938,hypsographic,"Shallow Water Point","Shallow Water Point",official,26.339584,-77.312752,BS-CO,,
-1543361,-2197799,hypsographic,"Grande Caye Guana","Grande Caye Guana",variant,26.672512,-77.130162,BS-HT,,
-1543802,-2198405,hypsographic,"Moors Island","Moors Island",variant,26.292734,-77.549579,BS-MI,,
-1544406,-2199208,spot,"Walker Cay","Walker Cay",short,27.238878,-78.410489,BS-GC,,
-1543547,17641673,hypsographic,"Keir Mount","Keir Mount",official,24.02124,-74.469065,BS-SS,,
-1543797,-2198399,hypsographic,"Money Cay","Money Cay",short,26.8,-78.516667,BS-WG,,
-1544093,-2198803,hydrographic,"Rudder Cut","Rudder Cut",official,23.864644,-76.226898,BS-BP,,
-1543969,-2198630,hypsographic,"Pigeon Cay","Pigeon Cay",official,24.881649,-77.892468,BS-NS,,
-1543712,-2198275,settlement,"Mangrove Cay Settlement","Mangrove Cay Settlement",variant,24.25,-77.65,BS-MC,,
-1544469,-2199293,hydrographic,"Wide Cut","Wide Cut",variant,24.418473,-76.670431,BS-EX,,
-1543470,-2197962,hypsographic,"Hobson Breaker","Hobson Breaker",official,22.117821,-75.698477,BS-RI,,
-1543749,-2198324,hydrographic,"Mastic Bay","Mastic Bay",short,25.033333,-77.966667,BS-NS,,
-1543756,-2198332,hydrographic,"Matanilla Reef","Matanilla Reef",variant,27.358615,-79.080452,BS-000,,
-1544405,-2198951,hypsographic,"Shroud Cay","Shroud Cay",variant,24.387052,-76.623739,BS-EX,,
-1543594,-2198132,settlement,"Little Creek","Little Creek",official,23.946745,-77.522481,BS-SA,,
-1544096,-2198807,hypsographic,"Rum Cay","Rum Cay",official,23.676025,-74.860788,BS-RC,,
-1544308,17262156,hypsographic,"Stony Cay","Stony Cay",variant,23.125611,-75.568659,BS-RI,,
-1544261,-2199021,hypsographic,"South Hall’s Spot","South Hall's Spot",official,25.45,-77.866667,BS-BY,,
-1543740,-2198312,hydrographic,"Mars Bay","Mars Bay",official,23.866667,-77.516667,BS-SA,,
-1543332,-2197774,hypsographic,"Goole Cay","Goole Cay",official,26.35,-76.983333,BS-HT,,
-1544210,-2198958,settlement,"Simms Settlement","Simms Settlement",variant,23.47922,-75.235968,BS-LI,,
-1544271,-2199032,hydrographic,"Southside Bay","Southside Bay",official,22.176111,-75.726667,BS-RI,,
-1543993,-2198666,hypsographic,"Poison Point","Poison Point",official,24.822357,-76.206671,BS-SE,,
-1543925,-2198574,hydrographic,"Oree Bay","Oree Bay",official,21.298577,-73.075487,BS-IN,,
-1543543,-2198062,hypsographic,"Kemp Cay","Kemp Cay",official,25.7,-77.816667,BS-BY,,
-1543412,-2197883,hypsographic,"Hall’s Point","Hall's Point",official,26.747858,-78.300476,BS-EG,,
-1544485,-2199316,settlement,Winton,Winton,official,25.05,-77.283333,BS-000,,
-1543741,-2198313,settlement,"Mars Bay","Mars Bay",official,23.867104,-77.515809,BS-SA,,
-1543458,-2197945,hypsographic,"High Cay","High Cay",official,25.547204,-77.712816,BS-BY,,
-1543846,-2198470,settlement,"Nicholls Town","Nicholls Town",official,25.145344,-78.001597,BS-NS,,
-1543545,-2198067,settlement,"Kemps Bay Settlement","Kemps Bay Settlement",variant,24.026999,-77.533433,BS-SA,,
-1543558,-2198087,hypsographic,"Lantern Head","Lantern Head",official,20.948902,-73.315088,BS-IN,,
-1543935,-2198586,hypsographic,"Paradise Point","Paradise Point",official,25.75,-79.266667,BS-BI,,
-1543318,-2197757,hypsographic,"Goat Cay","Goat Cay",official,24.747533,-77.787057,BS-NS,,
-1543345,-2197796,hypsographic,"Grand Bahama Island","Grand Bahama Island",official,26.633333,-78.416667,BS-000,,
-1543442,17334695,hypsographic,"Hawk’s Nest","Hawk's Nest",variant,25.74534,-77.819929,BS-BY,,
-1544233,-2198988,hydrographic,"Snow Bay","Snow Bay",official,23.933333,-74.483333,BS-SS,,
-1544443,-2199261,hydrographic,"West Entrance","West Entrance",official,21.966667,-74.733333,BS-000,,
-1543933,-2198584,hypsographic,"Palmetto Point","Palmetto Point",official,25.12679,-76.116164,BS-CE,,
-1544043,-2198738,undersea,"Red Hole","Red Hole",short,22.25,-76.483333,BS-RI,,
-1544236,-2198991,hypsographic,"Soldier Cay","Soldier Cay",official,25.666667,-77.75,BS-BY,,
-1544135,-2198861,hypsographic,"Sand Bank Cays","Sand Bank Cays",official,26.693438,-77.258603,BS-000,,
-1543943,-2198595,hypsographic,"Pear Cay","Pear Cay",official,23.131727,-75.526554,BS-RI,,
-1544130,-2198854,hypsographic,"Samphire Cay","Samphire Cay",official,25.176944,-77.006728,BS-000,,
-1544207,-2197916,hypsographic,"Hawksbill Cays","Hawksbill Cays",variant,24.383333,-76.616667,BS-EX,,
-1543388,-2197853,hypsographic,"Grindstone Point","Grindstone Point",short,24.966667,-76.133333,BS-EX,,
-1543847,-2198471,administrative_region,"Nichollstown and Berry Islands District","Nichollstown and Berry Islands District",variant,25.72111,-77.83139,BS-BY,,
-1544020,-2198706,hydrographic,"Pyes Harbour","Pyes Harbour",variant,24.462408,-77.745966,BS-CS,,
-1543725,-2198290,hypsographic,"Man of War Cay","Man of War Cay",official,26.596259,-77.000354,BS-HT,,
-1544121,-2198843,hydrographic,"Salt Pond","Salt Pond",short,22.483333,-73.866667,BS-AK,,
-1543608,-2198154,hypsographic,"Little Isaac","Little Isaac",official,25.973981,-78.884978,BS-BI,,
-1544368,-2199161,hypsographic,"Triangle Rocks","Triangle Rocks",official,27.171334,-78.425003,BS-000,,
-1544465,-2199287,hydrographic,"White Horse Cut","White Horse Cut",variant,24.116667,-76.383333,BS-BP,,
-1543564,-2198094,hypsographic,"Larks Nest","Larks Nest",official,23.083333,-77.433333,BS-SA,,
-1544192,-2198933,hypsographic,"S.E. Sand Rock","S.E. Sand Rock",short,23.233333,-77.033333,BS-SA,,
-1543847,12296835,administrative_region,"Berry Islands","Berry Islands",official,25.72111,-77.83139,BS-BY,,
-1544280,-2199044,hydrographic,"Southwest Reef","Southwest Reef",variant,24.890875,-77.526415,BS-000,,
-1543417,-2197892,administrative_region,"Harbour Island District","Harbour Island District",official,25.545,-76.76833,BS-HI,,
-1544147,-2198875,hypsographic,"Sandy Cay","Sandy Cay",official,26.582959,-77.003257,BS-HT,,
-1543528,-2198043,hypsographic,"Joes Cays","Joes Cays",variant,27.094201,-78.056199,BS-HT,,
-1543711,-2198273,hypsographic,"Mangrove Cay","Mangrove Cay",official,26.915823,-78.613166,BS-WG,,
-1543994,-2198668,settlement,"Polly Hill","Polly Hill",official,24.083333,-74.433333,BS-SS,,
-1544096,-2198809,hypsographic,"Rum Key","Rum Key",variant,23.676025,-74.860788,BS-RC,,
-1543439,-2197920,hypsographic,"Hawksbill Rock","Hawksbill Rock",official,23.425592,-76.099851,BS-EX,,
-1543778,-2198365,hypsographic,"Middle Bight Cay","Middle Bight Cay",official,24.166667,-77.75,BS-MC,,
-1543810,-2198415,hypsographic,"Mortimer Hill","Mortimer Hill",variant,20.95,-73.666667,BS-IN,,
-1544011,-2198688,hypsographic,"Potter Cay","Potter Cay",official,25.083333,-77.35,BS-000,,
-1543691,-2198102,hypsographic,"Leonard Cay","Leonard Cay",variant,26.369681,-76.981946,BS-HT,,
-1543527,-2198038,hypsographic,"Joe Cay","Joe Cay",official,24.247162,-76.494581,BS-BP,,
-1544475,-2199303,hypsographic,"Willis Cay","Willis Cay",variant,26.579694,-77.231596,BS-CO,,
-1543878,-2198514,spot,"Northern Eleuthera","Northern Eleuthera",variant,25.49194,-76.664837,BS-NE,,
-1543633,-2198185,hydrographic,"Loggerhead Creek","Loggerhead Creek",official,24.233668,-78.025725,BS-CS,,
-1543878,13920634,spot,"North Eleuthera","North Eleuthera",short,25.49194,-76.664837,BS-NE,,
-1544265,-2199026,spot,"South Point","South Point",short,22.866667,-74.85,BS-LI,,
-1544256,-2199015,hypsographic,"South East Point","South East Point",official,26.942132,-78.216867,BS-EG,,
-1544114,-2198834,settlement,"Salina Point Settlement","Salina Point Settlement",variant,22.204784,-74.243504,BS-AK,,
-1543966,-2198629,hypsographic,"Pigeon Cay","Pigeon Cay",official,25.716667,-79.266667,BS-BI,,
-1543704,-2198263,hydrographic,"Malcolm Creek","Malcolm Creek",official,25.008828,-77.329257,BS-000,,
-1543897,-2198538,hypsographic,"NunJack Cay","NunJack Cay",official,26.829569,-77.371419,BS-HT,,
-1543996,-2198670,settlement,"Pompey Bay","Pompey Bay",official,22.41143,-73.993808,BS-AK,,
-1543976,-2198641,settlement,Pinders,Pinders,official,23.283333,-75.1,BS-LI,,
-1543940,-2198591,hypsographic,"Pawpaw Cays","Pawpaw Cays",official,27.040732,-77.914598,BS-HT,,
-1543507,-2198016,hypsographic,"Inner Point","Inner Point",official,26.551644,-77.064276,BS-CO,,
-1544433,-2199249,settlement,"Wemyss Settlement","Wemyss Settlement",variant,24.75,-76.25,BS-SE,,
-1543352,-2197804,hypsographic,"Grape Tree","Grape Tree",short,26.033333,-77.183333,BS-SO,,
-1543550,-2198072,hydrographic,"Lake of Killarney","Lake of Killarney",variant,25.05,-77.45,BS-000,,
-1543934,-2198585,hypsographic,"Paradise Island","Paradise Island",official,25.0803,-77.312535,BS-000,,
-1543898,-2198439,hydrographic,"Munjack Channel","Munjack Channel",variant,26.883333,-77.45,BS-HT,,
-1543655,-2198209,hypsographic,"Long Point","Long Point",official,25.183333,-76.233333,BS-CE,,
-1543960,-2198620,hypsographic,"Pierre Island","Pierre Island",official,25.555574,-76.661093,BS-NE,,
-1543810,-2198416,hypsographic,Mortimers,Mortimers,variant,20.95,-73.666667,BS-IN,,
-1543345,-2197009,hypsographic,"Ile Bahama","Ile Bahama",variant,26.633333,-78.416667,BS-000,,
-1543597,-2198614,hypsographic,"Petite Exuma","Petite Exuma",variant,23.423988,-75.575698,BS-EX,,
-1543484,-2197982,settlement,"Holdiday Track","Holdiday Track",official,24.016667,-74.45,BS-SS,,
-1543320,-2197761,settlement,"Golden Grove","Golden Grove",official,22.466667,-73.9,BS-AK,,
-1543416,-2197890,hypsographic,"Harbour Island","Harbour Island",official,25.499826,-76.63612,BS-NE,,
-1543824,-2198435,hypsographic,"Muddy Point","Muddy Point",official,23.922854,-77.819162,BS-SA,,
-1544161,-2198892,hypsographic,"Sandy Point","Sandy Point",official,26.033333,-77.4,BS-SO,,
-1543630,-2198182,hypsographic,"Lobster Cay","Lobster Cay",official,24.671862,-76.821648,BS-EX,,
-1544122,-2198844,settlement,"Salt Pond","Salt Pond",official,23.345943,-75.123114,BS-LI,,
-1543815,-2198425,hydrographic,"Mount Creek","Mount Creek",official,24.65,-78.383333,BS-NS,,
-1544217,-2198968,hypsographic,"Sisters Cays","Sisters Cays",official,22.571985,-75.892396,BS-RI,,
-1543620,-2198168,hypsographic,"Little Sale Cay","Little Sale Cay",official,27.041601,-78.172666,BS-000,,
-1543807,-2198411,hypsographic,"Morgan Bluff","Morgan Bluff",variant,25.179787,-78.02116,BS-NS,,
-1543802,-2198404,hypsographic,"Moore’s Island","Moore's Island",official,26.292734,-77.549579,BS-MI,,
-1543692,-2198349,settlement,"Mc Bride","Mc Bride",variant,25.066667,-77.466667,BS-000,,
-1543977,-2198639,settlement,"Pinder Point","Pinder Point",variant,26.483333,-78.683333,BS-FP,,
-1543666,-2198221,settlement,"Lovely Bay","Lovely Bay",official,22.691354,-73.981988,BS-AK,,
-1544359,-2199151,hydrographic,"Timber Creek","Timber Creek",official,24.733333,-78.316667,BS-NS,,
-1543322,-2197763,hydrographic,"Golden Rock","Golden Rock",short,22.3,-72.816667,BS-MG,,
-1543653,-2198207,hypsographic,"Long Point","Long Point",official,25.008001,-77.312535,BS-000,,
-1543544,-2198064,hydrographic,"Kemps Bay","Kemps Bay",short,25.1,-76.15,BS-CE,,
-1543843,-2198467,hypsographic,"Newton’s Cay","Newton's Cay",variant,23.673056,-75.320425,BS-LI,,
-1544128,-2197000,hypsographic,"Atwood Cay","Atwood Cay",variant,23.081782,-73.738657,BS-CK,,
-1544112,-2198930,hypsographic,"Caye de Sel","Caye de Sel",variant,23.7,-80.4,BS-BI,,
-1543803,-2198307,hypsographic,"Marine Cay","Marine Cay",variant,27.040601,-77.771266,BS-HT,,
-1544172,-2198910,settlement,"Savanna Sound","Savanna Sound",variant,25.1,-76.15,BS-CE,,
-1544342,-2197179,settlement,"Bluff Settlement","Bluff Settlement",variant,25.499073,-76.723371,BS-NE,,
-1543620,-2198169,hypsographic,"Little Sales Cay","Little Sales Cay",variant,27.041601,-78.172666,BS-000,,
-1544423,-2199235,hypsographic,"Wax Cay","Wax Cay",official,24.582666,-76.799181,BS-EX,,
-1543687,-2198243,hypsographic,"Lucian Cay","Lucian Cay",official,22.674072,-74.278396,BS-CK,,
-1543305,-2197740,hydrographic,"Georgetown Harbour","Georgetown Harbour",official,23.5,-75.766667,BS-EX,,
-1544127,17643244,hypsographic,"Samana Cays","Samana Cays",official,23.085998,-73.682889,BS-CK,,
-1544273,-2199034,settlement,"South Victoria Hill","South Victoria Hill",official,24,-74.466667,BS-SS,,
-1544433,-2199248,settlement,"Wemyss’s Bight","Wemyss's Bight",variant,24.75,-76.25,BS-SE,,
-1543495,-2197996,settlement,Hunters,Hunters,official,26.483333,-78.716667,BS-WG,,
-1544074,-2198763,hypsographic,"Rock Point","Rock Point",variant,25.996921,-77.403497,BS-SO,,
-1544318,-2199097,settlement,"Sugar Loaf","Sugar Loaf",official,23.65,-74.516667,BS-000,,
-1544493,-2199325,hypsographic,"Wood Cay","Wood Cay",official,26.755799,-79.01365,BS-WG,,
-1543357,-2197253,hypsographic,"Burrow Key","Burrow Key",variant,26.425732,-77.780083,BS-EG,,
-1544268,-2199029,hypsographic,"South Rock","South Rock",official,22.141645,-75.69094,BS-RI,,
-1543975,-2199043,hypsographic,"Southwest Point","Southwest Point",variant,26.5,-78.733333,BS-WG,,
-1544014,-2198699,hydrographic,"Pudding Cut","Pudding Cut",official,23.696966,-76.080821,BS-EX,,
-1543401,-2197872,hydrographic,"Guinea Schooner Bay","Guinea Schooner Bay",official,26.182649,-77.175561,BS-SO,,
-1543792,-2198388,hypsographic,"Mira Por Vos","Mira Por Vos",official,22.106437,-74.506616,BS-AK,,
-1543719,-2198282,hypsographic,"Man Island","Man Island",official,25.548379,-76.642685,BS-NE,,
-1544288,17295328,settlement,"Spring City Settlement","Spring City Settlement",official,26.474652,-77.08913,BS-CO,,
-1544036,-2198728,hypsographic,"Rat Cay","Rat Cay",official,23.730578,-76.042516,BS-EX,,
-1543672,-2198228,hypsographic,"Lower Chub Point","Lower Chub Point",official,25.4,-77.916667,BS-BY,,
-1543473,-2197976,hypsographic,"Hog Island","Hog Island",variant,23.393528,-75.480454,BS-EX,,
-1544328,-2197752,settlement,"Glenelg Settlement","Glenelg Settlement",variant,24.970003,-76.181567,BS-SE,,
-1544012,-2198690,hypsographic,"Powel Cay","Powel Cay",variant,26.897871,-77.478033,BS-NO,,
-1544088,-2198796,hypsographic,"Round Cay","Round Cay",short,25.133333,-76.183333,BS-CE,,
-1543793,-2198393,hydrographic,"Mira Por Vos Passage","Mira Por Vos Passage",official,22.103081,-74.393837,BS-AK,,
-1544368,-2198607,hypsographic,"Peradenders Rocks","Peradenders Rocks",variant,27.171334,-78.425003,BS-000,,
-1543344,13920279,spot,"Grand Bahama Auxiliary Air Force","Grand Bahama Auxiliary Air Force",short,26.60802,-78.363645,BS-EG,,
-1543518,-2198027,hypsographic,"Jamaica Well Point","Jamaica Well Point",official,22.231062,-74.253179,BS-AK,,
-1543667,-2198223,hypsographic,"Lovely Bay Cays","Lovely Bay Cays",official,22.683333,-74.016667,BS-AK,,
-1544454,-2199275,hypsographic,"Whale Point","Whale Point",official,25.466667,-76.633333,BS-NE,,
-1544322,-2199103,settlement,"Sweeting’s Cay Settlement","Sweeting's Cay Settlement",variant,26.613342,-77.869307,BS-EG,,
-1543823,-2198434,hydrographic,"Mucaras Reef","Mucaras Reef",official,22.2,-77.266667,BS-000,,
-1543825,-2198436,hydrographic,"Mudian Harbour","Mudian Harbour",official,22.12584,-74.317802,BS-AK,,
-1544460,17641818,hypsographic,"Sandy Cay","Sandy Cay",variant,23.402598,-75.435087,BS-EX,,
-1544145,-2198872,hypsographic,"Sandy Cay","Sandy Cay",official,25.116667,-77.25,BS-000,,
-1544240,-2198996,hydrographic,"Southampton Reef","Southampton Reef",official,23.900213,-75.122114,BS-RC,,
-1544399,-2199200,settlement,"Victoria Hill","Victoria Hill",official,24.083333,-74.516667,BS-SS,,
-1543502,-2198008,spot,"Inagua International","Inagua International",short,20.966667,-73.666667,BS-IN,,
-1544180,-2198918,hypsographic,"Scotland Cay","Scotland Cay",official,26.646102,-77.070707,BS-HT,,
-1544040,-2198733,settlement,"Reckley Hill","Reckley Hill",official,24.1,-74.45,BS-SS,,
-1543308,-2197744,hydrographic,"Gilpin Bay","Gilpin Bay",official,26.095477,-77.165299,BS-SO,,
-1544117,-2198837,hypsographic,"Salt Cay","Salt Cay",official,25.1,-77.3,BS-000,,
-1544032,-2198724,settlement,Ramsey’s,Ramsey's,variant,23.566667,-75.866667,BS-EX,,
-1543988,-2198655,hydrographic,"Pirate Well Pond","Pirate Well Pond",variant,22.416667,-73.066667,BS-MG,,
-1543333,67542,hydrographic,"Goose River","Goose River",official,24.375314,-78.1154,BS-CS,,
-1544463,-2199285,hypsographic,"White Cliff","White Cliff",short,23.066667,-73.716667,BS-CK,,
-1544277,-2199040,hypsographic,"Southwest Point","Southwest Point",variant,23.944492,-74.566667,BS-SS,,
-1543645,-2198198,hypsographic,"Long Cay","Long Cay",official,22.593745,-74.344265,BS-CK,,
-1544471,17642522,hypsographic,"William’s Cay","William's Cay",official,23.753367,-76.078299,BS-EX,,
-1543787,-2198378,hydrographic,"Miller Creek","Miller Creek",official,24.020708,-77.838471,BS-MC,,
-1544050,-2198746,hypsographic,"Rhoda Rocks","Rhoda Rocks",official,27.143601,-78.184465,BS-HT,,
-1543357,-2197251,hypsographic,"Burrow Caye","Burrow Caye",variant,26.425732,-77.780083,BS-EG,,
-1543800,-2198402,spot,"Fort Montague","Fort Montague",official,25.083333,-77.316667,BS-000,,
-1544310,-2199086,hypsographic,"Strachan Cay","Strachan Cay",official,23.108277,-74.94902,BS-LI,,
-1544184,-2198922,settlement,"Scrub Hill","Scrub Hill",official,23.1,-75.016667,BS-LI,,
-1544296,-2199064,hypsographic,"Staniard Rock","Staniard Rock",official,24.859745,-77.877454,BS-NS,,
-1544417,-2199223,settlement,"Water Cay","Water Cay",official,26.75,-78.5,BS-WG,,
-1544504,-2198695,hypsographic,"Prime Cay","Prime Cay",variant,23.823242,-76.185724,BS-BP,,
-1544047,-2198743,hypsographic,"Reids Cay","Reids Cay",official,24.301144,-77.905515,BS-CS,,
-1543575,-2198109,hypsographic,"Lilly Cay","Lilly Cay",official,26.300342,-77.669233,BS-MI,,
-1544097,-2198808,hypsographic,"Rum Cay","Rum Cay",official,25.456441,-78.028024,BS-BY,,
-1543353,-2197805,hydrographic,"Grassy Creek","Grassy Creek",official,23.791984,-77.534177,BS-SA,,
-1543823,-2198249,hydrographic,"Macaras Shoal","Macaras Shoal",variant,22.2,-77.266667,BS-000,,
-1544108,-2198823,hypsographic,"Sail Rocks","Sail Rocks",official,24.93966,-76.773374,BS-BP,,
-1543782,-2198370,hypsographic,"Middle Issac Island","Middle Issac Island",variant,25.956916,-78.848484,BS-BI,,
-1544287,17308174,hydrographic,"Spencer’s Bight","Spencer's Bight",official,26.378724,-77.022939,BS-CO,,
-1543652,-2198206,hypsographic,"Long Mangrove","Long Mangrove",variant,26.292911,-77.288219,BS-CO,,
-1544154,-2198882,hydrographic,"Sandy Creek","Sandy Creek",official,24.8,-77.866667,BS-NS,,
-1543485,-2197983,spot,"Hole in the Wall","Hole in the Wall",variant,25.852364,-77.180667,BS-SO,,
-1544408,-2197546,hypsographic,"Doomey Cay","Doomey Cay",variant,25.102218,-78.003252,BS-NS,,
-1543897,13920123,hypsographic,"Nunjack Cay","Nunjack Cay",variant,26.829569,-77.371419,BS-HT,,
-1544172,-2198907,settlement,"Savannah Sound","Savannah Sound",official,25.1,-76.15,BS-CE,,
-1543668,-2198224,hypsographic,"Low Born Cay","Low Born Cay",short,24.683333,-76.8,BS-EX,,
-1543822,-2198433,settlement,"Moxey Town","Moxey Town",official,24.298905,-77.678344,BS-MC,,
-1543759,-2198337,hypsographic,"Matthews Point","Matthews Point",variant,26.570842,-77.263761,BS-CO,,
-1543363,-2197357,hydrographic,"Clarence Harbour","Clarence Harbour",variant,23.098934,-74.952016,BS-LI,,
-1543950,-2198602,hydrographic,"Pelican Harbour","Pelican Harbour",official,26.383333,-77.016667,BS-CO,,
-1544317,-2199096,hypsographic,"Sugar Loaf","Sugar Loaf",official,25.05,-76.183333,BS-CE,,
-1543405,-2197876,hypsographic,"Gun Point","Gun Point",official,22.689064,-74.2713,BS-CK,,
-1544098,-2198810,hypsographic,"Russel Baldwin Rock","Russel Baldwin Rock",official,26.629784,-77.037816,BS-HT,,
-1543685,-2198241,settlement,Lucaya,Lucaya,official,26.533333,-78.666667,BS-FP,,
-1543291,-2197720,settlement,Gaitor’s,Gaitor's,official,24.466667,-75.55,BS-CI,,
-1544118,-2198838,hydrographic,"Salt Cay Anchorage","Salt Cay Anchorage",official,25.166667,-77.3,BS-000,,
-1544494,-2199326,settlement,"Wood Cay","Wood Cay",official,26.9,-77.733333,BS-NO,,
-1543750,-2198325,hypsographic,"Mastic Cay","Mastic Cay",short,24.3,-77.8,BS-CS,,
-1543500,-2198003,hypsographic,"Iguana Cay","Iguana Cay",short,24.033333,-77.716667,BS-000,,
-1543530,-2198039,hypsographic,"Joe Cays","Joe Cays",variant,26.642867,-77.434066,BS-CO,,
-1543317,-2197756,hypsographic,"Goat Cay","Goat Cay",official,24.594881,-75.894266,BS-CI,,
-1543678,-2199071,hypsographic,"Start Point","Start Point",variant,22.337247,-73.056263,BS-MG,,
-1543364,-2197820,hypsographic,"Great Harbor Cay","Great Harbor Cay",variant,25.761884,-77.861528,BS-BY,,
-1543987,-2198654,settlement,"Pirate Well","Pirate Well",variant,22.430706,-73.094569,BS-MG,,
-1543474,-2197968,hypsographic,"Hog Cay","Hog Cay",official,23.468293,-75.862356,BS-EX,,
-1543944,-2198596,hypsographic,"Pearson Cay","Pearson Cay",short,22.333333,-74.083333,BS-AK,,
-1543361,-2197865,hypsographic,"Guano Cay","Guano Cay",variant,26.672512,-77.130162,BS-HT,,
-1543702,17643243,settlement,"Major’s Cay","Major's Cay",variant,22.726774,-74.156159,BS-CK,,
-1544122,-2198849,settlement,"Salt Pond Settlement","Salt Pond Settlement",variant,23.345943,-75.123114,BS-LI,,
-1544144,-2198870,hypsographic,"Sandy Cay","Sandy Cay",official,23.656683,-77.684202,BS-SA,,
-1543746,-2198321,hypsographic,"Mary Cays","Mary Cays",official,21.983333,-72.033333,BS-000,,
-1543965,-2198628,hypsographic,"Pigeon Cay","Pigeon Cay",official,25.65,-77.833333,BS-BY,,
-1544033,-2198725,hypsographic,"Randall’s Cay","Randall's Cay",official,26.683333,-77.533333,BS-000,,
-1543454,-2197940,hypsographic,"Highbourn Cay","Highbourn Cay",variant,24.722129,-76.818781,BS-BP,,
-1543847,12296834,administrative_region,"Berry Islands District","Berry Islands District",official,25.72111,-77.83139,BS-BY,,
-1543486,-2197984,hypsographic,"Holm Cays","Holm Cays",official,25.607326,-79.311489,BS-BI,,
-1543419,-2197894,settlement,"Hard Bargain","Hard Bargain",official,23.01848,-74.892452,BS-LI,,
-1543366,-2198006,hypsographic,Inagua,Inagua,variant,21.057406,-73.325447,BS-IN,,
-1544169,-2198904,hypsographic,"Sapodilla Cay","Sapodilla Cay",official,24.2874,-77.944018,BS-CS,,
-1543612,-2198160,hydrographic,"Little Loggerhead Creek","Little Loggerhead Creek",official,24.268584,-78.04558,BS-CS,,
-1543737,-2198309,hypsographic,"Market Fish Cay","Market Fish Cay",official,25.683333,-77.75,BS-BY,,
-1543517,-2198026,hydrographic,"Jamaica Spit","Jamaica Spit",official,22.716667,-76.016667,BS-RI,,
-1544478,-2199305,hypsographic,"Point Wilson","Point Wilson",variant,22.183333,-75.75,BS-RI,,
-1544099,-2198811,hypsographic,"Russel Island","Russel Island",variant,25.543646,-76.780432,BS-HI,,
-1543299,-2197731,hypsographic,"Garden Cay","Garden Cay",official,26.586097,-77.007216,BS-HT,,
-1543385,-2197850,settlement,"Green Turtle Village","Green Turtle Village",official,26.816667,-77.45,BS-NO,,
-1544460,-2199282,hypsographic,"White Cay","White Cay",official,23.402598,-75.435087,BS-EX,,
-1543461,-2197948,hypsographic,"High Cay","High Cay",official,23.949085,-74.475631,BS-SS,,
-1544421,-2199228,settlement,Waterford,Waterford,official,24.75,-76.233333,BS-SE,,
-1543445,17637703,hydrographic,"Hawksbill Creek","Hawksbill Creek",official,23.754098,-77.546892,BS-SA,,
-1544272,-2199033,hypsographic,"South Stirrup Cay","South Stirrup Cay",official,25.429139,-77.927275,BS-BY,,
-1544346,-2199137,settlement,"The Village","The Village",official,24.25,-75.4,BS-CI,,
-1543677,-2198233,hydrographic,"Lowe Sound","Lowe Sound",official,25.157891,-78.069595,BS-NS,,
-1544212,-2198959,hypsographic,"Point Simon","Point Simon",official,25,-78.166667,BS-NS,,
-1544405,-2199207,hypsographic,"Waderick Wells Cay","Waderick Wells Cay",official,24.387052,-76.623739,BS-EX,,
-1543974,-2198638,hypsographic,"Pimlico Rocks","Pimlico Rocks",official,23.95,-76.983333,BS-SA,,
-1543327,-2197768,hypsographic,"Gold Rock","Gold Rock",official,26.583333,-78.366667,BS-EG,,
-1544138,-2198864,hydrographic,"Sand Ridge Sound","Sand Ridge Sound",short,26.3,-77.233333,BS-CO,,
-1544467,-2199290,hypsographic,"White Point","White Point",official,24.036429,-76.376578,BS-BP,,
-1544114,-2198832,settlement,"Salina Point","Salina Point",official,22.204784,-74.243504,BS-AK,,
-1544285,-2199050,hypsographic,"Spanish Wells Settlement","Spanish Wells Settlement",variant,25.54582,-76.762018,BS-HI,,
-1544282,-2199046,spot,"Spanish Cay","Spanish Cay",official,26.949222,-77.542017,BS-NO,,
-1543702,17643242,settlement,"Majors Cay","Majors Cay",variant,22.726774,-74.156159,BS-CK,,
-1543908,-2198553,hypsographic,"Okra Cross Point","Okra Cross Point",official,23.312966,-75.125274,BS-LI,,
-1544181,-2198919,hypsographic,"Scott Rocks","Scott Rocks",short,23.3,-77.516667,BS-SA,,
-1543736,-2198308,hypsographic,"Marions Bluff","Marions Bluff",short,25.016667,-76.133333,BS-CE,,
-1543949,-2198601,hydrographic,"Pelican Harbour","Pelican Harbour",official,26.393322,-77.037533,BS-CO,,
-1544386,-2197188,settlement,Bogue,Bogue,variant,25.45,-76.666667,BS-NE,,
-1543807,-2198413,hypsographic,"Morgan’s Bluff","Morgan's Bluff",official,25.179787,-78.02116,BS-NS,,
-1544074,-2198776,hypsographic,"Rocky Point","Rocky Point",official,25.996921,-77.403497,BS-SO,,
-1544106,-2198820,hypsographic,"Sailor’s Choice","Sailor's Choice",official,26.490033,-77.318045,BS-CO,,
-1544193,-2198934,hypsographic,"Settlement Point","Settlement Point",official,26.694268,-78.997847,BS-WG,,
-1543792,-2198391,hypsographic,"Mira Por Vos Islet","Mira Por Vos Islet",variant,22.106437,-74.506616,BS-AK,,
-1544143,-2198869,hypsographic,"Sandy Cay","Sandy Cay",official,23.434918,-75.797484,BS-EX,,
-1543967,-2198631,hypsographic,"Pigeon Cay","Pigeon Cay",official,22.215569,-75.75479,BS-RI,,
-1543661,-2198216,settlement,"Louis Town","Louis Town",official,25.552531,-79.278538,BS-BI,,
-1544448,-2199269,hypsographic,"Wet Cay","Wet Cay",official,23.152126,-75.463842,BS-RI,,
-1544252,-2199009,hypsographic,"Southeast Cay","Southeast Cay",official,21.666667,-73.816667,BS-IN,,
-1544179,-2198917,spot,"Scotland Cay","Scotland Cay",official,26.641153,-77.066481,BS-HT,,
-1544091,-2198800,hypsographic,"Royal Island","Royal Island",official,25.517943,-76.829038,BS-SW,,
-1544072,-2198774,hypsographic,"Rocky Point","Rocky Point",official,22.329787,-74.000253,BS-AK,,
-1543614,-2198162,hypsographic,"Little Meeks Patch Island","Little Meeks Patch Island",short,25.5,-76.516667,BS-NE,,
-1543488,-2197988,settlement,"Holmes’ Rock Village","Holmes' Rock Village",variant,26.55,-78.833333,BS-WG,,
-1544396,-2199197,hypsographic,"Veteran Rock","Veteran Rock",official,26.940132,-77.870866,BS-NO,,
-1543828,-2198441,settlement,"Murphy Town","Murphy Town",official,26.552615,-77.095854,BS-CO,,
-1543784,-2198373,settlement,Millars,Millars,official,24.65,-76.166667,BS-SE,,
-1543756,-2198302,hydrographic,"Maravilla Shoal","Maravilla Shoal",variant,27.358615,-79.080452,BS-000,,
-1544015,-2198700,hydrographic,"Pull and be Damned","Pull and be Damned",short,24.133333,-75.516667,BS-CI,,
-1543741,-2198314,settlement,"Mars Bay Settlement","Mars Bay Settlement",variant,23.867104,-77.515809,BS-SA,,
-1543596,-2198134,hypsographic,"Little Egg Island","Little Egg Island",short,25.466667,-76.883333,BS-SW,,
-1544474,-2199301,settlement,"Williams Town","Williams Town",official,26.483333,-78.666667,BS-FP,,
-1544077,-2198781,hypsographic,"Roker’s Cay","Roker's Cay",variant,22.3089,-74.182944,BS-AK,,
-1543838,-2198453,settlement,"New Bight","New Bight",official,24.3,-75.416667,BS-CI,,
-1543422,-2197897,settlement,"Hard Bargain","Hard Bargain",official,26.316667,-77.566667,BS-MI,,
-1544410,-2199214,hydrographic,"Warren Harbour","Warren Harbour",official,24.25,-75.333333,BS-CI,,
-1544113,-2198830,hypsographic,"Sale Cay Rocks","Sale Cay Rocks",official,27.034933,-78.110199,BS-000,,
-1543458,-2197718,hypsographic,"Frozen Cay","Frozen Cay",variant,25.547204,-77.712816,BS-BY,,
-1544409,-2199213,hypsographic,"Walker’s Cay","Walker's Cay",official,27.253269,-78.413998,BS-GC,,
-1543940,17297821,hypsographic,"Paw Paw Cay","Paw Paw Cay",variant,27.040732,-77.914598,BS-HT,,
-1543357,-2197811,hypsographic,"Great Bersus Cay","Great Bersus Cay",official,26.425732,-77.780083,BS-EG,,
-1543428,-2197906,hydrographic,"Harvey Bay","Harvey Bay",variant,23.510147,-75.253758,BS-LI,,
-1543835,18476497,spot,"Lynden Pindling International","Lynden Pindling International",official,25.038958,-77.466231,BS-000,,
-1543586,-2198122,hypsographic,"Little Bell Cay","Little Bell Cay",variant,24.300774,-76.536945,BS-BP,,
-1543644,17297534,hydrographic,"Long Bay","Long Bay",official,26.216667,-77.15,BS-SO,,
-1543673,-2198229,hypsographic,"Lower Crisby Swash","Lower Crisby Swash",short,26.8,-78.566667,BS-WG,,
-1543934,-2197977,hypsographic,"Hog Island","Hog Island",variant,25.0803,-77.312535,BS-000,,
-1544457,-2199279,hypsographic,"White Bluff","White Bluff",official,25.2,-76.25,BS-000,,
-1544172,-2198909,settlement,"Savannah Sound Settlement","Savannah Sound Settlement",variant,25.1,-76.15,BS-CE,,
-1543810,-2198418,hypsographic,"Mortimers Hill","Mortimers Hill",official,20.95,-73.666667,BS-IN,,
-1543566,-2198097,hypsographic,Lavenderas,Lavenderas,variant,23.7,-80.35,BS-BI,,
-1543690,-2198247,hypsographic,"Lyford Cay","Lyford Cay",official,25.033333,-77.566667,BS-000,,
-1543438,-2197919,hypsographic,"Hawks Bill Hill","Hawks Bill Hill",official,23.766667,-77.533333,BS-SA,,
-1544049,-2198745,hydrographic,"Reserve Bay","Reserve Bay",official,22.35317,-74.094893,BS-AK,,
-1543468,-2197958,hypsographic,"Hills Cay","Hills Cay",short,26.55,-77.266667,BS-CO,,
-1543519,-2198028,hypsographic,"James Cay","James Cay",official,22.324063,-75.797208,BS-RI,,
-1543890,-2198530,hypsographic,"North West Point","North West Point",official,21.133333,-73.666667,BS-IN,,
-1543395,-2197860,hypsographic,"Guana Cay","Guana Cay",official,24.066667,-74.483333,BS-SS,,
-1543554,-2198079,hydrographic,"Krall Creek","Krall Creek",official,23.817392,-77.787684,BS-SA,,
-1544207,-2198953,hypsographic,"Shroud Cays","Shroud Cays",official,24.383333,-76.616667,BS-EX,,
-1543491,-2197992,hydrographic,"Horse Pond","Horse Pond",short,22.35,-72.85,BS-MG,,
-1544053,-2198750,settlement,"Richmond Hill Settlement","Richmond Hill Settlement",variant,23.606765,-75.994322,BS-EX,,
-1544232,-2198986,hypsographic,"Snapper Cay","Snapper Cay",official,26.664166,-77.423241,BS-NO,,
-1543362,-2197818,settlement,"Great Guana Cay","Great Guana Cay",official,26.666602,-77.107819,BS-HT,,
-1544444,-2196991,hypsographic,Antilles,Antilles,variant,19.383333,-71.216667,S1-000,,
-1544087,-2198795,hypsographic,"Round Bush","Round Bush",short,24.766667,-78.3,BS-NS,,
-1544473,-2199300,settlement,"William’s Town","William's Town",official,23.425953,-75.558918,BS-EX,,
-1544120,-2198842,hydrographic,"Salt Pond","Salt Pond",short,22.383333,-72.883333,BS-MG,,
-1543738,-2198310,hypsographic,"Market Fish Cays","Market Fish Cays",official,25.665269,-77.756058,BS-BY,,
-1543335,-2197778,hypsographic,"Gorda Cay","Gorda Cay",official,26.090713,-77.531603,BS-SO,,
-1544438,-2199254,hydrographic,"West Cay","West Cay",official,23.864248,-75.12806,BS-RC,,
-1543898,-2198438,hydrographic,"Chenal Munjack","Chenal Munjack",variant,26.883333,-77.45,BS-HT,,
-1543487,-2197986,settlement,"Holmes Rock","Holmes Rock",official,26.533333,-78.8,BS-WG,,
-1543794,-2198395,hypsographic,"Mount Misery","Mount Misery",official,22.417841,-73.033724,BS-MG,,
-1543565,-2198095,hypsographic,"Laughing Bird Cay","Laughing Bird Cay",official,25.183333,-76.25,BS-CE,,
-1543956,-2198611,hypsographic,"Perry Rock","Perry Rock",official,25.3,-76.9,BS-NE,,
-1543465,-2197953,settlement,"High Rock","High Rock",official,24.166667,-77.583333,BS-SA,,
-1543758,-2198335,settlement,"Mathew Town","Mathew Town",variant,20.951092,-73.674757,BS-IN,,
-1543698,-2198256,hypsographic,"Madioca Point","Madioca Point",official,26.483333,-78.683333,BS-FP,,
-1543621,-2198171,hypsographic,"Little San Salvador Island","Little San Salvador Island",variant,24.572684,-75.932025,BS-CI,,
-1543425,-2197903,hypsographic,"Harry Point","Harry Point",official,22.5,-73.05,BS-MG,,
-1544254,-2199011,hypsographic,"Southeast Point","Southeast Point",official,22.2844,-72.781271,BS-MG,,
-1543681,-2198237,hypsographic,"Low Rock","Low Rock",official,25.349983,-79.177339,BS-BI,,
-1543906,-2198873,hypsographic,"Sandy Cay","Sandy Cay",variant,25.424126,-79.209607,BS-BI,,
-1544375,-2199169,hydrographic,"Turtle Reef","Turtle Reef",official,26.6,-78.35,BS-EG,,
-1543840,-2198456,hydrographic,"New Found Harbour","New Found Harbour",official,23.196813,-75.175195,BS-LI,,
-1543418,-2197893,spot,"Hard Bargain","Hard Bargain",short,23,-74.9,BS-LI,,
-1544027,-2197831,hypsographic,"Great Ragged Island","Great Ragged Island",variant,22.193524,-75.728782,BS-RI,,
-1544313,-2199089,hydrographic,"Stranger Cay Channel","Stranger Cay Channel",variant,27.196594,-78.165273,BS-HT,,
-1543482,-2197980,hypsographic,"Hog Point","Hog Point",official,25.1,-77.35,BS-000,,
-1544263,-2199023,hypsographic,"South Mangrove","South Mangrove",official,26.532139,-77.350459,BS-CO,,
-1543621,-2198126,hypsographic,"Little Cat Island","Little Cat Island",variant,24.572684,-75.932025,BS-CI,,
-1543482,-2197635,hypsographic,"False Point","False Point",variant,25.1,-77.35,BS-000,,
-1544479,-2199310,hypsographic,"Windermere Island","Windermere Island",official,25.078257,-76.117572,BS-CE,,
-1543830,-2198583,hypsographic,"Palmetto Point","Palmetto Point",variant,21.182303,-73.514611,BS-IN,,
-1544200,-2198943,hypsographic,"Sheep Cay","Sheep Cay",short,21.116667,-73.583333,BS-IN,,
-1544157,-2198886,settlement,"Sandy Point","Sandy Point",official,26.020525,-77.389996,BS-SO,,
-1543377,-2197839,hypsographic,"Green Cay","Green Cay",official,24.040405,-77.172202,BS-SA,,
-1543765,-2198348,hypsographic,"Maycock Cay","Maycock Cay",official,22.289252,-75.75624,BS-RI,,
-1544012,-2198693,hypsographic,"Powells Cay","Powells Cay",variant,26.897871,-77.478033,BS-NO,,
-1543287,-2197710,settlement,"French Wells","French Wells",official,22.683333,-74.3,BS-CK,,
-1543727,-2198292,hypsographic,"Man of War Cays","Man of War Cays",official,25.3,-78.183333,BS-NS,,
-1544469,-2199294,hydrographic,"Wide Opening","Wide Opening",official,24.418473,-76.670431,BS-EX,,
-1544115,-2198833,hypsographic,"Salina Point","Salina Point",official,22.217121,-74.288193,BS-AK,,
-1543984,-2198649,settlement,"Pinewood Gardens Estate","Pinewood Gardens Estate",official,25.033333,-77,BS-000,,
-1543651,-2198205,administrative_region,"Long Island District","Long Island District",official,23.21667,-75.11167,BS-LI,,
-1543703,-2198262,hypsographic,"Major’s Spot","Major's Spot",variant,24.183591,-76.454645,BS-BP,,
-1544340,-2199125,settlement,"The Bight","The Bight",official,26.3,-77.55,BS-MI,,
-1543393,-2197858,hypsographic,"Guana Cay","Guana Cay",short,26.016667,-77.383333,BS-SO,,
-1544354,-2199146,hydrographic,"Thrift Harbour Creek","Thrift Harbour Creek",short,26.55,-77.85,BS-EG,,
-1544278,-2199041,hypsographic,"Southwest Point","Southwest Point",official,25.846014,-77.216387,BS-SO,,
-1543953,-2198606,hypsographic,"Pensacola Cays","Pensacola Cays",official,26.975191,-77.668331,BS-NO,,
-1544219,-2198970,hypsographic,"Sisters Rocks","Sisters Rocks",official,25.462583,-77.74312,BS-BY,,
-1543853,-2198482,settlement,"Norman Castle","Norman Castle",variant,26.719067,-77.443803,BS-NO,,
-1544411,-2199217,hydrographic,"Washerwomans Cut","Washerwomans Cut",variant,23.668135,-77.373861,BS-SA,,
-1543854,-2198485,spot,"Normans Cay","Normans Cay",variant,24.614492,-76.768028,BS-BP,,
-1543957,-2198612,hypsographic,"Peterson Cay","Peterson Cay",official,26.55,-78.516667,BS-WG,,
-1543879,-2198515,hypsographic,"Northern Eleuthera","Northern Eleuthera",official,25.48841,-76.691872,BS-NE,,
-1543923,-2198572,hypsographic,"Orange Creek Point","Orange Creek Point",official,24.641301,-75.736084,BS-CI,,
-1544352,-2199144,hypsographic,"Thompsons Cay","Thompsons Cay",official,25.416667,-77.833333,BS-BY,,
-1543526,-2198037,hypsographic,"Jim Point","Jim Point",official,22.254314,-74.197511,BS-AK,,
-1544209,-2198955,hypsographic,"Silver Point","Silver Point",official,26.496503,-78.663513,BS-FP,,
-1543354,-2197806,hypsographic,"Grassy Creek Cays","Grassy Creek Cays",official,23.762996,-77.420338,BS-SA,,
-1544013,-2198694,hypsographic,"Powell’s Point","Powell's Point",variant,24.837835,-76.343721,BS-SE,,
-1544111,-2198828,hypsographic,"Saint Vincent Rock","Saint Vincent Rock",official,21.966667,-75.4,BS-000,,
-1543748,-2198323,settlement,"Masons Bay","Masons Bay",official,22.533333,-73.883333,BS-AK,,
-1544007,-2198684,settlement,"Port Nelson","Port Nelson",official,23.64901,-74.841799,BS-RC,,
-1543492,-2197993,hydrographic,"Horse Pond Bay","Horse Pond Bay",official,22.352474,-72.904295,BS-MG,,
-1544328,-2199110,settlement,"Tarpum Bay Settlement","Tarpum Bay Settlement",variant,24.970003,-76.181567,BS-SE,,
-1544328,-2199109,settlement,"Tarpum Bay","Tarpum Bay",official,24.970003,-76.181567,BS-SE,,
-1544321,-2199100,hypsographic,"Summer Point","Summer Point",variant,23.636765,-74.830376,BS-RC,,
-1543585,-2198121,settlement,"Little Bay Settlement","Little Bay Settlement",official,25.333333,-76.833333,BS-NE,,
-1543744,-2198316,administrative_region,"Marsh Harbour","Marsh Harbour",variant,26.4,-77.166667,BS-000,1,
-1544082,-2198083,hydrographic,"The Lake","The Lake",variant,21.024567,-73.496831,BS-IN,,
-1543533,-2198047,settlement,"John Millars","John Millars",official,24.683333,-76.183333,BS-SE,,
-1544321,-2199101,hypsographic,"Sumner Point","Sumner Point",official,23.636765,-74.830376,BS-RC,,
-1544446,-2199266,hypsographic,"West Shroud Cay","West Shroud Cay",official,24.4,-76.65,BS-EX,,
-1544484,-2199315,hypsographic,"Windsor Point","Windsor Point",official,22.546381,-74.37628,BS-CK,,
-1543360,-2197816,hypsographic,"Great Guana Cay","Great Guana Cay",official,24.020385,-76.355008,BS-BP,,
-1543315,-2197754,settlement,Glintons,Glintons,official,23.633333,-75.3,BS-LI,,
-1543604,-2198148,hydrographic,"Little Harbour Bay","Little Harbour Bay",short,26.333333,-77.016667,BS-CO,,
-1543592,-2198130,hypsographic,"Little Crab Cay","Little Crab Cay",official,26.584188,-78.698119,BS-WG,,
-1543471,-2197963,hypsographic,"Hoffman Cay","Hoffman Cay",official,25.630537,-77.739857,BS-BY,,
-1543552,-2198075,hypsographic,"Kit Cays","Kit Cays",variant,24.570293,-77.72028,BS-CS,,
-1543846,-2198473,settlement,"Nicols Town","Nicols Town",variant,25.145344,-78.001597,BS-NS,,
-1543729,-2198294,hydrographic,"Man-of-War Channel","Man-of-War Channel",official,22.766667,-75.883333,BS-RI,,
-1543830,-2198443,hypsographic,"Mutton Fish Point","Mutton Fish Point",official,21.182303,-73.514611,BS-IN,,
-1543867,-2198501,hypsographic,"North East Point","North East Point",official,21.336161,-73.018531,BS-IN,,
-1543440,-2197928,hydrographic,"Hawks Nest Harbour","Hawks Nest Harbour",variant,24.15,-75.516667,BS-CI,,
-1544462,-2199284,hypsographic,"White Cay","White Cay",official,25.616667,-77.733333,BS-BY,,
-1544422,-2199267,settlement,"West Waterloo","West Waterloo",variant,25.033333,-77.533333,BS-000,,
-1543597,-2198135,hypsographic,"Little Exuma","Little Exuma",official,23.423988,-75.575698,BS-EX,,
-1544475,17264434,hypsographic,"Wills Cay","Wills Cay",official,26.579694,-77.231596,BS-CO,,
-1544176,-2198914,hypsographic,"Schooner Cays","Schooner Cays",official,24.926651,-76.37409,BS-SE,,
-1543364,-2197822,hypsographic,"Great Harbour Cay","Great Harbour Cay",official,25.761884,-77.861528,BS-BY,,
-1543742,18476498,spot,"Leonard M. Thompson International","Leonard M. Thompson International",official,26.510128,-77.085119,BS-CO,,
-1544466,-2199289,settlement,Whitehouse,Whitehouse,official,23.4,-75.166667,BS-LI,,
-1543877,-2198493,hydrographic,"North Bight","North Bight",official,24.369382,-77.824141,BS-CS,,
