wgdPlaceId,wgdId,type,name,fullName,nameType,latitude,longitude,administrationGroup,isHistorical,isCapital
-1888,-8708,administrative_region,Equatoria,Equatoria,variant,5,31,SS-000,1,
-1888,-12652,administrative_region,"Al Iqlīm al Istiwā’ī","Al Iqlim al Istiwa'i",variant,5,31,SS-000,1,
-3356,-4697,administrative_region,"Bahr el Ghazal","Bahr el Ghazal",variant,8,28,SS-000,1,
-3356,-4693,administrative_region,"Wilāyat Baḩr al Ghazāl","Wilayat Bahr al Ghazal",official,8,28,SS-000,1,
-1888,-2755,administrative_region,"Al Wilāyah al Istiwā’īyah","Al Wilayah al Istiwa'iyah",official,5,31,SS-000,1,
-3356,-4699,administrative_region,"Bahr el Ghazal Province","Bahr el Ghazal Province",variant,8,28,SS-000,1,
-12040,-18719,settlement,Nek,Nek,official,8.241005,30.273457,SS-UY,,
11434,13693,settlement,Bi,Bi,official,9.392728,30.832015,SS-JG,,
-9889,-15665,hypsographic,Lila,Lila,official,5.075728,34.453631,SS-EE,,
-1340,-2114,settlement,Aiwi,Aiwi,official,7.69205,29.64117,SS-LK,,
-1558,-2394,hydrographic,Alat,Alat,official,7.146322,31.621791,SS-JG,,
-6678,-10885,settlement,Gumu,Gumu,official,4.41124,30.114774,SS-EW,,
10776811,11586670,hydrographic,Gulu,Gulu,official,5.546564,30.175669,SS-EW,,
11033796,12247450,settlement,Wilu,Wilu,official,9.067184,28.450611,SS-WR,,
11034486,12249301,vegetation,Agel,Agel,official,9.251152,28.379841,SS-WR,,
11034366,12248630,park,Yeoi,Yeoi,official,9.069507,28.273857,SS-WR,,
11134940,12790976,park,Dor,Dor,official,6.855404,29.579752,SS-LK,,
11317668,13291800,hypsographic,Gula,Gula,official,5.438449,27.494383,SS-EW,,
-2258138,-4833907,hydrographic,Nakalale,Nakalale,official,4.864714,34.935141,S1-000,,
-2258138,-3116849,hydrographic,"River Nakalali","River Nakalali",variant,4.864714,34.935141,S1-000,,
-2253668,-3110927,hypsographic,"Lokwanamoru Range","Lokwanamoru Range",official,4.633333,35.216667,S1-000,,
-2253668,-3110928,hypsographic,"Lokwanamur Range","Lokwanamur Range",variant,4.633333,35.216667,S1-000,,
-2253668,-3110929,hypsographic,"Lokwanamurua North","Lokwanamurua North",variant,4.633333,35.216667,S1-000,,
-2248305,-3102554,hypsographic,Kaangmanang,Kaangmanang,variant,4.624616,35.597066,S1-000,,
-2248305,-3104261,hypsographic,Kangamanang,Kangamanang,official,4.624616,35.597066,S1-000,,
-2248305,-3102550,hypsographic,Kaamanang,Kaamanang,variant,4.624616,35.597066,S1-000,,
-2248305,-3104262,hypsographic,Kamanang,Kamanang,official,4.624616,35.597066,S1-000,,
-2182068,-3018164,hypsographic,"Western Rift Valley","Western Rift Valley",official,1.0E-6,30,S1-000,,
-2043813,13117406,hypsographic,"Jebel Bangenze","Jebel Bangenze",official,4.484278,29.010778,S1-000,,
-2043813,-2837252,hypsographic,"Mont Genze","Mont Genze",variant,4.484278,29.010778,S1-000,,
-2043813,-2831210,hypsographic,"Jabal Bangenze","Jabal Bangenze",variant,4.484278,29.010778,S1-000,,
-2043813,-2831211,hypsographic,Bangenzi,Bangenzi,variant,4.484278,29.010778,S1-000,,
-2043813,-2837468,hypsographic,"Mount Gonze","Mount Gonze",variant,4.484278,29.010778,S1-000,,
-2043285,-2836580,hypsographic,"Mont Embe","Mont Embe",official,4.667977,29.521016,S1-000,,
-2043285,-2860509,hypsographic,"Jebel Yembeh","Jebel Yembeh",variant,4.667977,29.521016,S1-000,,
-2043285,13124722,hypsographic,"Jebel Ambeh","Jebel Ambeh",official,4.667977,29.521016,S1-000,,
-2043285,-2836581,hypsographic,"Jabal Ambeh","Jabal Ambeh",variant,4.667977,29.521016,S1-000,,
-1735347,-2431290,hydrographic,"River Unyama","River Unyama",official,3.585814,32.038325,S1-000,,
-1735351,14514736,hypsographic,Urongo,Urongo,official,4.053758,33.811806,S1-000,,
-1735347,-2431289,hydrographic,Unyama,Unyama,official,3.585814,32.038325,S1-000,,
-1735351,-2431297,hypsographic,Urungo,Urungo,official,4.053758,33.811806,S1-000,,
-1734052,-2429659,hydrographic,Nyawa,Nyawa,official,3.438198,31.652462,S1-000,,
-1734052,-2429660,hydrographic,Nyawa,Nyawa,official,3.438198,31.652462,S1-000,,
-1733561,-2429079,hydrographic,Nimur,Nimur,variant,3.625737,32.17434,S1-000,,
-1734242,-2429910,hydrographic,Okosho,Okosho,official,3.922815,33.606637,S1-000,,
-1733561,-2429080,hydrographic,"River Nyimur",RiverNyimur,official,3.625737,32.17434,S1-000,,
-1733561,-2429685,hydrographic,Nyimur,Nyimur,official,3.625737,32.17434,S1-000,,
-1734242,-19413,hydrographic,Okosho,Okosho,short,3.922815,33.606637,S1-000,,
-1733561,-2426123,hydrographic,Limur,Limur,variant,3.625737,32.17434,S1-000,,
-1733561,-2428695,hydrographic,Namur,Namur,variant,3.625737,32.17434,S1-000,,
-1733561,-2429687,hydrographic,"River Nyimwur",RiverNyimwur,variant,3.625737,32.17434,S1-000,,
-1731171,-2426129,hydrographic,Lipan,Lipan,official,3.774951,33.333796,S1-000,,
-1731323,-2426340,hypsographic,Lonyili,Lonyili,official,3.749975,33.512772,S1-000,,
-1732031,-2427218,hypsographic,"Jabal Matoko","Jabal Matoko",official,3.74204,32.416217,S1-000,,
-1732296,-2427141,hydrographic,Maruto,Maruto,variant,3.807664,33.367573,S1-000,,
-1731171,-15703,hydrographic,Lipan,Lipan,short,3.774951,33.333796,S1-000,,
-1732031,-2427217,hypsographic,Matoko,Matoko,official,3.74204,32.416217,S1-000,,
-1731982,-2427161,hydrographic,Masawa,Masawa,official,4.242813,33.974436,S1-000,,
-1732031,-2430373,hypsographic,Patuko,Patuko,variant,3.74204,32.416217,S1-000,,
-1731096,-2426030,hydrographic,Lachilia,Lachilia,official,3.871007,33.238369,SS-000,,
-1732296,-2427564,hydrographic,Moruto,Moruto,official,3.807664,33.367573,S1-000,,
-1731323,-2426077,hypsographic,Lanyili,Lanyili,variant,3.749975,33.512772,S1-000,,
-1731323,-2426341,hypsographic,Lonyili,Lonyili,official,3.749975,33.512772,S1-000,,
-1732296,-2427565,hydrographic,Moruto,Moruto,official,3.807664,33.367573,S1-000,,
-1728611,-13282,hydrographic,Kakal,Kakal,official,3.939514,33.659487,S1-000,,
-1728611,-2423071,hydrographic,Kakal,Kakal,official,3.939514,33.659487,S1-000,,
-1725819,-2419694,hypsographic,Aggu,Aggu,official,3.765934,32.720199,S1-000,,
-1725819,-2419722,hypsographic,Agu,Agu,official,3.765934,32.720199,S1-000,,
-1725837,14476319,hypsographic,"Agoro Mountains","Agoro Mountains",official,3.840682,32.938989,S1-000,,
-1725837,-2419718,hypsographic,"Agorro Mountains","Agorro Mountains",official,3.840682,32.938989,S1-000,,
-1350775,-1945170,hypsographic,"Djebel Tinga","Djebel Tinga",variant,9.352716,23.637373,S1-000,,
-1351100,-1945555,hypsographic,Vouma,Vouma,official,9.221541,23.525878,S1-000,,
-1350775,-1945163,hypsographic,Tinga,Tinga,official,9.352716,23.637373,S1-000,,
-1350775,-1945164,hypsographic,"Jabal Tinga","Jabal Tinga",variant,9.352716,23.637373,S1-000,,
-1350775,-1945172,hypsographic,"Jebel Tinga","Jebel Tinga",official,9.352716,23.637373,S1-000,,
-620211,-876380,hypsographic,Tamitiro,Tamitiro,official,5.627756,35.12614,S1-000,,
-620211,-876368,hypsographic,"Gebel Tamatiri","Gebel Tamatiri",variant,5.627756,35.12614,S1-000,,
-620211,-877150,hypsographic,Tomadur,Tomadur,variant,5.627756,35.12614,S1-000,,
-620211,-877151,hypsographic,"Jabal Tomadur","Jabal Tomadur",official,5.627756,35.12614,S1-000,,
-620211,-876383,hypsographic,"Jebel Tamitiro","Jebel Tamitiro",variant,5.627756,35.12614,S1-000,,
-620211,-876369,hypsographic,Tamatiro,Tamatiro,variant,5.627756,35.12614,S1-000,,
-620211,-876360,hypsographic,Tamadur,Tamadur,variant,5.627756,35.12614,S1-000,,
-620211,-876382,hypsographic,"Gebel Tamitiro","Gebel Tamitiro",variant,5.627756,35.12614,S1-000,,
-617917,-875936,hypsographic,Solka,Solka,variant,5.5,35.3,S1-000,,
-617917,-872678,hypsographic,"Mount Naita","Mount Naita",official,5.5,35.3,S1-000,,
-617917,-876897,hypsographic,Tid,Tid,variant,5.5,35.3,S1-000,,
-617917,-872677,hypsographic,Naita,Naita,variant,5.5,35.3,S1-000,,
-615747,-869367,hypsographic,"Kutul Birino","Kutul Birino",short,5.895252,35.020597,S1-000,,
-615012,-872687,hydrographic,"River Nakua","River Nakua",variant,4.666667,35.883333,S1-000,,
-615747,-857363,hypsographic,"Monti Cutul Birino","Monti Cutul Birino",variant,5.895252,35.020597,S1-000,,
-615012,20082499,hydrographic,Kibbish,Kibbish,official,4.666667,35.883333,S1-000,,
-615012,-868458,hydrographic,"Kibish Shet’","Kibish Shet'",official,4.666667,35.883333,S1-000,,
-615012,-856318,hydrographic,Cheibesc,Cheibesc,variant,4.666667,35.883333,S1-000,,
-615012,-868457,hydrographic,"River Kibish","River Kibish",variant,4.666667,35.883333,S1-000,,
-615012,-868453,hydrographic,"River Kibbish","River Kibbish",official,4.666667,35.883333,S1-000,,
-615012,-873927,hydrographic,Sacchi,Sacchi,variant,4.666667,35.883333,S1-000,,
-614453,-1116613,hydrographic,"River Kaia","River Kaia",official,6.496209,34.981349,S1-000,,
-614453,-855852,hydrographic,Caia,Caia,variant,6.496209,34.981349,S1-000,,
-607243,-868451,hydrographic,Kiba,Kiba,variant,5.788602,34.907681,S1-000,,
-607243,-856119,hydrographic,"Cerosc Uonz","Cerosc Uonz",variant,5.788602,34.907681,S1-000,,
-607243,-856507,hydrographic,"Cherosh Wenz","Cherosh Wenz",official,5.788602,34.907681,S1-000,,
-607243,-856508,hydrographic,"Cherosh Wonz","Cherosh Wonz",variant,5.788602,34.907681,S1-000,,
-606082,-854690,hypsographic,Biring,Biring,variant,5.882234,35.006031,S1-000,,
-606082,-854704,hypsographic,"Gebel Birnu","Gebel Birnu",variant,5.882234,35.006031,S1-000,,
-606082,-854705,hypsographic,"Jabal Birnu","Jabal Birnu",official,5.882234,35.006031,S1-000,,
-606890,-855936,settlement,Cantiere,Cantiere,short,6.445288,34.941723,SS-JG,,
-606890,14324797,settlement,Kantiere,Kantiere,variant,6.445288,34.941723,SS-JG,,
-606082,-854706,hypsographic,"Jebel Birnu","Jebel Birnu",variant,5.882234,35.006031,S1-000,,
-300347,-467241,hydrographic,"Nile River","Nile River",official,30.166667,31.1,S1-000,,
-300347,-467245,hydrographic,Nilus,Nilus,variant,30.166667,31.1,S1-000,,
-300347,-467235,hydrographic,"Baḩr an Nīl",BahranNil,variant,30.166667,31.1,S1-000,,
-300347,13341189,hydrographic,"نهر النيل","نهر النيل",unknown,30.166667,31.1,S1-000,,
-300347,15002711,hydrographic,"An Nīl","An Nil",official,30.166667,31.1,S1-000,,
-300347,-467240,hydrographic,"Nile River","Nile River",colloquial,30.166667,31.1,S1-000,,
-300347,14443494,hydrographic,Nile,Nile,colloquial,30.166667,31.1,S1-000,,
-300347,-455779,hydrographic,"Fayḑ Mişr","Fayd Misr",variant,30.166667,31.1,S1-000,,
-300347,-467238,hydrographic,"Nahr an Nil",NahranNil,variant,30.166667,31.1,S1-000,,
-300347,405587,hydrographic,"Nahr el-Nîl",Nahrel-Nil,variant,30.166667,31.1,S1-000,,
-300347,-467236,hydrographic,"Bahr en Nīl",BahrenNil,variant,30.166667,31.1,S1-000,,
-300347,-467234,hydrographic,Nil,Nil,variant,30.166667,31.1,S1-000,,
-300347,-448833,hydrographic,"Al Baḩr al A‘z̧am","Al Bahr al A`zam",variant,30.166667,31.1,S1-000,,
-300347,-467183,hydrographic,Neilos,Neilos,variant,30.166667,31.1,S1-000,,
-300347,15002708,hydrographic,النيل,النيل,unknown,30.166667,31.1,S1-000,,
-300347,-467244,hydrographic,Nilo,Nilo,variant,30.166667,31.1,S1-000,,
-300347,-452262,hydrographic,"El Bahr","El Bahr",variant,30.166667,31.1,S1-000,,
-300347,-467242,hydrographic,"Nahr an Nīl",NahranNil,official,30.166667,31.1,S1-000,,
-17659,-27348,settlement,Wunyar,Wunyar,official,9.196073,29.018892,SS-UY,,
-17658,-27347,hydrographic,"Wun Wai","Wun Wai",official,8.95149,28.613433,SS-WR,,
-17657,-27346,settlement,Wunura,Wunura,official,5.91604,31.629841,SS-LK,,
-17656,-27344,spot,"Wun Tur","Wun Tur",official,7.66626,29.437316,SS-LK,,
-17655,-27343,settlement,"Wun Tit","Wun Tit",official,8.086194,28.033133,SS-BW,,
-17654,-27341,settlement,Wunthou,Wunthou,official,8.630506,33.083118,SS-NU,,
-17602,-27284,settlement,Wunakei,Wunakei,official,8.967838,31.774914,SS-JG,,
-17575,-27255,settlement,Wor,Wor,official,8.505842,30.633508,SS-JG,,
-17461,-27093,settlement,Wāw,Waw,variant,7.701111,27.989722,SS-BW,,
-17460,-27092,settlement,"Wau Wau","Wau Wau",official,8.54314,29.10305,SS-WR,,
-15620,-24234,settlement,Tot,Tot,official,9.078447,28.986387,SS-UY,,
-15335,-23852,settlement,Tiltil,Tiltil,official,9.279496,30.632863,SS-JG,,
-15163,-23619,settlement,Tengler,Tengler,official,8.189248,30.085973,SS-UY,,
-14793,-23051,settlement,Tagga,Tagga,official,10.023856,33.644331,SS-NU,,
-14677,-22874,hydrographic,Suo,Suo,official,6.371199,27.937391,SS-EW,,
-14274,-22203,park,Shilluk,Shilluk,official,9.64898,31.336698,SS-NU,,
-13429,-20814,park,Ruweng,Ruweng,official,9.506576,29.486367,SS-UY,,
-13413,-20782,settlement,Rupdid,Rupdid,official,9.300731,30.90464,SS-JG,,
-13412,-20781,settlement,Rupchai,Rupchai,official,8.193428,30.124263,SS-UY,,
-13411,-20779,hydrographic,Rungun,Rungun,official,9.627629,30.173139,SS-UY,,
-13409,-20777,settlement,Runchol,Runchol,official,6.543341,29.89401,SS-LK,,
-13344,-20675,settlement,Ruboani,Ruboani,official,8.085863,30.730413,SS-JG,,
-13343,-20674,settlement,Rublu,Rublu,official,8.376295,30.782547,SS-JG,,
-13299,-20604,settlement,Rom,Rom,official,9.88703,32.153839,SS-NU,,
-13298,-20603,settlement,Rom,Rom,official,9.306585,33.495345,SS-NU,,
-13276,-20567,hydrographic,Riyr,Riyr,official,8.363543,32.174246,SS-JG,,
-12796,-19787,settlement,Poweir,Poweir,official,7.334657,30.435654,SS-UY,,
-13221,-20478,settlement,Reng,Reng,official,9.288568,29.526396,SS-UY,,
-12795,-19786,settlement,Powang,Powang,official,8.483384,28.072313,SS-WR,,
-13220,-20477,settlement,Reng,Reng,official,8.438258,28.695132,SS-WR,,
-13275,-20565,settlement,Riyau,Riyau,official,7.247293,29.101603,SS-LK,,
-12756,-19732,settlement,Peili,Peili,official,7.405157,28.12974,SS-BW,,
-12758,-19735,park,Pengko,Pengko,official,6.200505,31.950019,SS-JG,,
-12681,-19646,settlement,Pajur,Pajur,official,6.829139,31.383229,SS-JG,,
-12680,-19645,hypsographic,Pajok,Pajok,official,6.103902,34.074485,SS-JG,,
-12682,-19647,settlement,Pakarit,Pakarit,official,4.113056,30.960556,SS-EC,,
-12757,-19734,settlement,Penda,Penda,official,4.129167,30.738056,SS-EC,,
-12466,-1855,settlement,Adwor,Adwor,variant,9.303249,31.757598,SS-NU,,
-12437,-19317,hypsographic,Obeli,Obeli,official,3.938246,32.694096,SS-EE,,
-12485,-19382,settlement,Ogon,Ogon,official,10.176633,32.264263,SS-NU,,
-12654,-19614,settlement,Pabair,Pabair,official,7.320615,30.393125,SS-UY,,
-12438,-19319,hydrographic,Obiri,Obiri,official,3.8325,32.682961,SS-EE,,
-12467,-19359,settlement,Odwoigo,Odwoigo,official,9.357401,31.351373,SS-NU,,
-12114,-18820,settlement,Ngwer,Ngwer,official,9.324735,30.528171,SS-JG,,
-12329,-19174,settlement,Nyang,Nyang,official,6.7638,31.471815,SS-JG,,
-12330,-19175,settlement,Nyang,Nyang,official,8.919252,32.49305,SS-NU,,
-12157,-18891,hypsographic,Nimule,Nimule,official,3.616667,32.05,SS-EE,,
-12328,-19173,settlement,Nyang,Nyang,official,6.682862,30.58229,SS-LK,,
-12093,-18792,settlement,Ngoiny,Ngoiny,official,8.483333,30.083333,SS-UY,,
-12113,-18818,spot,Ngwadi,Ngwadi,official,5.34805,29.597238,SS-EW,,
-12112,-18817,settlement,Ngur,Ngur,official,7.726897,28.074577,SS-BW,,
-12034,-18752,settlement,Ngak,Ngak,variant,10.019427,30.08228,SS-UY,,
-12092,-18791,hydrographic,Ngoin,Ngoin,official,8.045154,32.373014,SS-JG,,
-11409,-17800,settlement,Moli,Moli,official,4.029823,31.954633,SS-EE,,
-11682,-18211,settlement,Muru,Muru,official,6.604159,29.247907,SS-LK,,
-17076,-26475,hydrographic,"Wad al Kishaf","Wad al Kishaf",variant,9.335368,25.845349,SS-BW,,
-17791,-27554,settlement,"Yusuf Natcha","Yusuf Natcha",official,10.068878,33.397649,SS-NU,,
-17365,-26959,settlement,Wanarah,Wanarah,official,6.122169,31.245986,SS-LK,,
-17373,-26968,hydrographic,"Khawr Wang Gnaish","Khawr Wang Gnaish",variant,9.103661,32.208864,SS-NU,,
-17529,-27189,hydrographic,"Wik Logga","Wik Logga",official,8.878133,33.703041,SS-NU,,
-17473,-27105,hydrographic,"Khawr Waywil","Khawr Waywil",variant,7.607338,29.739184,SS-LK,,
-17755,-27498,hydrographic,Yirul,Yirul,variant,6.570162,30.494176,SS-LK,,
-17769,-27516,settlement,Yomding,Yomding,official,8.63112,32.858745,SS-NU,,
-17748,13826752,settlement,Yizh,Yizh,variant,9.031056,32.909531,SS-NU,,
-17898,-27741,hydrographic,"Khor Zoggo","Khor Zoggo",official,5.931551,29.93843,SS-EW,,
-17641,-27326,settlement,Wunkwil,Wunkwil,official,8.21614,32.231477,SS-JG,,
-17519,-27175,hypsographic,"Jabal Wia","Jabal Wia",variant,4.649602,31.371132,SS-EC,,
-17619,-19478,settlement,Onabut,Onabut,variant,11.883333,32.8,SS-NU,,
-17881,-27709,hydrographic,"Khor Zengu","Khor Zengu",official,5.30833,28.268187,SS-EW,,
-17824,-27613,hypsographic,Zangia,Zangia,official,5.583333,27.55,SS-EW,,
-16961,-26308,settlement,Ushini,Ushini,official,7.684772,33.557826,SS-JG,,
-17436,-27050,hydrographic,"Khor Warth","Khor Warth",official,8.058784,30.708066,SS-JG,,
-17736,-27463,hydrographic,"Khor Yembe","Khor Yembe",official,5.05,27.95,SS-EW,,
-17374,-10331,settlement,"Ghābat el ‘Arab","Ghabat el `Arab",official,9.087015,29.454693,SS-UY,,
-17374,-26970,settlement,"Wang Kai","Wang Kai",variant,9.087015,29.454693,SS-UY,,
-17766,-27512,hydrographic,Yollei,Yollei,official,7.861947,32.677681,SS-JG,,
-17793,-27556,hydrographic,"Khawr Yutu","Khawr Yutu",variant,7.428547,26.087965,SS-BW,,
-17535,-27197,settlement,Wilyot,Wilyot,official,9.283333,28.833333,SS-UY,,
-17681,-27388,settlement,"Yakara Dogatwan","Yakara Dogatwan",official,5.26303,31.797205,SS-EC,,
-17450,-27359,settlement,Wutau,Wutau,official,9.631833,32.228259,SS-NU,,
-17491,-27134,hypsographic,"Jabal Wemmi","Jabal Wemmi",variant,5.247469,29.833689,SS-EW,,
-17407,-27012,settlement,Wararair,Wararair,official,8.524979,27.504845,SS-BN,,
-17454,-27077,hypsographic,"Watha Peth Hills","Watha Peth Hills",official,5.3,35.433333,SS-EE,,
-17497,-27141,hydrographic,Wereboi,Wereboi,official,6.939097,29.706012,SS-LK,,
-17517,-27173,settlement,Whure,Whure,official,3.819348,33.412731,SS-EE,,
-17354,-26946,hydrographic,Walang,Walang,official,7.511272,31.548325,SS-JG,,
-17609,-27291,settlement,"Wun Amet","Wun Amet",official,7.967839,29.117689,SS-WR,,
-17680,-27387,settlement,Yaiwal,Yaiwal,official,8.94752,33.532906,SS-NU,,
-17591,-27271,settlement,Wulyang,Wulyang,official,8.098175,30.852942,SS-JG,,
-17622,-27306,settlement,Wundok,Wundok,official,10.379106,32.59769,SS-NU,,
-17694,-27404,hydrographic,Yan,Yan,official,8.116797,31.192459,SS-JG,,
-17651,-27338,settlement,Wuntao,Wuntao,official,9.721539,32.239799,SS-NU,,
-17756,-27492,hydrographic,"Khor Yirongo","Khor Yirongo",official,9.587461,24.229603,SS-BW,,
-17471,-27103,settlement,Wayi,Wayi,official,5.18089,30.17758,SS-EW,,
-17759,-27499,settlement,Yirwa,Yirwa,official,7.779957,27.226942,SS-BW,,
-17570,-27250,settlement,Wongkurnuk,Wongkurnuk,official,8.974704,26.848363,SS-BN,,
-17729,-27450,hydrographic,"Khawr Yei","Khawr Yei",variant,8.954651,30.824195,SS-JG,,
-17451,-26391,spot,Waath,Waath,official,7.652025,29.22178,SS-WR,,
-17387,-26986,settlement,Wantiit,Wantiit,official,6.199674,30.468459,SS-LK,,
-17299,-4888,settlement,"Ban Sarra","Ban Sarra",variant,10.419626,33.232897,SS-NU,,
-17463,-27087,settlement,Wau,Wau,official,9.65019,31.782997,SS-NU,,
-17627,-27311,settlement,Wunging,Wunging,official,8.937257,31.807125,SS-NU,,
-17463,-27095,settlement,Wāw,Waw,variant,9.65019,31.782997,SS-NU,,
-17485,-27124,hydrographic,"Khawr Weiker","Khawr Weiker",variant,9.641572,32.170695,SS-NU,,
-17511,-27164,hydrographic,Weykol,Weykol,official,7.659268,32.147435,SS-JG,,
-17374,-26982,settlement,"Wanj Kay","Wanj Kay",variant,9.087015,29.454693,SS-UY,,
-17646,-27331,settlement,"Wun Rog","Wun Rog",official,8.989773,28.302598,SS-WR,,
-17757,-27493,hydrographic,"Khawr Yirr Gwol","Khawr Yirr Gwol",variant,9.456446,30.788468,SS-JG,,
-17001,-26377,settlement,Vuya,Vuya,official,5.359282,29.668574,SS-EW,,
-17618,-27302,settlement,Wunbut,Wunbut,official,9.260646,29.716667,SS-UY,,
-17480,-27118,hydrographic,"Khor Wehfet","Khor Wehfet",official,10.795556,32.494495,SS-NU,,
-17730,20082578,hydrographic,Yei,Yei,official,6.25,30.216667,SS-000,,
-17478,-27115,settlement,Wegbail,Wegbail,official,8.340883,33.19045,SS-NU,,
-17589,-27269,hydrographic,Wulbar,Wulbar,official,8.156649,31.849564,SS-JG,,
-17758,-27497,hydrographic,"Khor Yirr Pet","Khor Yirr Pet",official,8.532798,30.661062,SS-JG,,
-17096,-26495,hydrographic,"Wad an Nāşir","Wad an Nasir",variant,11.016667,32.833333,SS-NU,,
-17729,-27451,hydrographic,"Khor Yei","Khor Yei",official,8.954651,30.824195,SS-JG,,
-17595,-27276,settlement,Wunachwil,Wunachwil,official,10.235612,32.45992,SS-NU,,
-17355,-26948,settlement,"Wal Athianj","Wal Athianj",variant,7.711842,29.670198,SS-LK,,
-17757,-27494,hydrographic,"Khor Yirr Gwol","Khor Yirr Gwol",official,9.456446,30.788468,SS-JG,,
-17554,-27227,settlement,"Wit Dokott","Wit Dokott",official,9.433208,31.575051,SS-NU,,
-17434,-27047,settlement,"War Shuai","War Shuai",official,8.516114,27.970209,SS-WR,,
-17436,14199169,hydrographic,"Khor Wamb","Khor Wamb",variant,8.058784,30.708066,SS-JG,,
-17758,-27496,hydrographic,"Khawr Yirr Pet","Khawr Yirr Pet",variant,8.532798,30.661062,SS-JG,,
-17600,-27281,settlement,Wunagoi,Wunagoi,official,9.073033,32.381473,SS-NU,,
-17833,-27624,spot,"Mashra‘ az Zarāf","Mashra` az Zaraf",variant,10.845252,32.476887,SS-NU,,
-17572,-27252,hydrographic,Wontambi,Wontambi,official,4.224791,31.910031,SS-EC,,
-17636,-27320,settlement,Wunkur,Wunkur,official,7.341751,29.545393,SS-LK,,
-17509,-27162,settlement,Weth,Weth,official,9.287047,32.72339,SS-NU,,
-17638,-27322,settlement,"Wun Kwel","Wun Kwel",official,8.046167,28.915284,SS-WR,,
-17305,13124168,hypsographic,Wadu,Wadu,official,4.198167,30.294957,SS-EW,,
-17750,-27484,settlement,Yinga,Yinga,official,7.706271,27.774852,SS-BW,,
-17781,-27540,settlement,Yungriom,Yungriom,official,7.812011,28.705768,SS-WR,,
-17755,-27495,hydrographic,Yirrol,Yirrol,variant,6.570162,30.494176,SS-LK,,
-17480,-27117,hydrographic,"Khawr Wehfet","Khawr Wehfet",variant,10.795556,32.494495,SS-NU,,
-16911,-26238,settlement,Ungwei,Ungwei,official,9.031602,27.757686,SS-BN,,
-17367,-16744,hydrographic,Mandi,Mandi,variant,4.641975,30.456962,SS-EC,,
-17675,-27380,settlement,Yagaru,Yagaru,official,8.085885,25.990423,SS-BW,,
-17580,-27260,hypsographic,Wotu,Wotu,short,6.267753,34.95384,SS-JG,,
-17696,-27407,hydrographic,"Khawr Yanga","Khawr Yanga",variant,8.146226,26.392081,SS-BN,,
-17611,-27294,hydrographic,Wunanomdamir,Wunanomdamir,official,8.823207,31.855778,SS-JG,,
-17690,9241142,settlement,Yambiyo,Yambiyo,variant,4.570833,28.394167,SS-EW,,
-17614,-27298,settlement,Wunarual,Wunarual,official,8.827287,31.863926,SS-NU,,
-11072,-17272,settlement,Megiri,Megiri,official,3.9398,31.597129,SS-EC,,
-17450,-27073,settlement,Watau,Watau,variant,9.631833,32.228259,SS-NU,,
-17504,-27152,hydrographic,"Khor Werr","Khor Werr",official,6.920153,31.751289,SS-JG,,
-17494,-27323,settlement,"Wun Kwel","Wun Kwel",official,8.161828,28.03312,SS-BW,,
-17612,-27295,settlement,Wunanyak,Wunanyak,official,9.136294,31.723594,SS-JG,,
-17868,-27700,hypsographic,"Jebel Zeini","Jebel Zeini",variant,8.541374,24.903446,SS-BW,,
-17775,20082577,hydrographic,Yubo,Yubo,official,5.058262,28.239822,SS-EW,,
-17705,-27417,hydrographic,Yar,Yar,official,9.568689,29.938673,SS-UY,,
-17672,-27376,hypsographic,Yafa,Yafa,official,6.933333,26.65,SS-BW,,
-16991,13245138,hypsographic,"Jebel Velele","Jebel Velele",variant,8.952305,26.141958,SS-BN,,
-17567,-27245,settlement,Woke,Woke,official,4.578477,31.076281,SS-EC,,
-17733,-27457,settlement,Yelgu,Yelgu,official,10.010624,33.50947,SS-NU,,
-16989,-26360,hypsographic,Vandel,Vandel,official,7.173403,26.302084,SS-BW,,
-17516,-27169,hydrographic,Whelbi,Whelbi,official,6.113261,27.78,SS-EW,,
-17793,-27557,hydrographic,"Khor Yutu","Khor Yutu",official,7.428547,26.087965,SS-BW,,
-17616,-27300,settlement,Wunayan,Wunayan,official,10.626636,32.555765,SS-NU,,
-17797,-27561,settlement,Zabit,Zabit,official,5.536708,30.868195,SS-EW,,
-16828,-26105,settlement,"Umm Tugulgul","Umm Tugulgul",official,8.13993,25.946565,SS-BW,,
-17626,-7131,settlement,Dok,Dok,variant,11.9,32.783333,SS-NU,,
-17565,-27242,park,Woi,Woi,official,7.921449,31.164948,SS-JG,,
-16977,-8997,settlement,Eweil,Eweil,variant,8.761944,27.391944,SS-BN,,
-16995,-26369,hydrographic,"Khor Veveno","Khor Veveno",official,6.666498,32.96463,SS-000,,
-17066,-26465,settlement,"Wad ‘Ali Kwol","Wad `Ali Kwol",variant,7.553188,28.037996,SS-BW,,
-17682,-27389,hydrographic,"Khor Yakba","Khor Yakba",short,6.9,26.2,SS-BW,,
-17436,-27049,hydrographic,"Khawr Warth","Khawr Warth",variant,8.058784,30.708066,SS-JG,,
-17809,-27586,settlement,Zakka,Zakka,official,8.191175,25.878887,SS-BW,,
-17343,-26931,settlement,"Wak Rial","Wak Rial",official,8.582453,33.060452,SS-NU,,
-17431,-27043,spot,Warralu,Warralu,official,8.233918,27.309848,SS-BN,,
-17004,-26390,hydrographic,"Khor Waat","Khor Waat",official,6.329901,31.365975,SS-LK,,
-17387,-27342,settlement,Wuntiit,Wuntiit,variant,6.199674,30.468459,SS-LK,,
-17633,-27317,settlement,Wunkoi,Wunkoi,official,8.923867,33.57669,SS-NU,,
-17571,-27251,settlement,Wongotero,Wongotero,official,7.730352,33.035805,SS-JG,,
-16973,-26328,settlement,Utili,Utili,official,7.755887,33.030595,SS-JG,,
-17846,11513588,hydrographic,Ngol,Ngol,variant,9.256483,29.756754,SS-UY,,
-17468,-27100,settlement,Wawali,Wawali,official,3.851002,31.65659,SS-EC,,
-16992,-26364,hydrographic,"Khawr Vengi","Khawr Vengi",official,6.4,26.35,SS-EW,,
-17076,-26657,hydrographic,"Wad el Kishaf","Wad el Kishaf",official,9.335368,25.845349,SS-BW,,
-17418,-27025,hydrographic,Wargar,Wargar,official,8.973689,31.089964,SS-JG,,
-17626,-27310,settlement,"Wun Ghir","Wun Ghir",official,11.9,32.783333,SS-NU,,
-17306,-26877,hydrographic,"Khawr Wadudu","Khawr Wadudu",variant,10.493053,33.019003,SS-NU,,
-17451,-27074,spot,Wa‘th,Wa`th,variant,7.652025,29.22178,SS-WR,,
-17768,-27514,settlement,Yom,Yom,official,9.177632,30.784967,SS-JG,,
-16991,-26363,hypsographic,"Jabal Velele","Jabal Velele",official,8.952305,26.141958,SS-BN,,
-16903,-26229,hydrographic,"Khor Ungulaker","Khor Ungulaker",official,7.993472,25.114278,SS-BW,,
-17776,-27529,hydrographic,"River Yubo",RiverYubo,official,6.001369,27.830605,SS-EW,,
-17338,-26922,settlement,Waka,Waka,official,9.016667,34.066667,SS-NU,,
-17371,-26966,settlement,Wangding,Wangding,official,8.068164,33.071514,SS-NU,,
-17595,-27275,settlement,Wunachfiel,Wunachfiel,variant,10.235612,32.45992,SS-NU,,
-17735,-27460,hydrographic,"Khor Yemba","Khor Yemba",official,4.707318,28.86769,SS-EW,,
-16977,-26334,settlement,Uwayl,Uwayl,variant,8.761944,27.391944,SS-BN,,
-17669,-12725,hydrographic,Jabus,Jabus,variant,9.866172,33.543605,SS-NU,,
-17435,-27048,settlement,"War Shum","War Shum",official,9.089944,27.088583,SS-BN,,
-17563,-27238,settlement,Woendwal,Woendwal,official,6.435527,29.974291,SS-LK,,
-17653,-27340,spot,"Wun Thou","Wun Thou",official,5.963204,31.550213,SS-LK,,
-17831,-27622,hydrographic,"Baḩr az Zarāf","Bahr az Zaraf",variant,9.413819,31.163462,SS-000,,
-17519,13188134,hypsographic,Wia,Wia,official,4.649602,31.371132,SS-EC,,
-17707,-27421,settlement,Yargut,Yargut,official,8.994002,27.463725,SS-BN,,
-17375,-26971,settlement,"Wang Kiel","Wang Kiel",official,9.176158,30.893864,SS-JG,,
-17615,-27299,settlement,Wunawol,Wunawol,official,10.816537,32.596813,SS-NU,,
-17452,-27075,settlement,Wa‘th,Wa`th,variant,7.398012,28.931725,SS-WR,,
-17344,-26932,hydrographic,"Khawr Wala","Khawr Wala",variant,4.778544,30.562653,SS-EC,,
-17846,-27639,hydrographic,"Raqaba ez Zarqa","Raqaba ez Zarqa",official,9.256483,29.756754,SS-UY,,
-17776,-27530,hydrographic,Yubu,Yubu,variant,6.001369,27.830605,SS-EW,,
-16995,-26368,hydrographic,"Khawr Veveno","Khawr Veveno",variant,6.666498,32.96463,SS-000,,
-17668,-27368,hydrographic,"River Yabongo","River Yabongo",variant,4.70333,28.305483,SS-EW,,
-17485,-27125,hydrographic,"Khor Weiker","Khor Weiker",official,9.641572,32.170695,SS-NU,,
-17543,-27207,settlement,Winyanlonge,Winyanlonge,official,3.939995,32.182704,SS-EE,,
-17749,-27482,settlement,Yill,Yill,official,8.311373,30.03363,SS-UY,,
-17486,-27126,settlement,Weinial,Weinial,official,8.338602,31.882959,SS-JG,,
-17465,-27097,hydrographic,"Nahr Wāw","Nahr Waw",variant,7.22763,27.618911,SS-000,,
-17588,-27268,settlement,Wulang,Wulang,official,8.221223,32.218965,SS-JG,,
-17621,-27305,hydrographic,Wundeyem,Wundeyem,official,7.842674,30.187957,SS-UY,,
-17734,-27459,hypsographic,Yemba,Yemba,official,5.066667,27.933333,SS-EW,,
-17541,-19600,hydrographic,Owindi,Owindi,variant,9.566667,24.6,SS-BW,,
-17723,-27444,settlement,Yeba,Yeba,official,5.575359,30.710679,SS-EW,,
-17481,-27119,settlement,Weibuini,Weibuini,official,8.938593,32.452893,SS-NU,,
-16899,11507434,hypsographic,"Jebel Ungbongbo","Jebel Ungbongbo",variant,7.913306,26.180729,SS-BW,,
-17583,-27263,hydrographic,Wowo,Wowo,variant,4.71301,29.136143,SS-EW,,
-17378,-26974,hydrographic,Wanglor,Wanglor,official,7.372531,32.441796,SS-JG,,
-17747,-27480,hydrographic,Yidit,Yidit,official,9.371946,29.14267,SS-UY,,
-17649,-27336,settlement,"Wun Shol","Wun Shol",official,7.1879,28.849554,SS-WR,,
-17476,-22080,hydrographic,"Khor Shelengo","Khor Shelengo",variant,10.25032,29.907973,S1-000,,
-17465,-27089,hydrographic,"River Wau","River Wau",official,7.22763,27.618911,SS-000,,
-16990,-26362,settlement,Vegu,Vegu,official,8.807851,26.030262,SS-BW,,
-17631,-27315,settlement,Wunkir,Wunkir,official,9.007636,33.45383,SS-NU,,
-17558,-27231,hydrographic,"Wit Twat Ga","Wit Twat Ga",variant,8.333333,32.733333,SS-JG,,
-17416,-27004,hydrographic,"Khor Warabum","Khor Warabum",variant,9.941624,33.980851,SS-NU,,
-17464,-27088,settlement,Wau,Wau,official,9.669136,31.710511,SS-NU,,
-17625,-4847,settlement,Bangalo,Bangalo,official,4.808326,30.327643,SS-EW,,
-16964,-26314,hypsographic,Ussua,Ussua,official,4.285309,30.305465,SS-EW,,
-17593,-27273,settlement,Wun,Wun,official,7.906317,29.230089,SS-WR,,
-17767,-27513,settlement,Yolwot,Yolwot,official,10.400992,32.32172,SS-NU,,
-17518,-27174,hypsographic,Wia,Wia,official,5.916667,27.533333,SS-EW,,
-16997,-26371,hypsographic,"Virgin’s Breast","Virgin's Breast",short,4.733333,35.483333,SS-000,,
-17414,-27020,settlement,Warawut,Warawut,official,10.405721,32.522713,SS-NU,,
-17416,-27023,hydrographic,"Khor Warbum","Khor Warbum",official,9.941624,33.980851,SS-NU,,
-17546,-27213,hydrographic,"Khor Wiribetemangu","Khor Wiribetemangu",official,5.47609,29.227322,SS-EW,,
-17495,-27138,settlement,Werakot,Werakot,official,6.962137,29.186986,SS-LK,,
-17604,-27286,settlement,Wunakoich,Wunakoich,official,9.798196,32.145252,SS-NU,,
-17548,-27216,spot,"Wir Liet","Wir Liet",official,7.6623,29.181072,SS-WR,,
-17736,-27515,hydrographic,Yombe,Yombe,variant,5.05,27.95,SS-EW,,
-17776,20082576,hydrographic,Yubo,Yubo,official,6.001369,27.830605,SS-EW,,
-17610,-27292,settlement,Wunamith,Wunamith,official,9.709161,30.750426,SS-UY,,
-17002,-26384,hydrographic,"Khawr Waard","Khawr Waard",variant,8.143659,30.323751,SS-UY,,
-17701,-27413,hydrographic,"Rijl Yappa",RijlYappa,official,4.519657,31.685012,SS-EC,,
-17826,-27616,hydrographic,"Khor Zangu","Khor Zangu",official,5.468297,29.340891,SS-EW,,
-17344,-26933,hydrographic,"Khor Wala","Khor Wala",official,4.778544,30.562653,SS-EC,,
-17639,-27324,settlement,"Wun Kwel","Wun Kwel",official,8.169057,28.654887,SS-WR,,
-17366,-26960,hydrographic,"Khawr Wandida","Khawr Wandida",variant,5.249697,32.128746,SS-000,,
-16898,-26223,settlement,Unfait,Unfait,official,8.703798,27.646788,SS-BN,,
-17331,13835103,settlement,"Vay Kvay","Vay Kvay",variant,8.473279,32.710081,SS-NU,,
-17546,-27212,hydrographic,"Khawr Wiribetemangu","Khawr Wiribetemangu",variant,5.47609,29.227322,SS-EW,,
-16900,-26226,hydrographic,"Khor Ungoa","Khor Ungoa",official,7.381614,27.783605,SS-BW,,
-17373,-26969,hydrographic,"Khor Wang Gnaish","Khor Wang Gnaish",official,9.103661,32.208864,SS-NU,,
-17601,-27283,settlement,Wunagwan,Wunagwan,official,9.734855,32.29012,SS-NU,,
-17453,-27076,settlement,Wa‘th,Wa`th,variant,8.179252,32.152059,SS-JG,,
-17730,-20586,hydrographic,Rodi,Rodi,variant,6.25,30.216667,SS-000,,
-16996,-26370,settlement,Viang,Viang,official,7.958898,28.791132,SS-WR,,
-17673,-27378,settlement,Yafgar,Yafgar,official,8.754637,30.977127,SS-JG,,
-17686,-27393,hydrographic,"Khawr Yakumi","Khawr Yakumi",variant,6.299313,27.182406,SS-EW,,
-17584,-27264,settlement,Wubek,Wubek,official,9.827957,30.078947,SS-UY,,
-17491,11539049,hypsographic,"Jabel Wemmi","Jabel Wemmi",official,5.247469,29.833689,SS-EW,,
-16897,12232393,hypsographic,"Jebel Undutu","Jebel Undutu",variant,8.996328,25.717217,SS-BW,,
-17667,-27366,hydrographic,Yabangwa,Yabangwa,official,8.383716,24.405233,SS-BW,,
-17147,-26560,settlement,"Wad Baţţah","Wad Battah",variant,11.9639,33.0194,SS-NU,,
-16904,-26230,hydrographic,Ungulu,Ungulu,official,6.16058,28.692494,SS-LK,,
-16988,-26357,hydrographic,"River Uze","River Uze",variant,4.554227,28.324881,SS-EW,,
-17559,13124165,hypsographic,Wiyu,Wiyu,official,4.010325,30.283046,SS-EW,,
-17419,-27026,hydrographic,"Khawr Wargau","Khawr Wargau",variant,8.918801,32.175919,SS-NU,,
-17367,-26962,hydrographic,"Wandi Rapids","Wandi Rapids",official,4.641975,30.456962,SS-EC,,
-17413,-27018,settlement,Warawar,Warawar,official,7.850397,31.686969,SS-JG,,
-17558,-27233,hydrographic,"Wi Twat Ga","Wi Twat Ga",official,8.333333,32.733333,SS-JG,,
-17385,-26984,settlement,Wankarkh,Wankarkh,official,8.301005,29.963061,SS-UY,,
-17772,-27522,settlement,Yoynyang,Yoynyang,official,9.291093,29.790608,SS-UY,,
-11073,-17273,settlement,Megiri,Megiri,official,4.038056,30.597222,SS-EC,,
-17615,-27293,settlement,Wunangwi,Wunangwi,variant,10.816537,32.596813,SS-NU,,
-17330,-26913,hydrographic,"Khawr Waikiri","Khawr Waikiri",variant,7.165669,26.398393,SS-BW,,
-16939,-26277,settlement,Uriang,Uriang,official,8.061774,32.246802,SS-JG,,
-17823,-27612,settlement,Zanga,Zanga,official,8.124845,25.576178,SS-BW,,
-16992,-26365,hydrographic,"Khor Vengi","Khor Vengi",variant,6.4,26.35,SS-EW,,
-17603,-27285,settlement,Wunakir,Wunakir,official,9.244744,31.68019,SS-JG,,
-17733,-27456,settlement,Yelgo,Yelgo,variant,10.010624,33.50947,SS-NU,,
-17555,-27228,hydrographic,"Wi Teip","Wi Teip",official,8.040969,32.487846,SS-JG,,
-17665,-27361,settlement,Wuthol,Wuthol,official,9.268189,31.638135,SS-000,,
-17504,-27151,hydrographic,"Khawr Werr","Khawr Werr",variant,6.920153,31.751289,SS-JG,,
-17642,-27327,settlement,Wunkwil,Wunkwil,official,8.644319,33.719786,SS-NU,,
-17305,-26876,hypsographic,"Jabal Wadu","Jabal Wadu",variant,4.198167,30.294957,SS-EW,,
-17868,-27669,hypsographic,"Jabal Zaynī","Jabal Zayni",official,8.541374,24.903446,SS-BW,,
-17397,-26996,hydrographic,"Khawr Wara","Khawr Wara",variant,3.83792,31.275418,SS-EC,,
-17759,-8798,settlement,Erua,Erua,variant,7.779957,27.226942,SS-BW,,
-16977,-4409,settlement,Awel,Awel,variant,8.761944,27.391944,SS-BN,,
-16985,-26353,hydrographic,"Khor Uyukmgu","Khor Uyukmgu",variant,7.555006,25.405777,SS-BW,,
-17624,-27308,settlement,Wundong,Wundong,official,8.980732,31.277308,SS-JG,,
-17660,-27349,settlement,Wunyat,Wunyat,official,10.607881,32.556932,SS-NU,,
-17416,-27022,hydrographic,"Khawr Warbum","Khawr Warbum",variant,9.941624,33.980851,SS-NU,,
-17679,-27386,hydrographic,"Khor Yair","Khor Yair",official,8.307973,30.139993,SS-UY,,
-16889,-26211,spot,Unalung,Unalung,official,9.326202,26.899186,SS-BN,,
-17082,-26662,settlement,"Wad el Mak","Wad el Mak",official,8.073044,27.010165,SS-BN,,
-17579,-27259,hypsographic,"Jabal Woteng","Jabal Woteng",variant,4.726476,33.905003,SS-EE,,
-17689,-27399,settlement,Yamarogo,Yamarogo,official,7.672083,26.209408,SS-BW,,
-17629,-27313,settlement,Wuniyer,Wuniyer,official,10.293132,32.485775,SS-NU,,
-17355,-26947,settlement,"Wal Athiang","Wal Athiang",official,7.711842,29.670198,SS-LK,,
-17669,-27364,hydrographic,Yaa,Yaa,variant,9.866172,33.543605,SS-NU,,
-16879,-26189,hydrographic,"Umm Zumaym","Umm Zumaym",variant,9.638438,29.175741,SS-UY,,
-17685,-27392,hypsographic,"Jabal Yakka","Jabal Yakka",official,8.870825,25.238769,SS-BW,,
-17756,-27491,hydrographic,"Khawr Yirongo","Khawr Yirongo",variant,9.587461,24.229603,SS-BW,,
-16924,-26257,settlement,Urao,Urao,official,7.796706,28.474531,SS-WR,,
-17388,-26987,settlement,Wantok,Wantok,official,6.821859,29.684486,SS-LK,,
-17640,-27325,settlement,"Wun Kwel","Wun Kwel",official,8.304097,29.230436,SS-WR,,
-17728,-27449,settlement,Yei,Yei,official,4.094444,30.676389,SS-EC,,
-17686,-27394,hydrographic,"Khor Yakumi","Khor Yakumi",variant,6.299313,27.182406,SS-EW,,
-17534,-27195,settlement,Wilniang,Wilniang,variant,9.409908,31.311667,SS-NU,,
-17652,-27339,settlement,Wuntau,Wuntau,official,10.264813,32.558806,SS-NU,,
-16941,-26279,settlement,Uriang,Uriang,official,10.616004,32.177646,SS-NU,,
-17000,-26376,hydrographic,"Khor Vungo","Khor Vungo",official,9.309266,24.522881,SS-BW,,
-17496,-27140,hydrographic,"Khor Werdok","Khor Werdok",official,6.518972,34.414283,SS-JG,,
-17831,13092145,hydrographic,"Bahr El Zeraf","Bahr El Zeraf",variant,9.413819,31.163462,SS-000,,
-17741,-27471,settlement,Yenanoi,Yenanoi,official,9.153156,31.533408,SS-JG,,
-17637,-27321,settlement,Wunkur,Wunkur,official,9.691027,30.781001,SS-NU,,
-17846,-27640,hydrographic,"Raqabat az Zarqā’","Raqabat az Zarqa'",variant,9.256483,29.756754,SS-UY,,
-17596,-27277,hydrographic,Wunador,Wunador,official,8.831153,31.842816,SS-JG,,
-17804,-27580,hydrographic,"Khor Zaka","Khor Zaka",official,7.5512,26.051267,SS-BW,,
-17733,-27458,settlement,Yēlqu,Yelqu,variant,10.010624,33.50947,SS-NU,,
-17000,-26375,hydrographic,"Khawr Vungo","Khawr Vungo",variant,9.309266,24.522881,SS-BW,,
-17871,-27673,hydrographic,"Khor Zazi","Khor Zazi",official,5.203349,29.084775,SS-EW,,
-17846,-18797,hydrographic,"Khor Ngol","Khor Ngol",variant,9.256483,29.756754,SS-UY,,
-17159,-26580,settlement,Wadda,Wadda,official,9.2405,24.256275,SS-BW,,
-17365,-27297,settlement,Wunarah,Wunarah,variant,6.122169,31.245986,SS-LK,,
-17367,13117463,hydrographic,"Mandi Rapids","Mandi Rapids",variant,4.641975,30.456962,SS-EC,,
-17735,-27461,hydrographic,"River Yemba","River Yemba",variant,4.707318,28.86769,SS-EW,,
-17697,-27409,settlement,Yangenya,Yangenya,official,8.871781,26.153188,SS-BW,,
-17581,-27261,park,Wowa,Wowa,official,6.059589,34.562416,SS-JG,,
-16908,11503470,hypsographic,"Jebel Ungwanjini","Jebel Ungwanjini",variant,7.840069,25.814502,SS-BW,,
-17464,-27096,settlement,Wāw,Waw,variant,9.669136,31.710511,SS-NU,,
-17599,-27280,settlement,Wunaget,Wunaget,official,9.052409,32.385143,SS-NU,,
-17483,-27121,settlement,Weidany,Weidany,official,7.720774,32.942747,SS-JG,,
-17566,-27243,settlement,Woinglck,Woinglck,variant,8.414037,28.650126,SS-WR,,
-17630,-27314,settlement,Wunkel,Wunkel,official,6.657779,30.924436,SS-LK,,
-17669,-24103,hydrographic,"Khor Tol","Khor Tol",variant,9.866172,33.543605,SS-NU,,
-17869,-27701,hydrographic,"Khor Zeini","Khor Zeini",official,8.478993,24.896298,SS-BW,,
-17608,-27290,settlement,Wunalong,Wunalong,official,9.259045,31.670067,SS-JG,,
-17368,-26963,hydrographic,"Rijl Wanga",RijlWanga,official,4.872265,31.641567,SS-EC,,
-17553,-27223,settlement,Wishia,Wishia,official,8.346952,26.783981,SS-BN,,
-17369,-26964,hydrographic,Wangalai,Wangalai,official,8.566667,33.7,SS-NU,,
-17506,-27159,park,"Western Nuer","Western Nuer",short,9,30,SS-UY,,
-17686,12369874,hydrographic,Yakumi,Yakumi,official,6.299313,27.182406,SS-EW,,
-17476,-27112,hydrographic,"Khor Wedei","Khor Wedei",official,10.25032,29.907973,S1-000,,
-17426,-27036,settlement,Wariti,Wariti,official,5.144137,30.566015,SS-EW,,
-17763,-27508,park,Yoing,Yoing,official,9.758476,31.873598,SS-NU,,
-16902,11503472,hypsographic,"Jebel Ungubu","Jebel Ungubu",variant,7.404627,25.562047,SS-BW,,
-17351,-26943,hydrographic,"Khor Waladok","Khor Waladok",official,7.782037,31.069528,SS-JG,,
-17547,-27215,hydrographic,"Khor Wiri Yiba","Khor Wiri Yiba",official,5.002635,28.744487,SS-EW,,
-16879,-26190,hydrographic,"Umm Zumeim","Umm Zumeim",official,9.638438,29.175741,SS-UY,,
-17453,-26388,settlement,Wa‘at,Wa`at,official,8.179252,32.152059,SS-JG,,
-17737,-27466,hydrographic,"Khor Yembi","Khor Yembi",official,4.622219,30.377857,SS-000,,
-17709,-27423,settlement,Yarkwaich,Yarkwaich,official,8.93113,32.413081,SS-JG,,
-17592,-27272,spot,Wun,Wun,official,7.849225,28.570484,SS-WR,,
-17754,-27489,settlement,Yirol,Yirol,official,6.5525,30.498056,SS-LK,,
-17456,-27079,settlement,"Wath Kech","Wath Kech",variant,9.452849,30.804983,SS-JG,,
-17557,-27230,hydrographic,Wito,Wito,variant,5.469436,30.751954,SS-EW,,
-17755,-27490,hydrographic,"Lake Yirol","Lake Yirol",official,6.570162,30.494176,SS-LK,,
-17590,-27270,settlement,Wulikare,Wulikare,official,5.083069,31.469173,SS-EC,,
-17541,-27204,hydrographic,Winji,Winji,official,9.566667,24.6,SS-BW,,
-17357,-26951,settlement,Walichmar,Walichmar,official,6.780055,33.096456,SS-JG,,
-17383,-26980,spot,"Wani Mika","Wani Mika",official,5.609925,31.691972,SS-EC,,
-18138,-27154,administrative_region,"Province of West Equatoria","Province of West Equatoria",short,5.5,28.5,SS-EW,,
-16908,-26234,hypsographic,"Jabal Ungwanjini","Jabal Ungwanjini",official,7.840069,25.814502,SS-BW,,
-17661,-27351,settlement,Wurang,Wurang,official,10.261386,32.583267,SS-NU,,
-17482,-27120,settlement,Weibuon,Weibuon,official,8.592133,33.038586,SS-NU,,
-17476,-21699,hydrographic,"Khor Shalango","Khor Shalango",variant,10.25032,29.907973,S1-000,,
-17778,-27527,hydrographic,"Khor Yubo","Khor Yubo",variant,5.116667,27.75,SS-EW,,
-17831,-27711,hydrographic,"Bahr ez Zeraf","Bahr ez Zeraf",official,9.413819,31.163462,SS-000,,
-17583,13116838,hydrographic,"River Wowo","River Wowo",official,4.71301,29.136143,SS-EW,,
-17871,-27672,hydrographic,"Khawr Zazi","Khawr Zazi",variant,5.203349,29.084775,SS-EW,,
-17777,-27526,hydrographic,"Khor Yubo","Khor Yubo",variant,5.033333,27.666667,SS-EW,,
-17688,-27397,settlement,Yali,Yali,official,6.640391,30.455429,SS-LK,,
-17846,-10612,hydrographic,Gnol,Gnol,variant,9.256483,29.756754,SS-UY,,
-17826,-27615,hydrographic,"Khawr Zangu","Khawr Zangu",variant,5.468297,29.340891,SS-EW,,
-17701,-27377,hydrographic,Yaffa,Yaffa,variant,4.519657,31.685012,SS-EC,,
-17648,-27334,settlement,Wunshaiye,Wunshaiye,official,7.136785,33.800835,SS-JG,,
-17619,-27303,settlement,Wunbut,Wunbut,official,11.883333,32.8,SS-NU,,
-17566,-27244,settlement,Woinglek,Woinglek,official,8.414037,28.650126,SS-WR,,
-17607,-27289,settlement,"Wun Aliet","Wun Aliet",official,7.220101,30.324686,SS-UY,,
-17524,-27182,settlement,Widhong,Widhong,official,9.820098,30.283735,SS-UY,,
-17634,-27318,settlement,Wunkok,Wunkok,official,6.878886,33.073892,SS-JG,,
-17685,12232358,hypsographic,"Jebel Yakka","Jebel Yakka",variant,8.870825,25.238769,SS-BW,,
-17669,-9835,hydrographic,Galla,Galla,variant,9.866172,33.543605,SS-NU,,
-17692,-27402,settlement,Yamma,Yamma,official,8.287516,27.878853,SS-BN,,
-17662,-27352,settlement,Wuriyang,Wuriyang,official,9.000663,31.524944,SS-JG,,
-16981,-26348,hydrographic,Uwelisere,Uwelisere,official,6.066667,27,SS-EW,,
-17477,-27113,settlement,Wedweil,Wedweil,official,9.00016,27.190538,SS-BN,,
-17559,-27234,hypsographic,"Jabal Wiyu","Jabal Wiyu",variant,4.010325,30.283046,SS-EW,,
-17501,-27146,settlement,"Wer Ngorp","Wer Ngorp",variant,10.058416,30.117626,SS-UY,,
-17475,-27110,hydrographic,"Khor Webwi","Khor Webwi",official,5.37858,29.767311,SS-EW,,
-17452,-26387,settlement,Waat,Waat,official,7.398012,28.931725,SS-WR,,
-16902,-26228,hypsographic,"Jabal Ungubu","Jabal Ungubu",official,7.404627,25.562047,SS-BW,,
-16937,-26274,hydrographic,"Khor Ureni","Khor Ureni",official,9.023773,23.98733,SS-BW,,
-17501,13581137,settlement,"Wer Ngurp","Wer Ngurp",official,10.058416,30.117626,SS-UY,,
-17701,20082579,hydrographic,Yappa,Yappa,official,4.519657,31.685012,SS-EC,,
-17598,-27279,settlement,Wunagak,Wunagak,official,9.286742,32.088135,SS-NU,,
-17700,-27412,hydrographic,"Lake Yangyom","Lake Yangyom",official,9.041433,27.931971,SS-WR,,
-17833,-27715,spot,"Meshra‘ ez Zerāf","Meshra` ez Zeraf",variant,10.845252,32.476887,SS-NU,,
-17510,-27163,hydrographic,Weygwori,Weygwori,official,8.743541,31.22707,SS-JG,,
-10998,-17171,hydrographic,Mayan,Mayan,official,7.607636,31.627746,SS-JG,,
-16977,-4404,settlement,Aweil,Aweil,official,8.761944,27.391944,SS-BN,,
-17382,-26979,settlement,Wani,Wani,official,5.627897,31.711614,SS-EC,,
-17709,13824775,settlement,Yarkvaych,Yarkvaych,variant,8.93113,32.413081,SS-JG,,
-16999,-26374,settlement,Vulu,Vulu,official,9.319924,24.597858,SS-BW,,
-17600,-27282,settlement,"Wunagoi Din","Wunagoi Din",variant,9.073033,32.381473,SS-NU,,
-17096,-26676,hydrographic,"Wad en Nasir","Wad en Nasir",official,11.016667,32.833333,SS-NU,,
-17331,-26915,settlement,"Wai Kwai","Wai Kwai",official,8.473279,32.710081,SS-NU,,
-17433,-27045,settlement,Warrit,Warrit,official,11.543,32.7531,SS-NU,,
-16994,-26367,settlement,Verlingai,Verlingai,official,5.84267,30.831946,SS-EC,,
-17771,-27520,settlement,Yor,Yor,official,8.288081,32.926374,SS-NU,,
-17646,-27332,settlement,"Wun Roj","Wun Roj",variant,8.989773,28.302598,SS-WR,,
-17918,-27775,settlement,Zungumbia,Zungumbia,official,7.215361,28.730342,SS-WR,,
-17420,-27028,settlement,"War Gel","War Gel",official,7.934548,29.201346,SS-WR,,
-16884,-26197,settlement,Umo,Umo,official,4.067212,31.739656,SS-EC,,
-17669,-27372,hydrographic,Yabus,Yabus,variant,9.866172,33.543605,SS-NU,,
-17377,-26973,settlement,Wanglat,Wanglat,official,9.047792,28.458068,SS-WR,,
-17456,-27080,settlement,"Wath Wang Kech","Wath Wang Kech",official,9.452849,30.804983,SS-JG,,
-17353,-26945,hydrographic,"War Walai","War Walai",official,8.162379,29.259181,SS-WR,,
-17728,-27478,settlement,Yēy,Yey,variant,4.094444,30.676389,SS-EC,,
-17374,-10328,settlement,"Ghābat al ‘Arab","Ghabat al `Arab",variant,9.087015,29.454693,SS-UY,,
-16937,-26273,hydrographic,"Khawr Ureni","Khawr Ureni",variant,9.023773,23.98733,SS-BW,,
-17894,-27736,settlement,Zingwanda,Zingwanda,official,7.158059,27.935513,SS-BW,,
-17765,-27511,settlement,Yokwai,Yokwai,official,4.416996,31.56804,SS-EC,,
-17082,-26481,settlement,"Wad al Mak","Wad al Mak",variant,8.073044,27.010165,SS-BN,,
-17418,-27029,hydrographic,Wargur,Wargur,variant,8.973689,31.089964,SS-JG,,
-17669,-27371,hydrographic,"Khawr Yābūs","Khawr Yabus",variant,9.866172,33.543605,SS-NU,,
-16905,-26231,hydrographic,"Khor Unguyu","Khor Unguyu",official,8.083827,25.145701,SS-BW,,
-17527,-27186,settlement,Wijur,Wijur,official,9.265789,32.090539,SS-NU,,
-17881,-27708,hydrographic,"Khawr Zengu","Khawr Zengu",variant,5.30833,28.268187,SS-EW,,
-17462,-27094,settlement,Wāw,Waw,variant,8.252854,31.37059,SS-JG,,
-16907,11503471,hypsographic,"Jebel Ungwa","Jebel Ungwa",variant,7.310077,25.697441,SS-BW,,
-17437,-27051,settlement,Waruga,Waruga,official,3.661659,30.694942,SS-EC,,
-18138,-12653,administrative_region,"Al Mudīrīyah al Istiwā’īyah al Gharbīyah","Al Mudiriyah al Istiwa'iyah al Gharbiyah",variant,5.5,28.5,SS-EW,,
-17330,-26914,hydrographic,"Khor Waikiri","Khor Waikiri",official,7.165669,26.398393,SS-BW,,
-17341,-26928,settlement,Wakela,Wakela,official,7.387681,28.207607,SS-BW,,
-17480,-26907,hydrographic,"Khor Wahfet","Khor Wahfet",variant,10.795556,32.494495,SS-NU,,
-17539,-27202,settlement,Winejok,Winejok,official,9.012222,27.570815,SS-BN,,
-17370,-26965,settlement,Wangbop,Wangbop,official,8.569013,33.073653,SS-NU,,
-17461,-27085,settlement,Wau,Wau,official,7.701111,27.989722,SS-BW,,
-17502,-27149,settlement,Weroja,Weroja,official,5.146091,30.826166,SS-EW,,
-17710,-27424,hypsographic,"Jabal Yarra","Jabal Yarra",variant,5.52609,29.173817,SS-EW,,
-17576,-27256,hydrographic,"Wor Char","Wor Char",official,9.501423,30.126522,SS-UY,,
-17727,-27448,settlement,"Yegi Yegi","Yegi Yegi",official,4.731468,32.650124,SS-EE,,
-17568,-27246,settlement,Wokoi,Wokoi,official,3.860717,31.522028,SS-EC,,
-17635,-27319,settlement,"Wun Kote","Wun Kote",official,7.723711,29.032559,SS-WR,,
-17708,-27422,settlement,Yari,Yari,official,3.863033,30.755691,SS-EC,,
-17669,-14405,hydrographic,Kizi,Kizi,variant,9.866172,33.543605,SS-NU,,
-17147,-26559,settlement,"Wad Batta","Wad Batta",official,11.9639,33.0194,SS-NU,,
-16913,-26242,settlement,Uphal,Uphal,official,6.968196,34.272913,SS-JG,,
-17710,11539039,hypsographic,"Jabel Yarra","Jabel Yarra",official,5.52609,29.173817,SS-EW,,
-17664,-27360,settlement,Wuthoing,Wuthoing,official,9.010079,29.825568,SS-UY,,
-17490,-27133,settlement,Welamoi,Welamoi,official,4.526208,33.361817,SS-EE,,
-17534,-27196,settlement,Wilnyang,Wilnyang,official,9.409908,31.311667,SS-NU,,
-17360,-26954,spot,"Wal Kir Dul","Wal Kir Dul",official,8.119426,33.152794,SS-NU,,
-17462,-27086,settlement,Wau,Wau,official,8.252854,31.37059,SS-JG,,
-17351,-26942,hydrographic,"Khawr Waladok","Khawr Waladok",variant,7.782037,31.069528,SS-JG,,
-16949,-26290,hydrographic,Uru,Uru,official,5.279021,28.921095,SS-EW,,
-17679,-27385,hydrographic,"Khawr Yair","Khawr Yair",variant,8.307973,30.139993,SS-UY,,
-17898,-27740,hydrographic,"Khawr Zoggo","Khawr Zoggo",variant,5.931551,29.93843,SS-EW,,
-17401,-27003,settlement,Warabol,Warabol,official,6.403253,29.758092,SS-LK,,
-17381,-26978,settlement,"Wanh Alet","Wanh Alet",official,7.515662,28.878524,SS-WR,,
-17736,-27462,hydrographic,"Khawr Yembe","Khawr Yembe",variant,5.05,27.95,SS-EW,,
-17541,-27483,hydrographic,Yindi,Yindi,variant,9.566667,24.6,SS-BW,,
-17699,-27411,settlement,Yanguba,Yanguba,official,8.025912,26.042965,SS-BW,,
-17737,-27465,hydrographic,"Khawr Yembi","Khawr Yembi",variant,4.622219,30.377857,SS-000,,
-16985,11503468,hydrographic,"Khor Uyukungu","Khor Uyukungu",official,7.555006,25.405777,SS-BW,,
-16940,-26278,settlement,Uriang,Uriang,official,8.752986,32.76,SS-NU,,
-17613,-27296,settlement,Wunapith,Wunapith,official,8.946941,31.790357,SS-JG,,
-17503,-27150,settlement,"Wer Ping","Wer Ping",official,9.456458,28.906982,SS-UY,,
-17545,-27211,hydrographic,"River Wiribadi","River Wiribadi",variant,4.620918,28.583931,SS-EW,,
-17732,-27454,settlement,Yelakot,Yelakot,official,5.922855,31.619409,SS-LK,,
-17695,-27406,hypsographic,Yandu,Yandu,official,6.766667,26.483333,SS-BW,,
-17454,-23274,hypsographic,Tapeisi,Tapeisi,variant,5.3,35.433333,SS-EE,,
-17645,-27330,settlement,"Wun Liyu","Wun Liyu",official,8.920897,28.349643,SS-WR,,
-17494,-27137,settlement,"Wen Kwel","Wen Kwel",variant,8.161828,28.03312,SS-BW,,
-17620,-27304,spot,"Wun Chwei","Wun Chwei",official,5.936814,31.556342,SS-LK,,
-16900,-26225,hydrographic,"Khawr Ungoa","Khawr Ungoa",variant,7.381614,27.783605,SS-BW,,
-17724,-27445,settlement,Yebisak,Yebisak,official,5.822872,31.773734,SS-EC,,
-17914,-27771,hydrographic,"Khor Zumbi","Khor Zumbi",official,4.460401,29.185467,SS-EW,,
-17748,-27481,settlement,Yih,Yih,official,9.031056,32.909531,SS-NU,,
-17379,-26975,hydrographic,Wango,Wango,official,6.800606,28.500869,SS-WR,,
-17427,-27037,settlement,"War Kwel","War Kwel",official,9.200071,26.911265,SS-BN,,
-17441,-27058,hypsographic,"Jabal Wasati","Jabal Wasati",official,9.890304,25.793351,SS-BW,,
-17632,-27316,settlement,Wunkir,Wunkir,official,9.036874,32.151776,SS-NU,,
-16899,-26224,hypsographic,"Jabal Ungbongbo","Jabal Ungbongbo",official,7.913306,26.180729,SS-BW,,
-17669,-879300,hydrographic,"Khor Yabus","Khor Yabus",official,9.866172,33.543605,SS-NU,,
-17422,-27032,settlement,Warikango,Warikango,official,4.282663,31.000978,SS-EC,,
-17730,-27452,hydrographic,"River Yei",RiverYei,official,6.25,30.216667,SS-000,,
-17742,-27472,hydrographic,"Yerbora Rapids","Yerbora Rapids",official,3.956675,31.706703,SS-EC,,
-17494,-15285,settlement,Kwel,Kwel,variant,8.161828,28.03312,SS-BW,,
-17606,-27288,settlement,Wunaleng,Wunaleng,official,5.64955,31.198343,SS-EC,,
-17879,20082575,hydrographic,Zemba,Zemba,official,5.033333,28.616667,SS-EW,,
-18138,-27158,administrative_region,"Western Equatoria","Western Equatoria",variant,5.5,28.5,SS-EW,,
-17438,-27052,settlement,Warweng,Warweng,official,8.98552,33.4516,SS-NU,,
-17547,-27214,hydrographic,"Khawr Wiri Yiba","Khawr Wiri Yiba",variant,5.002635,28.744487,SS-EW,,
-16891,-26213,settlement,Unarol,Unarol,official,9.224832,27.008006,SS-BN,,
-17359,-26953,hypsographic,"Jabal Walinga","Jabal Walinga",official,9.590067,25.443192,SS-BW,,
-17669,-14546,hydrographic,Koma,Koma,variant,9.866172,33.543605,SS-NU,,
-16891,-26214,settlement,Unarul,Unarul,variant,9.224832,27.008006,SS-BN,,
-17306,-26878,hydrographic,"Khor Wadudu","Khor Wadudu",official,10.493053,33.019003,SS-NU,,
-17005,-26392,settlement,Wabuit,Wabuit,official,9.488533,32.157351,SS-NU,,
-17508,-27161,settlement,Weth,Weth,official,8.909813,33.088692,SS-NU,,
-17496,-27139,hydrographic,"Khawr Werdok","Khawr Werdok",variant,6.518972,34.414283,SS-JG,,
-16913,-26241,settlement,Upal,Upal,variant,6.968196,34.272913,SS-JG,,
-17406,-27011,hypsographic,"Jabal Waranja","Jabal Waranja",official,9.371516,24.045277,SS-BW,,
-17647,-27333,settlement,"Wun Rual","Wun Rual",official,7.259722,30.359722,SS-UY,,
-17545,-27210,hydrographic,"Khor Wiribadi","Khor Wiribadi",official,4.620918,28.583931,SS-EW,,
-17696,-27408,hydrographic,"Khor Yanga","Khor Yanga",official,8.146226,26.392081,SS-BN,,
-17415,-27021,settlement,"War Bok","War Bok",official,8.0546,29.428809,SS-WR,,
-17455,-27078,settlement,"Wath Jak","Wath Jak",official,9.13509,29.583622,SS-UY,,
-17475,-27109,hydrographic,"Khawr Webwi","Khawr Webwi",variant,5.37858,29.767311,SS-EW,,
-17299,-26869,settlement,"Wad Tabir","Wad Tabir",official,10.419626,33.232897,SS-NU,,
-17004,-26389,hydrographic,"Khawr Waat","Khawr Waat",variant,6.329901,31.365975,SS-LK,,
-17687,-27396,settlement,Yala,Yala,official,8.065171,27.338554,SS-BW,,
-17675,-27381,settlement,Yagura,Yagura,variant,8.085885,25.990423,SS-BW,,
-17777,-27531,hydrographic,"Khawr Yubu","Khawr Yubu",official,5.033333,27.666667,SS-EW,,
-17625,-27309,settlement,Wuneba,Wuneba,variant,4.808326,30.327643,SS-EW,,
-17573,-27253,settlement,Wontoi,Wontoi,official,10.465054,32.467935,SS-NU,,
-17366,-26961,hydrographic,"Khor Wandida","Khor Wandida",official,5.249697,32.128746,SS-000,,
-17804,-27579,hydrographic,"Khawr Zaka","Khawr Zaka",variant,7.5512,26.051267,SS-BW,,
-17419,-27027,hydrographic,"Khor Wargau","Khor Wargau",official,8.918801,32.175919,SS-NU,,
-17577,-27257,settlement,Woroworo,Woroworo,official,4.238944,33.074113,SS-EE,,
-17493,-27136,settlement,Wen,Wen,official,8.280656,27.628049,SS-BW,,
-17397,-26997,hydrographic,"Khor Wara","Khor Wara",official,3.83792,31.275418,SS-EC,,
-17668,-27367,hydrographic,"Khor Yabongo","Khor Yabongo",official,4.70333,28.305483,SS-EW,,
-17526,-27185,settlement,Wijbur,Wijbur,official,9.771435,31.899219,SS-NU,,
-17652,-27345,settlement,Wunua,Wunua,variant,10.264813,32.558806,SS-NU,,
-10997,-17170,settlement,Mayalla,Mayalla,official,6.511989,29.604147,SS-LK,,
-16988,-26356,hydrographic,"Khor Uze","Khor Uze",official,4.554227,28.324881,SS-EW,,
-17569,-27248,hydrographic,"Khor Wol","Khor Wol",official,9.874594,32.132223,SS-NU,,
-17914,-27770,hydrographic,"Khawr Zumbi","Khawr Zumbi",variant,4.460401,29.185467,SS-EW,,
-18138,-10381,administrative_region,"Gharb al Istiwaiyya","Gharb al Istiwaiyya",variant,5.5,28.5,SS-EW,,
-16995,-19186,hydrographic,Nyangkubal,Nyangkubal,variant,6.666498,32.96463,SS-000,,
-17644,-27329,settlement,"Wun Lit","Wun Lit",official,8.404458,28.646314,SS-WR,,
-17669,-12403,hydrographic,"Chor Iabus","Chor Iabus",variant,9.866172,33.543605,SS-NU,,
-17396,-26995,hydrographic,Wara,Wara,official,6.088737,28.447606,SS-EW,,
-17398,-26998,settlement,War-a-Bak,War-a-Bak,official,9.143914,27.612006,SS-BN,,
-17623,-27307,settlement,Wundong,Wundong,official,7.463623,30.455306,SS-UY,,
-17745,-27477,hydrographic,"Khor Yeta","Khor Yeta",official,5.012975,28.582574,SS-EW,,
-17376,13535767,hydrographic,Vangkvat,Vangkvat,variant,10.150984,30.07825,SS-UY,,
-17329,-26912,settlement,Waijung,Waijung,official,8.892687,28.190349,SS-WR,,
-17833,13255604,spot,"Meshra‘ Zeraf","Meshra` Zeraf",official,10.845252,32.476887,SS-NU,,
-17579,14514956,hypsographic,Woteng,Woteng,official,4.726476,33.905003,SS-EE,,
-17368,20082580,hydrographic,Wanga,Wanga,official,4.872265,31.641567,SS-EC,,
-17790,-27553,settlement,"Yusuf Batil","Yusuf Batil",official,10.017733,33.545762,SS-NU,,
-17520,-27177,hydrographic,Wiangheir,Wiangheir,official,8.230353,26.634895,SS-BN,,
-17532,-27193,settlement,Willa,Willa,official,9.076134,29.205803,SS-UY,,
-17556,-27229,settlement,Witia,Witia,official,7.586004,27.798249,SS-BW,,
-17380,-26977,settlement,"Wang Tar","Wang Tar",official,9.431185,30.989238,SS-JG,,
-17497,-27142,hydrographic,Wereboid,Wereboid,variant,6.939097,29.706012,SS-LK,,
-17557,-27232,hydrographic,"River Witu","River Witu",official,5.469436,30.751954,SS-EW,,
-17751,-27486,settlement,Yinkusa,Yinkusa,official,9.830233,30.051911,SS-UY,,
-16993,-26366,settlement,Verikoka,Verikoka,official,5.143648,30.848697,SS-EW,,
-17879,-27705,hydrographic,"River Zemba",RiverZemba,official,5.033333,28.616667,SS-EW,,
-17605,-27287,settlement,Wunalam,Wunalam,official,9.094212,31.736794,SS-JG,,
-16897,-26222,hypsographic,"Jabal Undutu","Jabal Undutu",official,8.996328,25.717217,SS-BW,,
-17390,-26989,hydrographic,Wapu,Wapu,official,4.145223,30.533092,SS-EC,,
-16998,-26372,hydrographic,"Khor Vokada","Khor Vokada",official,3.884358,31.979666,SS-EE,,
-17650,-27337,settlement,"Wun Shwai","Wun Shwai",official,8.012894,29.451569,SS-WR,,
-17869,-27670,hydrographic,"Khawr Zaynī","Khawr Zayni",variant,8.478993,24.896298,SS-BW,,
-17690,-27400,settlement,Yambio,Yambio,official,4.570833,28.394167,SS-EW,,
-17476,-27111,hydrographic,"Khawr Wedei","Khawr Wedei",variant,10.25032,29.907973,S1-000,,
-17389,-26988,settlement,Wanyang,Wanyang,official,5.448472,31.835957,SS-EC,,
-17473,-27106,hydrographic,"Khor Waywil","Khor Waywil",official,7.607338,29.739184,SS-LK,,
-17372,-26967,hydrographic,"Wang Gai","Wang Gai",official,8.421612,30.641251,SS-JG,,
-17775,-27528,hydrographic,"River Yubo",RiverYubo,official,5.058262,28.239822,SS-EW,,
-17516,-4841,hydrographic,Bandula,Bandula,variant,6.113261,27.78,SS-EW,,
-16965,-26316,settlement,Utalo,Utalo,official,7.12055,33.829831,SS-JG,,
-17376,-26972,hydrographic,Wangkwat,Wangkwat,official,10.150984,30.07825,SS-UY,,
-17597,-27278,settlement,Wunadup,Wunadup,official,10.282633,32.570489,SS-NU,,
-16907,-26233,hypsographic,"Jabal Ungwa","Jabal Ungwa",official,7.310077,25.697441,SS-BW,,
-17066,-26464,settlement,"Wad ’Ali","Wad 'Ali",official,7.553188,28.037996,SS-BW,,
-17594,-27274,spot,"Wun Abiyei","Wun Abiyei",official,5.990361,31.538481,SS-LK,,
-17477,-27114,settlement,"Wed Wel","Wed Wel",variant,9.00016,27.190538,SS-BN,,
-17778,-27532,hydrographic,"Khawr Yubu","Khawr Yubu",official,5.116667,27.75,SS-EW,,
-17643,-27328,settlement,"Wun Liet","Wun Liet",official,8.794529,28.222961,SS-WR,,
-17725,-27446,settlement,Yedid,Yedid,official,8.200694,32.271931,SS-JG,,
-17745,-27476,hydrographic,"Khawr Yeta","Khawr Yeta",variant,5.012975,28.582574,SS-EW,,
-17676,-27382,hydrographic,"Khor Yaguro","Khor Yaguro",official,8.009634,25.15624,SS-BW,,
-17002,-26385,hydrographic,"Khor Waard","Khor Waard",official,8.143659,30.323751,SS-UY,,
-17569,-27247,hydrographic,"Khawr Wol","Khawr Wol",variant,9.874594,32.132223,SS-NU,,
-17428,-27039,settlement,"War Mabwoit","War Mabwoit",official,9.132685,27.957119,SS-WR,,
-17775,-27534,hydrographic,"River Yubu","River Yubu",variant,5.058262,28.239822,SS-EW,,
-17778,-27533,hydrographic,"Khor Yubu","Khor Yubu",variant,5.116667,27.75,SS-EW,,
-17262,-26817,hydrographic,Wadpir,Wadpir,official,8.831448,31.297551,SS-JG,,
-17650,-27335,settlement,"Wun Shaway","Wun Shaway",variant,8.012894,29.451569,SS-WR,,
-14933,-23268,settlement,Tankariat,Tankariat,official,5.587552,31.274344,SS-EC,,
-15231,-23708,settlement,Thar,Thar,variant,7.426918,30.476567,SS-UY,,
-15238,-23719,settlement,Thepkeni,Thepkeni,official,9.337391,29.677312,SS-UY,,
-16348,-25364,settlement,"Umm Ḩijār","Umm Hijar",variant,9.405418,24.459204,SS-BW,,
-15385,-23934,settlement,Tirangole,Tirangole,official,4.478815,32.817078,SS-EE,,
-15868,-24612,settlement,Ueli,Ueli,official,4.494216,31.027152,SS-EC,,
-15292,-23790,settlement,Tidfok,Tidfok,official,9.338246,30.821081,SS-JG,,
-15368,-23908,hydrographic,"River Tinga Tinga",RiverTingaTinga,official,6.522398,34.806205,SS-JG,,
-15853,-24591,hydrographic,Ubogi,Ubogi,official,7.148728,33.725775,SS-JG,,
-15824,-24548,hydrographic,"Khor Tuyungui","Khor Tuyungui",official,8.536533,33.47528,SS-NU,,
-15823,-24545,settlement,"Tuyo Quffa","Tuyo Quffa",official,10.066309,33.75754,SS-NU,,
-14946,-3123592,hydrographic,Tarach,Tarach,official,4.90386,34.907835,S1-000,,
-15239,-23720,settlement,Thiam,Thiam,official,7.789977,31.780518,SS-JG,,
-15530,-24109,settlement,Tolla,Tolla,official,5.959547,30.293859,SS-EW,,
-15905,-24675,settlement,Ulako,Ulako,official,3.846045,31.82704,SS-EE,,
-15769,-23634,settlement,Tereiba,Tereiba,official,11.167486,32.679557,SS-NU,,
-15687,-24331,hydrographic,"Khawr Tul","Khawr Tul",variant,8.91796,32.424955,SS-JG,,
-15949,-24735,settlement,Umbolo,Umbolo,official,5.870034,31.016117,SS-EC,,
-15589,13255226,settlement,Taro,Taro,official,10.593411,32.123409,SS-NU,,
-15942,-24725,hydrographic,"Wadi Umbelasha","Wadi Umbelasha",variant,9.815255,24.841028,S1-000,,
-15235,-23755,settlement,Thworo,Thworo,variant,9.381936,31.278954,SS-NU,,
-15056,13245074,settlement,Teday,Teday,official,10.34344,32.499262,SS-NU,,
-15686,-24330,hypsographic,"Jabal Tul","Jabal Tul",official,8.7608,26.245688,SS-BN,,
-15502,-24074,settlement,Toi,Toi,official,9.283196,31.592505,SS-NU,,
-14998,-23367,settlement,Tawfiqiyyā,Tawfiqiyya,variant,9.430722,31.628874,SS-NU,,
-15697,-24347,hypsographic,Tulga,Tulga,official,5.687227,35.13155,S1-000,,
-15756,-24442,hydrographic,"Khor Tuni","Khor Tuni",official,7.912266,32.782213,SS-JG,,
-15832,-24560,settlement,Twoich,Twoich,official,8.360277,29.945148,SS-UY,,
-15229,-23710,settlement,"Thar Jain","Thar Jain",variant,8.222902,30.220577,SS-UY,,
-15805,-24516,hydrographic,"River Tuse","River Tuse",variant,4.759417,27.967353,SS-EW,,
-16359,-25377,settlement,"Umm Hugar","Umm Hugar",official,8.75481,25.972477,SS-BW,,
-14956,-23306,settlement,Tareng,Tareng,official,9.607596,30.412315,SS-UY,,
-15553,-24145,settlement,Tombi,Tombi,variant,5.813598,31.685219,SS-000,,
-15580,13092162,hydrographic,"River Ibba",RiverIbba,variant,7.623765,29.258159,SS-000,,
-15936,-24714,hydrographic,Umbabatu,Umbabatu,official,6.626434,28.811067,SS-WR,,
-15367,-23907,settlement,Tingar,Tingar,official,9.32485,25.376481,SS-BW,,
-15802,-24510,hydrographic,"Khawr Turunga","Khawr Turunga",variant,5.436293,28.930967,SS-EW,,
-15579,16303,settlement,Ibba,Ibba,variant,7.273889,28.6775,SS-WR,,
-10771,-16840,settlement,Mapair,Mapair,official,9.111762,27.58525,SS-BN,,
-14942,-23281,hydrographic,Tar,Tar,official,8.593086,31.046098,SS-JG,,
-15797,-24505,hydrographic,"Ful Turuk","Ful Turuk",variant,8.589874,31.938892,SS-JG,,
-15292,-23791,settlement,Tidfolk,Tidfolk,variant,9.338246,30.821081,SS-JG,,
-15796,-24503,hydrographic,Turuk,Turuk,official,7.989689,31.99179,SS-JG,,
-15270,-23760,spot,Tiarki,Tiarki,official,5.736554,31.660232,SS-EC,,
-15244,14310413,hydrographic,"River Thingaita","River Thingaita",variant,5.320019,33.354587,SS-EE,,
-15579,-4308,settlement,"At Tonj","At Tonj",variant,7.273889,28.6775,SS-WR,,
-15269,-23759,settlement,"Tiang Rial","Tiang Rial",official,10.307228,32.26951,SS-NU,,
-15131,-23560,spot,Tellang,Tellang,official,5.831944,30.825,SS-EC,,
-15024,10889338,settlement,Ţayba,Tayba,official,12.0183,32.7678,SS-NU,,
-15008,-23380,hydrographic,"May‘a Tawila","May`a Tawila",variant,8.449809,30.393777,SS-JG,,
-15947,-24731,settlement,Umberi,Umberi,official,7.647476,33.644732,SS-JG,,
-15228,-23707,hydrographic,Thantok,Thantok,official,9.19769,31.293773,SS-JG,,
-15396,-23950,hydrographic,"Khor Tirru","Khor Tirru",official,9.413031,30.675014,SS-JG,,
-15169,-23660,settlement,Terrakekka,Terrakekka,variant,5.443889,31.750833,SS-EC,,
-15587,-24188,settlement,Tor,Tor,official,8.924985,28.048747,SS-WR,,
-15229,-23709,settlement,"Thar Cheng","Thar Cheng",official,8.222902,30.220577,SS-UY,,
-16409,-25467,settlement,"Umm Keddada","Umm Keddada",official,9.969965,30.495337,SS-UY,,
-15504,-24077,settlement,Toing,Toing,official,7.799877,28.609972,SS-WR,,
-15391,-23942,settlement,Tiriou,Tiriou,official,6.111292,30.231705,SS-LK,,
-15132,-23561,hydrographic,"Khawr Tell Tell","Khawr Tell Tell",variant,6.733927,33.451415,SS-JG,,
-15519,-24097,hypsographic,"Jabal Tokolo","Jabal Tokolo",variant,5.361143,29.803574,SS-EW,,
-15890,13776743,hydrographic,‘Jez,`Jez,official,11.05,32.466667,S1-000,,
-15244,-23725,hydrographic,"Rigl Thimgaita","Rigl Thimgaita",variant,5.320019,33.354587,SS-EE,,
-15391,-23948,settlement,Tirru,Tirru,variant,6.111292,30.231705,SS-LK,,
-15138,-23570,hydrographic,"Khor Temberi","Khor Temberi",official,8.314468,25.486357,SS-BW,,
-15524,-24102,settlement,Tol,Tol,official,8.794693,33.640456,SS-NU,,
-15866,-24610,settlement,"Udu Baras","Udu Baras",official,7.194041,27.835057,SS-BW,,
-15135,-23565,hydrographic,"Khawr Tem","Khawr Tem",official,8.05,30.75,SS-JG,,
-15893,13837142,hydrographic,Ukatua,Ukatua,variant,5,35.35,SS-EE,,
-15664,-24299,spot,Tugi,Tugi,official,7.0742,28.028776,SS-BW,,
-15659,-24293,settlement,Tuga,Tuga,official,5.637718,31.52617,SS-EC,,
-15747,-24430,settlement,Tungrub,Tungrub,official,8.176381,30.828033,SS-JG,,
-15753,13263311,settlement,Tungya,Tungya,official,9.837269,33.611849,SS-NU,,
-15507,-24079,settlement,Toinjei,Toinjei,variant,6.278445,29.733701,SS-LK,,
-15683,-24326,settlement,Tukudung,Tukudung,variant,4.550325,30.990161,SS-EC,,
-15141,-23574,settlement,Temchuk-de-gi,Temchuk-de-gi,variant,9.650204,32.151978,SS-NU,,
-15052,-23447,settlement,Tebusaya,Tebusaya,official,9.700785,29.025479,SS-UY,,
-15264,-23751,settlement,"Thuro Adawdo","Thuro Adawdo",official,10.296123,32.229859,SS-NU,,
-15878,-24629,settlement,Ugar,Ugar,official,7.030882,34.210256,SS-JG,,
-15307,-23811,hydrographic,"Khawr Tiggi","Khawr Tiggi",variant,5.342856,29.32269,SS-EW,,
-15868,-27249,settlement,Woli,Woli,variant,4.494216,31.027152,SS-EC,,
-15522,-24100,settlement,Tokur,Tokur,official,8.037417,30.136339,SS-UY,,
-15787,-24487,hydrographic,"Tur Machur","Tur Machur",official,9.010434,31.674757,SS-JG,,
-15010,13615733,hypsographic,"Jabal Tawili","Jabal Tawili",official,4.590597,29.322861,SS-EW,,
-15518,-24096,hydrographic,Toko,Toko,official,6.219697,28.70322,SS-LK,,
-15256,-23741,settlement,Thukchak,Thukchak,official,9.171006,30.755344,SS-JG,,
-15601,-24207,settlement,Torkej,Torkej,official,8.470686,33.150334,SS-NU,,
-15043,-23429,hypsographic,Tebbe,Tebbe,official,6.388964,27.868581,SS-EW,,
-15733,-24140,hydrographic,"Bir Tombak","Bir Tombak",official,8.342163,28.980281,SS-WR,,
-15908,-24678,settlement,Ulang,Ulang,official,8.840134,33.187655,SS-NU,,
-15596,-24200,hydrographic,Torgath,Torgath,official,8.829172,31.058192,SS-JG,,
-15242,-23798,settlement,"Tiep Shawor","Tiep Shawor",variant,7.78281,32.327027,SS-JG,,
-15918,-24692,hydrographic,"Khor Umako","Khor Umako",official,10.140355,32.299024,SS-NU,,
-15604,-24210,hydrographic,"Khawr Torluar","Khawr Torluar",variant,8.557547,32.9856,SS-NU,,
-15533,-24113,spot,Tolwa,Tolwa,official,6.628672,32.947228,SS-JG,,
-15106,-23527,hydrographic,"Khawr Teiyi","Khawr Teiyi",variant,8.464625,24.82356,SS-BW,,
-15258,-23744,hydrographic,"Khor Thul","Khor Thul",official,8.663419,32.042281,SS-JG,,
-15396,-23949,hydrographic,"Khawr Tirru","Khawr Tirru",variant,9.413031,30.675014,SS-JG,,
-14985,-23346,spot,Tau,Tau,official,7.679295,29.324339,SS-LK,,
-14928,-23258,settlement,Tangore,Tangore,official,4.08615,30.657831,SS-EC,,
-10772,-16841,settlement,Mapeir,Mapeir,official,7.363951,28.712673,SS-WR,,
-15265,-23753,settlement,"Thuro Nyiyar","Thuro Nyiyar",official,10.303172,32.226665,SS-NU,,
-15940,-24721,settlement,Umbasi,Umbasi,official,3.905045,30.742586,SS-EC,,
-15244,-23727,hydrographic,"Khawr Thingaita","Khawr Thingaita",variant,5.320019,33.354587,SS-EE,,
-15694,-24339,hydrographic,Tule,Tule,variant,3.933333,33.55,SS-EE,,
-15580,-24169,hydrographic,Ton’gh,Ton'gh,variant,7.623765,29.258159,SS-000,,
-15242,-23724,settlement,"Thiep Shawor","Thiep Shawor",official,7.78281,32.327027,SS-JG,,
-15240,-23721,settlement,Thiang,Thiang,official,7.740895,31.882408,SS-JG,,
-15247,-23731,settlement,Thīrān,Thiran,official,9.616667,26.1,SS-BW,,
-15050,-23444,settlement,Tebu,Tebu,official,9.698552,32.19032,SS-NU,,
-15445,-24007,settlement,Toboya,Toboya,official,4.664306,30.930127,SS-EC,,
-15749,-24433,hypsographic,"Jabal Tungu","Jabal Tungu",official,4.343619,29.977091,SS-EW,,
-15517,-24095,settlement,Tokiman,Tokiman,official,4.770008,31.602397,SS-EC,,
-15181,-23641,hypsographic,"Mount Tereteinia","Mount Tereteinia",official,3.823012,33.197791,SS-EE,,
-15521,-24099,spot,"Tok Rial","Tok Rial",official,8.690449,32.232986,SS-JG,,
-15577,-24176,settlement,"Tong Tong","Tong Tong",official,7.090625,33.029689,SS-JG,,
-15634,-24261,hypsographic,Towot,Towot,variant,6.185638,34.446318,SS-JG,,
-15594,-23362,settlement,Tawbai,Tawbai,variant,8.608427,32.896402,SS-NU,,
-15830,-24557,settlement,Twilong,Twilong,official,7.685035,33.060802,SS-JG,,
-15371,13615732,hypsographic,"Jabal Tingwalangwa","Jabal Tingwalangwa",official,8.247913,26.208471,SS-BW,,
-14946,-23300,hydrographic,Tarash,Tarash,variant,4.90386,34.907835,S1-000,,
-15734,-24142,hydrographic,"Khor Tombak","Khor Tombak",official,9.991652,33.619842,SS-NU,,
-15440,-24002,settlement,Tobaipapwa,Tobaipapwa,official,4.76787,30.769462,SS-EC,,
-15827,-24553,settlement,Twabor,Twabor,official,10.154031,32.599243,SS-NU,,
-15635,-24262,settlement,Towot,Towot,official,6.296582,34.39703,SS-JG,,
-15523,-24101,settlement,Tokwaich,Tokwaich,official,10.557584,32.124245,SS-NU,,
-15978,-24792,hydrographic,"Bi’r Umm ‘Andal","Bi'r Umm `Andal",variant,9.36197,24.108744,SS-BW,,
-15255,-23740,settlement,Thukak,Thukak,official,9.389146,30.916848,SS-JG,,
-15643,-24274,hydrographic,"Khor Tuba","Khor Tuba",official,5.398908,31.189219,SS-EC,,
-15674,-24311,spot,Tukara,Tukara,official,5.595296,31.733009,SS-EC,,
-15800,-24508,settlement,Turukwana,Turukwana,official,4.149325,33.634597,SS-EE,,
-15634,-24250,hypsographic,Towat,Towat,official,6.185638,34.446318,SS-JG,,
-15729,11652310,hypsographic,"Jebel Tumrogo","Jebel Tumrogo",variant,8.786907,24.379887,SS-BW,,
-15598,-24202,settlement,Toriak,Toriak,official,8.759879,32.109459,SS-JG,,
-15823,-24546,settlement,"Tuyo Quffah","Tuyo Quffah",variant,10.066309,33.75754,SS-NU,,
-15253,-23738,settlement,Thor,Thor,official,8.101574,32.572185,SS-JG,,
-15305,-23809,hydrographic,"River Tigaro",RiverTigaro,official,6.307525,34.309379,SS-JG,,
-15024,-17276,settlement,"Meheida esh Sherif","Meheida esh Sherif",variant,12.0183,32.7678,SS-NU,,
-15360,-23893,settlement,Tindalo,Tindalo,official,5.655573,31.056964,SS-EC,,
-15534,-24115,hypsographic,"Jabal Toma","Jabal Toma",official,9.267103,26.489099,SS-BN,,
-15290,-23786,settlement,Tidbal,Tidbal,variant,8.780776,31.268531,SS-JG,,
-15744,-24425,settlement,Tungia,Tungia,official,9.975157,32.010972,SS-NU,,
-15215,-23689,hydrographic,Thaidhiup,Thaidhiup,official,8.723082,31.268574,SS-JG,,
-14976,-23332,settlement,Tartamon,Tartamon,official,4.142426,33.582165,SS-EE,,
-15824,-24547,hydrographic,"Khawr Tuyungui","Khawr Tuyungui",variant,8.536533,33.47528,SS-NU,,
-15232,-23713,settlement,"Thar Wang","Thar Wang",official,8.527132,30.072746,SS-UY,,
-15634,-24263,hypsographic,Towoth,Towoth,variant,6.185638,34.446318,SS-JG,,
-14937,-23031,hydrographic,"River Tafari","River Tafari",variant,5.964364,30.824578,SS-EC,,
-15838,-24568,settlement,Uaiya,Uaiya,official,3.960808,32.577879,SS-EE,,
-15395,-23947,settlement,Tirro,Tirro,official,6.73659,30.423834,SS-LK,,
-15314,-23823,settlement,Tijor,Tijor,official,5.13947,31.182001,SS-EC,,
-15580,13092228,hydrographic,Tonj,Tonj,official,7.623765,29.258159,SS-000,,
-15241,-23723,hydrographic,"Khor Thiek","Khor Thiek",official,9.132725,29.531459,SS-UY,,
-15506,-24080,settlement,"Toin Sek","Toin Sek",official,7.834092,28.322677,SS-WR,,
-15726,-24392,settlement,Tumma,Tumma,short,9.95194,33.813071,SS-NU,,
-15246,-23730,settlement,Thir,Thir,official,9.226395,29.261823,SS-UY,,
-15010,-23388,hypsographic,"Tawiri Gbiatawiri","Tawiri Gbiatawiri",variant,4.590597,29.322861,SS-EW,,
-15048,-23440,settlement,Tebi,Tebi,official,9.352524,25.411682,SS-BW,,
-15106,-23529,hydrographic,"Wadi Teiyi","Wadi Teiyi",variant,8.464625,24.82356,SS-BW,,
-15251,-23736,hydrographic,Thonbil,Thonbil,official,8.34311,32.339638,SS-JG,,
-15903,-24672,settlement,Uku,Uku,official,7.557131,27.861637,SS-BW,,
-15884,-24646,hydrographic,"Khor Ugurro","Khor Ugurro",official,5.031979,31.837119,SS-EC,,
-14938,-23275,hydrographic,"Khawr Tapia","Khawr Tapia",variant,5.632521,29.36488,SS-EW,,
-15827,-24552,settlement,Twaber,Twaber,variant,10.154031,32.599243,SS-NU,,
-15249,-23734,hydrographic,Thogyen,Thogyen,official,8.366956,32.270427,SS-JG,,
-15891,-24657,hypsographic,"Jabal Ujuet","Jabal Ujuet",official,8.437801,26.758041,SS-BN,,
-15586,-24187,hypsographic,Topojo,Topojo,official,4.916667,34.066667,SS-EE,,
-15641,-24271,settlement,"Tuai Bur","Tuai Bur",official,9.402733,30.675611,SS-JG,,
-15733,-24400,hydrographic,"Bi’r Tunbāk","Bi'r Tunbak",variant,8.342163,28.980281,SS-WR,,
-15604,-24211,hydrographic,"Khor Torluar","Khor Torluar",official,8.557547,32.9856,SS-NU,,
-15729,-24395,hypsographic,"Jabal Tumrogo","Jabal Tumrogo",official,8.786907,24.379887,SS-BW,,
-15135,-23566,hydrographic,"Khor Tem","Khor Tem",variant,8.05,30.75,SS-JG,,
-16695,-25885,hypsographic,"Jabal Umm Selit","Jabal Umm Selit",official,9.877474,25.437192,SS-BW,,
-15855,-24593,settlement,Uburi,Uburi,official,7.435242,28.095009,SS-BW,,
-15553,-24144,settlement,Tombe,Tombe,official,5.813598,31.685219,SS-000,,
-15297,-23797,hydrographic,Tiep,Tiep,official,8.00286,32.402798,SS-JG,,
-15945,-24728,settlement,Umbelti,Umbelti,official,6.126298,29.786892,SS-EW,,
-15090,-23501,hydrographic,"Khawr Teih","Khawr Teih",variant,6.17533,28.452526,SS-000,,
-15683,-24327,settlement,Tukudungwen,Tukudungwen,official,4.550325,30.990161,SS-EC,,
-15364,-23901,settlement,Tinechor,Tinechor,official,6.76045,30.857106,SS-LK,,
-15694,14608104,hydrographic,"Tule Waterhole","Tule Waterhole",official,3.933333,33.55,SS-EE,,
-15831,-24559,hydrographic,"Khor Twoda","Khor Twoda",official,7.147189,34.15182,SS-JG,,
-15090,-23502,hydrographic,"Khor Teih","Khor Teih",official,6.17533,28.452526,SS-000,,
-15024,-23399,settlement,Tayiba,Tayiba,variant,12.0183,32.7678,SS-NU,,
-15468,-24035,hydrographic,"Khor Togaba","Khor Togaba",official,7.60081,25.378948,SS-BW,,
-15735,-24402,hydrographic,Tundi,Tundi,official,8.672598,30.934859,SS-JG,,
-15370,-23895,hydrographic,"Lake Tindalo","Lake Tindalo",variant,6.279708,31.291408,SS-LK,,
-15224,-23703,park,Thangork,Thangork,official,7.544203,30.393147,SS-UY,,
-16043,-24878,hydrographic,"Umm Bakika","Umm Bakika",official,9.306396,25.159837,SS-BW,,
-15588,-24189,settlement,Tor,Tor,official,9.064893,30.52162,SS-JG,,
-15892,-24658,settlement,Ukaadi,Ukaadi,variant,7.001049,34.244048,SS-JG,,
-15359,13335758,hypsographic,"Jabal Tambala","Jabal Tambala",official,9.012248,25.850039,SS-BW,,
-15711,-24373,settlement,Tumbal,Tumbal,official,7.777868,27.632319,SS-BW,,
-15608,-24217,settlement,Torpot,Torpot,official,8.570693,33.115415,SS-NU,,
-15943,-24726,settlement,Umbeli,Umbeli,official,7.464806,27.72637,SS-BW,,
-15329,-23844,hydrographic,"Khawr Tili","Khawr Tili",variant,8.85827,30.853753,SS-JG,,
-15180,-23640,park,Tereteinia,Tereteinia,short,3.883333,33.15,SS-EE,,
-15206,-23677,settlement,Tetalla,Tetalla,official,9.15727,24.423521,SS-BW,,
-15670,-24307,hydrographic,"River Tuju","River Tuju",official,6.485286,29.24346,SS-LK,,
-16650,-25822,settlement,"Umm Sagura","Umm Sagura",official,9.633857,29.839615,SS-UY,,
-15317,-23828,settlement,Tikasu,Tikasu,official,4.129582,30.750355,SS-EC,,
-15893,20082583,hydrographic,Ukathwa,Ukathwa,official,5,35.35,SS-EE,,
-15010,-23386,hypsographic,"Jebel Tawili","Jebel Tawili",variant,4.590597,29.322861,SS-EW,,
-15608,-24199,settlement,Torfot,Torfot,variant,8.570693,33.115415,SS-NU,,
-15235,-23716,settlement,Thaworo,Thaworo,official,9.381936,31.278954,SS-NU,,
-15126,-23555,hydrographic,Teleshi,Teleshi,official,3.769165,31.760254,SS-EC,,
-15107,-23530,settlement,Tekakomi,Tekakomi,official,3.916667,32.083333,SS-EE,,
-15519,11539098,hypsographic,"Jabel Tokolo","Jabel Tokolo",official,5.361143,29.803574,SS-EW,,
-16181,-25076,hydrographic,"Khawr Umm Dilwis","Khawr Umm Dilwis",short,12.2,32.966667,SS-NU,,
-15792,-24494,hydrographic,"Khor Turor","Khor Turor",official,9.509043,30.914397,S1-000,,
-15141,-23575,settlement,Temchung-de-gi,Temchung-de-gi,official,9.650204,32.151978,SS-NU,,
-15579,-24178,settlement,Tonj,Tonj,official,7.273889,28.6775,SS-WR,,
-15257,-23742,settlement,Thul,Thul,official,8.523661,32.062727,SS-JG,,
-15258,-23743,hydrographic,"Khawr Thul","Khawr Thul",variant,8.663419,32.042281,SS-JG,,
-15230,-23711,settlement,"Thar Jath","Thar Jath",official,8.467983,30.307287,SS-UY,,
-15337,-23854,hydrographic,Timan,Timan,short,4.933333,35.2,SS-000,,
-15133,-23563,hydrographic,"Tel Luwangni","Tel Luwangni",official,8.845801,32.360741,SS-JG,,
-15008,-23375,hydrographic,"May‘a Tawil","May`a Tawil",official,8.449809,30.393777,SS-JG,,
-16409,-25447,settlement,"Umm Kaddādah","Umm Kaddadah",variant,9.969965,30.495337,SS-UY,,
-14935,-23271,settlement,Tanyir,Tanyir,official,8.83328,30.714977,SS-JG,,
-15647,-24279,settlement,Tubug,Tubug,official,9.190194,32.142809,SS-NU,,
-15831,-24558,hydrographic,"Khawr Twoda","Khawr Twoda",variant,7.147189,34.15182,SS-JG,,
-15319,-23830,settlement,"Tiki Tiki","Tiki Tiki",official,8.121162,27.65284,SS-BW,,
-14963,-23313,settlement,Tarhala,Tarhala,official,8.788002,26.044688,SS-BW,,
-14988,-23350,hydrographic,Taudal,Taudal,official,4.413051,32.766894,SS-EE,,
-15289,-23785,settlement,Tidakul,Tidakul,official,6.510023,29.689024,SS-LK,,
-15643,-24273,hydrographic,"Khawr Tuba","Khawr Tuba",variant,5.398908,31.189219,SS-EC,,
-15231,-23712,settlement,"Thar Nhom","Thar Nhom",official,7.426918,30.476567,SS-UY,,
-15766,-24459,settlement,Turakon,Turakon,official,9.949812,30.159251,SS-UY,,
-15576,-24175,park,"Tong Thiang","Tong Thiang",official,7.882193,31.866489,SS-JG,,
-15942,-24724,hydrographic,"River Umbelasha",RiverUmbelasha,official,9.815255,24.841028,S1-000,,
-15361,-23894,hypsographic,"Jabal Tindalo","Jabal Tindalo",official,5.663832,31.080917,SS-EC,,
-15749,-24417,hypsographic,"Jebel Tunga","Jebel Tunga",variant,4.343619,29.977091,SS-EW,,
-15579,-24168,settlement,Ton’gh,Ton'gh,variant,7.273889,28.6775,SS-WR,,
-15942,-24723,hydrographic,"Rigl Umbelasha","Rigl Umbelasha",variant,9.815255,24.841028,S1-000,,
-15635,-24252,settlement,Towath,Towath,variant,6.296582,34.39703,SS-JG,,
-15892,-24659,settlement,Ukadi,Ukadi,official,7.001049,34.244048,SS-JG,,
-15042,-23428,hydrographic,Teba,Teba,official,3.831488,32.707334,SS-EE,,
-15266,-23756,hypsographic,Tia,Tia,official,4.574363,33.343956,SS-EE,,
-15907,-24677,settlement,Ulambi,Ulambi,official,8.657283,26.071846,SS-BW,,
-15288,-23784,spot,Tid,Tid,official,7.493148,29.026496,SS-WR,,
-15294,-23794,settlement,Tidwach,Tidwach,official,9.325427,30.880652,SS-JG,,
-16054,-24892,settlement,"Umm Barbit","Umm Barbit",official,10.958628,32.545594,SS-NU,,
-15854,-24592,settlement,Ubori,Ubori,official,6.667902,29.327605,SS-LK,,
-15687,-24332,hydrographic,"Khor Tul","Khor Tul",official,8.91796,32.424955,SS-JG,,
-15505,-24078,settlement,Toingwek,Toingwek,official,8.337726,28.763081,SS-WR,,
-15906,-24676,settlement,Ulali,Ulali,official,7.704285,33.045089,SS-JG,,
-15597,-24201,hydrographic,"River Tori",RiverTori,official,4.641755,30.456583,SS-000,,
-15580,-24179,hydrographic,"River Tonj",RiverTonj,official,7.623765,29.258159,SS-000,,
-15261,-23747,settlement,Thur,Thur,official,8.274737,30.27428,SS-UY,,
-15286,-23782,settlement,Tibnah,Tibnah,variant,10.785872,33.118272,SS-NU,,
-15917,-24690,hydrographic,"River Uma",RiverUma,official,3.956833,31.708309,SS-EC,,
-15329,-23845,hydrographic,"Khor Tili","Khor Tili",official,8.85827,30.853753,SS-JG,,
-15149,-23592,settlement,Temrod,Temrod,official,8.931606,28.637448,SS-WR,,
-15243,-23726,settlement,Thimtijejero,Thimtijejero,official,4.316569,33.662683,SS-EE,,
-15307,-23812,hydrographic,"Khor Tiggi","Khor Tiggi",official,5.342856,29.32269,SS-EW,,
-15734,-24401,hydrographic,"Khawr Tunbāk","Khawr Tunbak",variant,9.991652,33.619842,SS-NU,,
-15978,13335934,hydrographic,"Bir Umm Andal","Bir Umm Andal",official,9.36197,24.108744,SS-BW,,
-15851,-24587,settlement,Ubeir,Ubeir,official,7.713942,33.042283,SS-JG,,
-14923,-23251,settlement,Tanga,Tanga,official,7.254951,28.078639,SS-BW,,
-15370,-23911,hydrographic,"Lake Tingil","Lake Tingil",official,6.279708,31.291408,SS-LK,,
-15520,-24098,settlement,Tokot,Tokot,official,5.857601,31.55178,SS-EC,,
-15267,-23757,settlement,Tiam,Tiam,official,7.728285,30.233863,SS-UY,,
-15370,-23892,hydrographic,"Lake Tindale","Lake Tindale",variant,6.279708,31.291408,SS-LK,,
-15622,-24237,hypsographic,Totali,Totali,official,6.073795,34.572199,SS-JG,,
-15567,-24180,settlement,Tonja,Tonja,variant,9.474427,31.045073,SS-NU,,
-15890,-24637,hydrographic,‘Ugeiz,`Ugeiz,variant,11.05,32.466667,S1-000,,
-15371,-23913,hypsographic,"Jebel Tingwalangwa","Jebel Tingwalangwa",variant,8.247913,26.208471,SS-BW,,
-16550,11070814,hydrographic,"Khor Umm Qarin","Khor Umm Qarin",official,10.992991,33.033209,S1-000,,
-14975,-23330,hydrographic,"Khawr Tarriair","Khawr Tarriair",variant,7.151212,30.355935,SS-UY,,
-16348,-25378,settlement,"Umm Hugar","Umm Hugar",official,9.405418,24.459204,SS-BW,,
-16331,-25329,settlement,"Umm Hashim","Umm Hashim",official,8.71598,25.901924,SS-BW,,
-15052,-2253,settlement,Akot,Akot,variant,9.700785,29.025479,SS-UY,,
-15165,-23621,hypsographic,Teperikwi,Teperikwi,official,3.92822,33.351133,SS-EE,,
-15592,-24194,settlement,Toragain,Toragain,official,8.795449,31.095189,SS-JG,,
-15244,-23728,hydrographic,"Khor Thingaita","Khor Thingaita",official,5.320019,33.354587,SS-EE,,
-15833,-24561,settlement,"Twoich Pair","Twoich Pair",official,8.280822,30.168189,SS-UY,,
-15039,-23422,settlement,Tchumakori,Tchumakori,official,4.872398,33.521689,SS-EE,,
-15095,-23510,settlement,Teiranging,Teiranging,official,4.277941,32.722125,SS-EE,,
-15140,-23573,settlement,Temchuk,Temchuk,official,9.650334,32.157521,SS-NU,,
-15263,-23750,settlement,Thurnum,Thurnum,official,8.309586,30.108102,SS-UY,,
-15056,-23454,settlement,Tedau,Tedau,variant,10.34344,32.499262,SS-NU,,
-15792,-24493,hydrographic,"Khawr Turor","Khawr Turor",variant,9.509043,30.914397,S1-000,,
-15747,-24429,settlement,Tungrib,Tungrib,variant,8.176381,30.828033,SS-JG,,
-15662,-24296,hydrographic,Tugga,Tugga,official,10.152886,25.633163,SS-BW,,
-15597,20082584,hydrographic,Tori,Tori,official,4.641755,30.456583,SS-000,,
-15106,-23528,hydrographic,"Khor Teiyi","Khor Teiyi",official,8.464625,24.82356,SS-BW,,
-15244,-22518,hydrographic,Singaita,Singaita,variant,5.320019,33.354587,SS-EE,,
-16348,-25359,settlement,"Umm Higar","Umm Higar",variant,9.405418,24.459204,SS-BW,,
-15526,-24105,settlement,Toladul,Toladul,official,9.265527,30.713053,SS-JG,,
-15658,-24292,hydrographic,Tufungi,Tufungi,official,3.766667,33.3,S1-000,,
-16550,-25661,hydrographic,"Khawr Umm Qarn","Khawr Umm Qarn",variant,10.992991,33.033209,S1-000,,
-15150,-23593,settlement,Temrol,Temrol,official,8.271996,30.615779,SS-JG,,
-16747,-25977,spot,"Umm Shuţūr","Umm Shutur",official,7.298232,33.232413,SS-JG,,
-15359,-23204,hypsographic,"Jebel Tambala","Jebel Tambala",variant,9.012248,25.850039,SS-BW,,
-15225,-23704,settlement,Thangoro,Thangoro,official,9.169808,29.563919,SS-UY,,
-15715,-24377,hypsographic,"Jabal Tumbeli","Jabal Tumbeli",official,9.603827,25.611967,SS-BW,,
-15169,17308262,settlement,Terekeka,Terekeka,official,5.443889,31.750833,SS-EC,,
-15264,-23752,settlement,"Thuro Adodo","Thuro Adodo",variant,10.296123,32.229859,SS-NU,,
-14938,-23276,hydrographic,"Khor Tapia","Khor Tapia",official,5.632521,29.36488,SS-EW,,
-15175,-23633,hydrographic,"Khor Tere","Khor Tere",official,5.582117,28.052992,SS-EW,,
-15754,-24439,settlement,Tungyun,Tungyun,official,6.665252,32.920062,SS-JG,,
-15917,20082582,hydrographic,Uma,Uma,official,3.956833,31.708309,SS-EC,,
-15169,-23298,settlement,Tarakaka,Tarakaka,variant,5.443889,31.750833,SS-EC,,
-15090,-27611,hydrographic,Zande,Zande,variant,6.17533,28.452526,SS-000,,
-15253,13827317,settlement,Tor,Tor,variant,8.101574,32.572185,SS-JG,,
-15756,-24441,hydrographic,"Khawr Tuni","Khawr Tuni",variant,7.912266,32.782213,SS-JG,,
-15787,-24486,hydrographic,"Tur Machar","Tur Machar",variant,9.010434,31.674757,SS-JG,,
-15187,-23651,settlement,Teri,Teri,official,5.784665,30.093944,SS-EW,,
-15641,-24270,settlement,"Tuai Bor","Tuai Bor",variant,9.402733,30.675611,SS-JG,,
-14970,-23323,settlement,Tarkwen,Tarkwen,variant,6.98282,31.282294,SS-JG,,
-15175,-23632,hydrographic,"Khawr Tere","Khawr Tere",variant,5.582117,28.052992,SS-EW,,
-14914,-23242,settlement,Tandu,Tandu,official,9.369719,25.375834,SS-BW,,
-15567,-24162,settlement,Tonga,Tonga,official,9.474427,31.045073,SS-NU,,
-14998,-23366,settlement,Tawfīqīyah,Tawfiqiyah,variant,9.430722,31.628874,SS-NU,,
-15837,-24565,settlement,Uad,Uad,official,7.155177,29.679145,SS-LK,,
-15856,-24594,settlement,Uburi,Uburi,official,7.575668,28.046579,SS-BW,,
-15769,-24462,settlement,Turaybah,Turaybah,variant,11.167486,32.679557,SS-NU,,
-15132,-23562,hydrographic,"Khor Tell Tell","Khor Tell Tell",official,6.733927,33.451415,SS-JG,,
-16085,-24937,hydrographic,"Umm Biera","Umm Biera",official,9.62308,29.936736,SS-UY,,
-15890,-24656,hydrographic,‘Ujayz,`Ujayz,variant,11.05,32.466667,S1-000,,
-15570,-24165,hydrographic,"Khawr Tongchidderongtong","Khawr Tongchidderongtong",variant,6.466426,33.312982,SS-JG,,
-15594,-24197,settlement,Torbar,Torbar,official,8.608427,32.896402,SS-NU,,
-15428,-24444,settlement,Tunra,Tunra,variant,8.768746,32.976827,SS-NU,,
-16075,-24919,settlement,"Umm Begago","Umm Begago",official,9.783333,26.05,SS-BW,,
-15918,-24691,hydrographic,"Khawr Umako","Khawr Umako",variant,10.140355,32.299024,SS-NU,,
-15118,-23546,hypsographic,Telech,Telech,official,4.479009,33.39446,SS-EE,,
-15290,-23787,settlement,Tidbil,Tidbil,official,8.780776,31.268531,SS-JG,,
-14937,-23273,hydrographic,"River Tapari","River Tapari",official,5.964364,30.824578,SS-EC,,
-15286,-23780,settlement,Tibna,Tibna,official,10.785872,33.118272,SS-NU,,
-16085,-7923,hydrographic,"El Biera","El Biera",variant,9.62308,29.936736,SS-UY,,
-16694,-25884,hydrographic,"Umm Selit","Umm Selit",official,9.891909,25.46376,SS-BW,,
-15428,-23985,settlement,Tiura,Tiura,official,8.768746,32.976827,SS-NU,,
-14970,-23322,settlement,Tarkwem,Tarkwem,official,6.98282,31.282294,SS-JG,,
-15251,13827193,hydrographic,Tonbil,Tonbil,variant,8.34311,32.339638,SS-JG,,
-15169,-23626,settlement,Terakeka,Terakeka,variant,5.443889,31.750833,SS-EC,,
-15589,-24212,settlement,Toro,Toro,variant,10.593411,32.123409,SS-NU,,
-15254,-23739,settlement,Thorial,Thorial,official,8.659884,29.958842,SS-UY,,
-15589,-24190,settlement,Tor,Tor,variant,10.593411,32.123409,SS-NU,,
-15361,11545186,hypsographic,"Jebel Tindalo","Jebel Tindalo",variant,5.663832,31.080917,SS-EC,,
-15379,-23924,settlement,Tior,Tior,official,6.371901,31.174862,SS-LK,,
-15140,13227524,settlement,Temchung-de-apien,Temchung-de-apien,variant,9.650334,32.157521,SS-NU,,
-15430,-23987,hydrographic,Tiwai,Tiwai,short,4.816667,35.45,SS-000,,
-15610,-24220,hydrographic,"Tor Rial","Tor Rial",official,8.293144,31.784096,SS-JG,,
-15138,-23569,hydrographic,"Khawr Temberi","Khawr Temberi",variant,8.314468,25.486357,SS-BW,,
-15802,-24512,hydrographic,"Khor Turunga","Khor Turunga",official,5.436293,28.930967,SS-EW,,
-15565,-24160,settlement,Tondiak,Tondiak,official,9.4084,31.15069,SS-NU,,
-15241,-23722,hydrographic,"Khawr Thiek","Khawr Thiek",variant,9.132725,29.531459,SS-UY,,
-15610,-24218,hydrographic,"Tor Rail","Tor Rail",variant,8.293144,31.784096,SS-JG,,
-15532,-24112,settlement,Tolubi,Tolubi,official,4.366223,33.674371,SS-EE,,
-10485,-16473,settlement,Majok,Majok,official,7.720282,28.421311,SS-WR,,
-10770,-16839,settlement,Maoal,Maoal,official,8.95,27.916667,SS-WR,,
-15388,-23938,hydrographic,"Wādī Tiri","Wadi Tiri",official,8.507786,24.432005,SS-BW,,
-15250,-23735,hydrographic,Thon,Thon,official,9.63416,30.139179,SS-UY,,
-15608,-23395,settlement,Tawpot,Tawpot,variant,8.570693,33.115415,SS-NU,,
-15141,-23657,settlement,Ternchung-de-apien,Ternchung-de-apien,variant,9.650204,32.151978,SS-NU,,
-15292,-23789,settlement,Tidfo,Tidfo,variant,9.338246,30.821081,SS-JG,,
-15570,-24166,hydrographic,"Khor Tongchidderongtong","Khor Tongchidderongtong",official,6.466426,33.312982,SS-JG,,
-16181,-25077,hydrographic,"Khor Umm Dilwis","Khor Umm Dilwis",variant,12.2,32.966667,SS-NU,,
-15507,-24081,settlement,Toinya,Toinya,official,6.278445,29.733701,SS-LK,,
-15891,13253784,hypsographic,"Jebel Ujuet","Jebel Ujuet",variant,8.437801,26.758041,SS-BN,,
-15566,-24161,settlement,Tong,Tong,official,6.463081,31.61883,SS-JG,,
-14998,-23351,settlement,Taufikia,Taufikia,official,9.430722,31.628874,SS-NU,,
-15753,-24438,settlement,Tungyu,Tungyu,variant,9.837269,33.611849,SS-NU,,
-15268,-23758,spot,"Tiang Diar","Tiang Diar",official,9.531729,29.606416,SS-UY,,
-15380,-23926,settlement,Tir,Tir,official,10.517013,32.510317,SS-NU,,
-15836,-24564,settlement,Twut,Twut,official,7.983827,28.362344,SS-WR,,
-15181,14597704,hypsographic,Tereteinia,Tereteinia,variant,3.823012,33.197791,SS-EE,,
-15884,-24645,hydrographic,"Khawr Ugurro","Khawr Ugurro",variant,5.031979,31.837119,SS-EC,,
-15368,20082586,hydrographic,"Tinga Tinga",TingaTinga,official,6.522398,34.806205,SS-JG,,
-15887,-24653,settlement,Ujak,Ujak,official,7.277571,33.461213,SS-JG,,
-14975,-23331,hydrographic,"Khor Tarriair","Khor Tarriair",official,7.151212,30.355935,SS-UY,,
-15591,-24193,settlement,Toraba,Toraba,official,5.585466,30.375986,SS-EW,,
-15600,-24205,settlement,Torit,Torit,official,4.41177,32.570457,SS-EE,,
-15295,-23795,settlement,Tidwel,Tidwel,official,7.416106,29.096494,SS-LK,,
-15305,20082587,hydrographic,Tigaro,Tigaro,official,6.307525,34.309379,SS-JG,,
-15721,-24383,settlement,Tumbur,Tumbur,official,4.336894,31.566595,SS-EC,,
-15942,20082581,hydrographic,Umbelasha,Umbelasha,official,9.815255,24.841028,S1-000,,
-15186,-23650,hydrographic,"Tergu Rapids","Tergu Rapids",official,4.669043,30.47375,SS-EW,,
-15686,13245142,hypsographic,"Jebel Tul","Jebel Tul",variant,8.7608,26.245688,SS-BN,,
-15008,-23385,hydrographic,"May‘at Ţawīlah","May`at Tawilah",variant,8.449809,30.393777,SS-JG,,
-15835,-24563,spot,Twong,Twong,official,8.333206,28.455488,SS-WR,,
-15024,-23406,settlement,Ţayyibah,Tayyibah,variant,12.0183,32.7678,SS-NU,,
-15248,-23732,hypsographic,"Jabal Thīrān","Jabal Thiran",official,9.616667,26.133333,SS-BW,,
-15227,-23706,settlement,Thanilak,Thanilak,official,9.181758,31.682278,SS-JG,,
-15805,-24515,hydrographic,"Khor Tuse","Khor Tuse",official,4.759417,27.967353,SS-EW,,
-15900,-24669,settlement,Ukka,Ukka,official,10.041942,33.334547,SS-NU,,
-15274,-23765,settlement,Tibari,Tibari,official,5.01562,31.718777,SS-EC,,
-15797,-24504,hydrographic,Turuk,Turuk,official,8.589874,31.938892,SS-JG,,
-15360,-23896,settlement,Tindalu,Tindalu,variant,5.655573,31.056964,SS-EC,,
-15372,-23914,settlement,Tingya,Tingya,official,10.490845,32.552525,SS-NU,,
-15893,-24660,hydrographic,"River Ukathwa","River Ukathwa",official,5,35.35,SS-EE,,
-15829,-24555,settlement,Twango,Twango,official,6.262846,31.548228,SS-JG,,
-16550,-25662,hydrographic,"Khor Umm Qarn","Khor Umm Qarn",variant,10.992991,33.033209,S1-000,,
-15359,-23891,hypsographic,"Jabal Tinbālah","Jabal Tinbalah",variant,9.012248,25.850039,SS-BW,,
-15755,-24440,hydrographic,Tuni,Tuni,official,7.714346,32.747867,SS-JG,,
-15646,-24277,hypsographic,"Jabel Tubé","Jabel Tube",official,5.593008,29.834729,SS-EW,,
-13263,-20547,settlement,Rilalwal,Rilalwal,official,6.545494,29.966979,SS-LK,,
-13655,-21173,hydrographic,Sanabe,Sanabe,variant,5.333333,27.666667,SS-EW,,
-14296,-22244,hydrographic,"Khawr Shiwar","Khawr Shiwar",variant,9.080318,33.884907,SS-NU,,
-14405,13824779,settlement,Sheil,Sheil,variant,8.99705,32.4147,SS-NU,,
-13406,-20774,settlement,"Rumla Ngork","Rumla Ngork",official,9.4,28.766667,SS-UY,,
-13298,-6468,settlement,"Dara Rom","Dara Rom",variant,9.306585,33.495345,SS-NU,,
-13229,-20492,settlement,Riakmaz,Riakmaz,official,6.877512,29.462272,SS-LK,,
-13301,-20606,settlement,Rom,Rom,official,11.7647,32.8873,SS-NU,,
-14542,-22644,settlement,Sopo,Sopo,official,8.017607,26.055282,SS-BW,,
-14674,-22866,hydrographic,Sunnat,Sunnat,official,4.32483,32.796593,SS-EE,,
-13380,-20730,settlement,Rumanwas,Rumanwas,official,7.451664,29.617021,SS-LK,,
-13236,-20500,settlement,Riani,Riani,official,6.231609,28.706612,SS-LK,,
-14165,-22026,settlement,"Sheikh Bade","Sheikh Bade",official,10.244034,33.543364,SS-NU,,
-13260,-20544,hypsographic,"Jabal Riku","Jabal Riku",variant,5.736582,29.965042,SS-EW,,
-14178,-21977,settlement,"Shaykh Offio","Shaykh Offio",variant,8.478943,27.017423,SS-BN,,
-14404,-22407,hydrographic,"Shwai Chuk","Shwai Chuk",official,8.081153,31.506746,SS-JG,,
-14614,-22769,settlement,Şughayyir,Sughayyir,variant,7.791237,27.655741,SS-BW,,
-14777,-23026,hypsographic,Tadfuri,Tadfuri,official,4.477686,31.065678,SS-EC,,
-13321,-20638,settlement,Roue,Roue,official,4.33133,30.485136,SS-EW,,
-14015,-21756,settlement,Shamma,Shamma,official,8.93974,28.460559,SS-WR,,
-14112,-6766,park,"Dembo and Shat","Dembo and Shat",variant,8.148288,27.256541,SS-000,,
-13371,-20720,hydrographic,"Būtat Rula","Butat Rula",variant,8.730859,25.939379,SS-BW,,
-13230,-20493,settlement,Rial,Rial,official,8.820187,33.210932,SS-NU,,
-13308,-20615,settlement,"Rom Yieri","Rom Yieri",official,8.430332,33.213571,SS-NU,,
-14403,-6176,settlement,"Chwai Chuk","Chwai Chuk",variant,8.05,31.416667,SS-JG,,
-13397,-20747,settlement,Rumbole,Rumbole,official,6.522746,30.015689,SS-LK,,
-13674,-21204,settlement,Sangisangi,Sangisangi,official,5.856902,28.740846,SS-EW,,
-13302,-20608,hypsographic,"Qoz Rom","Qoz Rom",official,11.7787,32.8961,SS-NU,,
-14307,-22259,settlement,Sholayik,Sholayik,official,9.130982,31.747193,SS-000,,
-13631,-8875,hydrographic,"Khor Es Sama‘a","Khor Es Sama`a",official,10.583364,33.450406,SS-NU,,
-13322,13826018,settlement,Rouveng,Rouveng,variant,8.9348,32.648775,SS-NU,,
-14454,-18513,hydrographic,Nalapolap,Nalapolap,variant,5.322999,34.279438,SS-EE,,
-14635,-22796,settlement,Sulaymān,Sulayman,variant,5.128936,30.458198,SS-EW,,
-13274,-20563,hypsographic,"Djebel Riad","Djebel Riad",variant,9.063808,23.491396,S1-000,,
-13131,-20328,settlement,Rangage,Rangage,official,3.786348,31.666452,SS-EC,,
-13396,-20746,settlement,Rumbel,Rumbel,official,8.598039,28.19222,SS-WR,,
-13313,-20622,settlement,Rorbar,Rorbar,official,7.668033,29.681438,SS-LK,,
-14293,-22237,hydrographic,"Khawr Shishfa","Khawr Shishfa",variant,9.483082,33.847575,SS-NU,,
-13134,-20785,vegetation,"Rup Majaak","Rup Majaak",variant,8.733853,31.164717,SS-JG,,
-14454,-22485,hydrographic,"Khor Simbira","Khor Simbira",official,5.322999,34.279438,SS-EE,,
-14311,-22264,hydrographic,"War Shot","War Shot",official,8.231674,29.287911,SS-WR,,
-14524,-22604,hydrographic,Sobi,Sobi,variant,4.603173,28.924962,SS-EW,,
-14384,-22374,settlement,Shurur,Shurur,official,8.09327,27.834251,SS-BW,,
-13661,-21185,hydrographic,"Golfo Sanderson","Golfo Sanderson",variant,4.6,35.883333,S1-000,,
-13371,-20719,hydrographic,"Buta Rula","Buta Rula",official,8.730859,25.939379,SS-BW,,
-13296,-20601,settlement,Rokon,Rokon,official,5.123724,30.913085,SS-EC,,
-14169,-21968,settlement,"Shaykh Gombo","Shaykh Gombo",variant,4.857783,30.59651,SS-EW,,
-13311,-20620,settlement,Roradwei,Roradwei,official,8.720213,33.030026,SS-NU,,
-13310,-20619,hydrographic,Rongu,Rongu,official,8.172772,31.797056,SS-JG,,
-13268,-20554,hypsographic,"Ringi Hills","Ringi Hills",official,8.448488,25.210895,SS-BW,,
-14185,-21984,settlement,Shayn,Shayn,variant,8.490067,25.701787,SS-BW,,
-13408,-20776,settlement,"Rum Liet","Rum Liet",official,7.721002,28.552188,SS-WR,,
-13132,-20685,hydrographic,"Khor Ruengu","Khor Ruengu",variant,5.037818,28.336567,SS-EW,,
-13655,-21174,hydrographic,"Khawr Sanabi","Khawr Sanabi",official,5.333333,27.666667,SS-EW,,
-14726,-22949,settlement,"Surur Bol","Surur Bol",official,7.144035,28.571316,SS-WR,,
-13318,-20632,spot,Rotchum,Rotchum,official,8.79336,33.37952,SS-NU,,
-14840,-23136,hypsographic,Tala,Tala,official,7.160062,26.301912,SS-BW,,
-13312,-20621,settlement,Rorayai,Rorayai,official,8.830746,27.659088,SS-BN,,
-14168,-21967,settlement,"Shaykh Faḑl Mikwar","Shaykh Fadl Mikwar",variant,8.071546,27.791028,SS-BW,,
-13286,-20585,settlement,Rodi,Rodi,official,7.161495,25.894827,SS-BW,,
-13417,-20788,settlement,Rupwat,Rupwat,variant,8.81648,32.67448,SS-NU,,
-14504,-22561,hydrographic,"River Sirri",RiverSirri,official,9.422489,24.667174,SS-BW,,
-14517,-22581,hydrographic,"Khawr Sitiri","Khawr Sitiri",variant,5.805008,33.818785,SS-000,,
-14539,-22639,settlement,Songola,Songola,official,4.709613,31.523861,SS-EC,,
-13150,-15405,hydrographic,Lalila,Lalila,variant,5.787325,30.78963,SS-EC,,
-13536,-20972,settlement,"Said Gatti","Said Gatti",official,6.530934,29.533361,SS-LK,,
-13290,-20592,settlement,Rogrog,Rogrog,official,8.68496,33.119468,SS-NU,,
-14675,-22868,hydrographic,"Khor Sunni","Khor Sunni",official,7.154599,28.651396,SS-WR,,
-14802,-23061,hydrographic,"Khawr Tagura","Khawr Tagura",variant,5.486935,29.388668,SS-EW,,
-14543,20082590,hydrographic,Sopo,Sopo,official,8.854905,26.195842,SS-BW,,
-14517,-22582,hydrographic,"Khor Sitiri","Khor Sitiri",official,5.805008,33.818785,SS-000,,
-13234,-20498,settlement,Riangnom,Riangnom,official,9.937472,30.005145,SS-UY,,
-14614,-22767,settlement,Sughaiyer,Sughaiyer,official,7.791237,27.655741,SS-BW,,
-14296,-22245,hydrographic,"Khor Shiwar","Khor Shiwar",official,9.080318,33.884907,SS-NU,,
-14284,-22224,hypsographic,"Jabal Shingi","Jabal Shingi",official,9.972397,33.969072,SS-NU,,
-14453,-22483,hydrographic,"River Simbi","River Simbi",variant,4.60221,28.219957,SS-EW,,
-14356,-22329,settlement,Shumam,Shumam,official,8.560445,25.804397,SS-BW,,
-13631,-21140,hydrographic,"Khawr As Sama‘a","Khawr As Sama`a",variant,10.583364,33.450406,SS-NU,,
-14504,20082591,hydrographic,Sirri,Sirri,official,9.422489,24.667174,SS-BW,,
-14291,-22232,settlement,Shiromba,Shiromba,official,4.583951,30.981838,SS-EC,,
-13395,-20745,settlement,Rumbek,Rumbek,official,6.806667,29.6775,SS-LK,,
-14657,13254734,settlement,"Sultan Chak Chak","Sultan Chak Chak",official,8.673104,26.851266,SS-BN,,
-14533,-22627,hypsographic,"Jabal Sombo","Jabal Sombo",official,8.79247,24.666668,SS-BW,,
-13455,-20854,settlement,"Sabil Abu Zala","Sabil Abu Zala",official,8.788005,25.718041,SS-BW,,
-13270,-20558,settlement,Ripi,Ripi,official,3.657865,30.678758,SS-EC,,
-13600,13329666,hypsographic,"Jabal Saleh","Jabal Saleh",official,4.276996,30.135369,SS-EW,,
-14395,-22409,hydrographic,Shweir,Shweir,official,7.743462,28.500771,SS-WR,,
-13132,-20330,hydrographic,"Khor Rangu","Khor Rangu",official,5.037818,28.336567,SS-EW,,
-13224,7723,settlement,Beriung,Beriung,variant,3.949037,30.483143,SS-EC,,
-13466,-20868,settlement,Saburi,Saburi,official,3.812411,31.694099,SS-EC,,
-13300,-20605,settlement,Rom,Rom,official,10.827048,32.467556,SS-NU,,
-14304,-27046,hydrographic,Warshoi,Warshoi,variant,9.537971,27.085596,SS-BN,,
-13214,-20461,settlement,Rein,Rein,variant,6.059501,30.520412,SS-EC,,
-13283,-20581,settlement,Roberia,Roberia,official,4.00624,31.505528,SS-EC,,
-13843,-21448,hydrographic,Sefi,Sefi,official,9.812147,30.510864,SS-UY,,
-13661,-21186,hydrographic,"Sanderson Gulf","Sanderson Gulf",variant,4.6,35.883333,S1-000,,
-13234,13232833,settlement,Renjnom,Renjnom,variant,9.937472,30.005145,SS-UY,,
-14173,-21972,settlement,"Shaykh Jok","Shaykh Jok",variant,10.963894,32.638309,SS-NU,,
-14174,-21973,settlement,"Shaykh Mawlā’ī","Shaykh Mawla'i",variant,4.947504,30.719381,SS-EW,,
-14189,-21990,settlement,Shebalueng,Shebalueng,official,9.294205,30.694541,SS-JG,,
-13878,-21518,settlement,Senambia,Senambia,official,4.753549,29.525235,SS-EW,,
-14401,-22401,settlement,Shwai,Shwai,official,8.85632,32.51216,SS-JG,,
-14284,13265624,hypsographic,"Jebel Shingi","Jebel Shingi",variant,9.972397,33.969072,SS-NU,,
-14785,-23041,hypsographic,"Jabal Tagalla","Jabal Tagalla",official,9.484703,25.336061,SS-BW,,
-13242,-20510,hydrographic,Rierle,Rierle,official,7.964347,32.651225,SS-JG,,
-14524,-22605,hydrographic,"Khor Sobi","Khor Sobi",official,4.603173,28.924962,SS-EW,,
-13600,-21081,hypsographic,"Jebel Saleh","Jebel Saleh",variant,4.276996,30.135369,SS-EW,,
