wgdPlaceId,wgdId,type,name,fullName,nameType,latitude,longitude,administrationGroup,isHistorical,isCapital
-3847932,-5087247,hypsographic,Kashanes,Kashanes,short,34.875,33.636236,CY-03,,
-3847878,-5087193,park,Klimis,Klimis,official,34.928604,33.587771,CY-03,,
-3847839,-5087082,park,Katsaroumba,Katsaroumba,variant,34.752795,33.342501,CY-03,,
-3847826,-5087069,park,Kaoukkos,Kaoukkos,official,34.755296,33.306208,CY-03,,
-3847608,-5086851,hydrographic,Karakonas,Karakonas,official,34.972743,33.374645,CY-01,,
-3818904,-5057162,park,Mesovounia,Mesovounia,official,34.980562,33.667448,CY-03,,
-3818251,-5056508,park,Aetos,Aetos,official,35.1125,32.825,CY-01,,
-3818039,-5056296,park,Saouri,Saouri,variant,34.883787,32.721748,CY-05,,
-3818025,-5056282,hydrographic,Khalaras,Khalaras,variant,34.883896,32.553334,CY-05,,
-3817859,-5056116,hypsographic,Makrona,Makrona,official,34.811504,32.502363,CY-05,,
-3811089,-5049915,park,Ammi,Ammi,variant,35.691667,34.5625,CY-04,,
-3810816,-5049642,park,Vouppos,Vouppos,official,35.4625,34.208333,CY-04,,
-3809327,-5048154,park,Pouziaris,Pouziaris,official,35.295099,33.42664,CY-06,,
-3809321,-5048148,park,Kokkina,Kokkina,official,35.270071,33.409257,CY-06,,
-3809017,15223418,spot,Pigades,Pigades,official,35.289373,33.082272,CY-06,,
-3808226,-5047131,park,Karapetros,Karapetros,variant,35.218224,33.47356,CY-01,,
-3808061,-5046966,park,Strakka,Strakka,official,35.089765,33.298967,CY-01,,
-3834136,14571383,park,Kolympos,Kolympos,official,34.733333,33.291667,CY-03,,
-3834147,-5072542,park,Vournes,Vournes,official,34.746491,33.386272,CY-03,,
-3833286,-5071587,hypsographic,Mosilovouno,Mosilovouno,official,34.680563,32.672478,CY-02,,
-3833270,15102617,vegetation,Rantidi,Rantidi,official,34.688389,32.63375,CY-05,,
-3833287,-5071588,park,Khokhlajeri,Khokhlajeri,variant,34.669257,32.672328,CY-02,,
-3833147,-5071447,park,"Krya Pigadhia","Krya Pigadhia",variant,34.771686,33.17404,CY-02,,
-3833243,-5071544,park,Asprovounaros,Asprovounaros,variant,34.723314,32.677076,CY-02,,
-3833270,-5071571,vegetation,"Randi Forest","Randi Forest",variant,34.688389,32.63375,CY-05,,
-3833316,-5071617,park,Pelavi,Pelavi,official,34.687997,32.74262,CY-02,,
-3833144,-5071444,park,Mazovounos,Mazovounos,official,34.768169,33.146104,CY-02,,
-3833318,-5071619,park,Kourvoulies,Kourvoulies,variant,34.684973,32.732608,CY-02,,
-3834136,-5072531,park,Kolymbos,Kolymbos,variant,34.733333,33.291667,CY-03,,
-3833146,-5071446,park,Kokkinovounos,Kokkinovounos,official,34.791614,33.168597,CY-02,,
-3833317,-5071618,park,Mandri,Mandri,variant,34.686386,32.737565,CY-02,,
-3833147,15791374,park,"Krya Pigadia","Krya Pigadia",official,34.771686,33.17404,CY-02,,
-3834135,14571590,park,Asproi,Asproi,official,34.725,33.283333,CY-03,,
-3833269,-5071570,park,Dhasha,Dhasha,variant,34.685082,32.621378,CY-05,,
-3833318,15103706,park,Kourvouloi,Kourvouloi,official,34.684973,32.732608,CY-02,,
-3834135,-5072530,park,Asprous,Asprous,variant,34.725,33.283333,CY-03,,
-3833091,-5071391,park,"Pefkarin Imeron","Pefkarin Imeron",official,34.845942,33.203414,CY-02,,
-3833319,15103952,park,Kokkina,Kokkina,official,34.677973,32.745997,CY-02,,
-3833145,-5071445,park,"Laxia tou Rokka","Laxia tou Rokka",official,34.753785,33.1527,CY-02,,
-3833019,-5071319,park,Strongylos,Strongylos,official,34.854529,33.113858,CY-02,,
-3833317,15103713,park,Mantri,Mantri,official,34.686386,32.737565,CY-02,,
-3833243,15100575,park,Asprovounos,Asprovounos,official,34.723314,32.677076,CY-02,,
-3833143,-5071443,park,Petrovounos,Petrovounos,short,34.784121,33.151993,CY-02,,
-3831612,14926254,park,Skafes,Skafes,official,34.895536,32.88183,CY-02,,
-3831814,14899574,park,Mantaras,Mantaras,official,34.756474,32.96403,CY-02,,
-3831710,-5070010,park,Kourvellos,Kourvellos,official,34.795538,32.762415,CY-02,,
-3831711,-5070011,park,Tyropios,Tyropios,variant,34.782436,32.752147,CY-02,,
-3831812,-5070112,park,Vatin,Vatin,variant,34.754167,32.95,CY-02,,
-3831586,-5069886,park,Atophoulia,Atophoulia,variant,34.922981,32.777257,CY-02,,
-3831811,14899577,park,Koulountis,Koulountis,official,34.764729,32.953359,CY-02,,
-3831612,-5069912,park,Skaphes,Skaphes,variant,34.895536,32.88183,CY-02,,
-3831811,-5070111,park,Kouloundis,Kouloundis,variant,34.764729,32.953359,CY-02,,
-3831813,-5070113,park,Kiladhes,Kiladhes,variant,34.771424,32.969541,CY-02,,
-3831813,14899893,park,Koilades,Koilades,official,34.771424,32.969541,CY-02,,
-3832912,15785035,park,Stenokampia,Stenokampia,official,34.977945,33.194636,CY-01,,
-3831814,-5070114,park,Mandaras,Mandaras,variant,34.756474,32.96403,CY-02,,
-3831810,-5070110,park,Karvounaris,Karvounaris,official,34.778145,32.957309,CY-02,,
-3831694,-5069994,park,Roathis,Roathis,variant,34.836721,32.950727,CY-02,,
-3831809,532186,park,Hasanoz,Hasanoz,variant,34.76798,32.930756,CY-02,,
-3831812,14899286,park,Vati,Vati,official,34.754167,32.95,CY-02,,
-3832912,-5071212,park,Stenokambia,Stenokambia,variant,34.977945,33.194636,CY-01,,
-3831711,14900010,park,Tyropoios,Tyropoios,official,34.782436,32.752147,CY-02,,
-3818781,-5057039,park,"Landa Makrya","Landa Makrya",variant,35.132027,33.730942,CY-04,,
-3818677,15721212,park,"Çatal Tepesi","Catal Tepesi",short,35.173451,33.5198,CY-01,,
-3818735,15718664,hydrographic,Katsellis,Katsellis,official,35.236703,33.700308,CY-04,,
-3818736,-5056994,hydrographic,Koutsosheras,Koutsosheras,variant,35.214066,33.730318,CY-04,,
-3818752,15721134,hydrographic,Sinnis,Sinnis,official,35.206577,33.727663,CY-04,,
-3818753,15721150,hydrographic,Argaki,Argaki,official,35.195126,33.69673,CY-04,,
-3818733,15718630,hydrographic,"Kor Dere","Kor Dere",short,35.223313,33.659452,CY-04,,
-3818830,15029712,park,Glyfa,Glyfa,official,34.981477,33.585135,CY-03,,
-3818678,-5056936,hypsographic,"Ali Efendi","Ali Efendi",official,35.169991,33.538504,CY-01,,
-3818830,-5057088,park,Glypha,Glypha,variant,34.981477,33.585135,CY-03,,
-3818780,-5057038,park,Temeller,Temeller,official,35.134282,33.692435,CY-04,,
-3818714,15722322,park,Archiotika,Archiotika,official,35.104882,33.646279,CY-04,,
-3818736,15718675,hydrographic,Koutsocheras,Koutsocheras,official,35.214066,33.730318,CY-04,,
-3818831,-5057089,park,Kondokoli,Kondokoli,variant,34.983333,33.55,CY-03,,
-3818679,-5056937,park,"Fella Eshei","Fella Eshei",variant,35.159674,33.515064,CY-01,,
-3818715,-5056973,park,Zangalaki,Zangalaki,variant,35.115826,33.625978,CY-04,,
-3818781,15721346,park,"Lanta Makria","Lanta Makria",official,35.132027,33.730942,CY-04,,
-3818714,-5056972,park,Arsiotika,Arsiotika,variant,35.104882,33.646279,CY-04,,
-3818733,-5056991,hydrographic,"Kior Dere","Kior Dere",variant,35.223313,33.659452,CY-04,,
-3818753,-5057011,hydrographic,Arkaji,Arkaji,variant,35.195126,33.69673,CY-04,,
-3818735,-5056993,hydrographic,Katselli,Katselli,variant,35.236703,33.700308,CY-04,,
-3818715,15721383,park,Zagkalakkis,Zagkalakkis,official,35.115826,33.625978,CY-04,,
-3818752,-5057010,hydrographic,Simnis,Simnis,variant,35.206577,33.727663,CY-04,,
-3810969,14597427,park,Kankellia,Kankellia,official,35.5741,34.266242,CY-04,,
-3810842,14578495,park,Eliomylos,Eliomylos,official,35.545833,34.241667,CY-04,,
-3811228,14630255,park,Rigopoullos,Rigopoullos,official,35.046681,32.3335,CY-05,,
-3818572,-5056830,park,Mazerka,Mazerka,variant,35.022936,33.165092,CY-01,,
-3818651,15561405,park,Mavrogi,Mavrogi,official,35.078541,33.21923,CY-01,,
-3810748,14580233,spot,"Agia Sofia","Agia Sofia",short,35.430891,34.147058,CY-04,,
-3810718,14579319,park,Mouttaria,Mouttaria,official,35.497059,34.113506,CY-04,,
-3818569,-5056827,hydrographic,"Kryon Neron","Kryon Neron",official,35.040635,33.127943,CY-01,,
-3810818,14579588,hydrographic,Nichchia,Nichchia,official,35.465846,34.237286,CY-04,,
-3811229,-5050055,park,Stavropiyi,Stavropiyi,variant,35.05,32.325,CY-05,,
-3817905,-5056162,park,Aetophoulies,Aetophoulies,variant,34.972819,32.556612,CY-05,,
-3810720,-5049546,park,"Pakhys Ammos","Pakhys Ammos",short,35.500278,34.114444,CY-04,,
-3810817,-5049643,park,Yerania,Yerania,variant,35.4625,34.229167,CY-04,,
-3818647,-5056905,park,Kokkinia,Kokkinia,official,35.114685,33.243544,CY-01,,
-3818674,-5056932,park,Loukkos,Loukkos,official,35.188677,33.524377,CY-01,,
-3811096,14595689,hypsographic,Kleisoura,Kleisoura,official,35.643421,34.48424,CY-04,,
-3811097,-5049923,hypsographic,Troulia,Troulia,variant,35.654676,34.483996,CY-04,,
-3810715,-5049541,park,Plakes,Plakes,official,35.4875,34.095833,CY-04,,
-3818543,-5056801,hypsographic,Lefkovounos,Lefkovounos,official,35.130994,33.147272,CY-01,,
-3818651,-5056909,park,Mavroyi,Mavroyi,variant,35.078541,33.21923,CY-01,,
-3810687,14581312,park,Kompos,Kompos,official,35.4,34.045833,CY-04,,
-3818650,15561473,hydrographic,Charangas,Charangas,official,35.101586,33.218406,CY-01,,
-3810749,-5049575,park,Mersinia,Mersinia,variant,35.433333,34.1625,CY-04,,
-3818392,-5056651,park,Katarraktis,Katarraktis,variant,35.204058,33.045616,CY-01,,
-3811898,-5050729,park,Spitoudhia,Spitoudhia,variant,34.768262,32.485777,CY-05,,
-3818676,-5056934,park,Morkatika,Morkatika,variant,35.184864,33.563895,CY-01,,
-3818676,15721153,park,Markatika,Markatika,official,35.184864,33.563895,CY-01,,
-3810749,14580234,park,Mersinera,Mersinera,official,35.433333,34.1625,CY-04,,
-3811227,-5050053,park,Magnisia,Magnisia,variant,35.041667,32.325,CY-05,,
-3810969,-5049795,park,Kankelia,Kankelia,variant,35.5741,34.266242,CY-04,,
-3818648,-5056906,park,Koundouri,Koundouri,variant,35.099645,33.243897,CY-01,,
-3811097,14595536,hypsographic,Troullia,Troullia,official,35.654676,34.483996,CY-04,,
-3811187,-5050013,park,Mesoyia,Mesoyia,variant,35.075637,32.313242,CY-05,,
-3810713,-5049539,hydrographic,Pigadhi,Pigadhi,variant,35.488516,34.073146,CY-04,,
-3809800,15294652,hydrographic,Pastardos,Pastardos,official,35.420244,33.879962,CY-04,,
-3811898,14722620,park,Spitoudia,Spitoudia,official,34.768262,32.485777,CY-05,,
-3818391,15581860,park,Kokkinogia,Kokkinogia,official,35.209377,33.035126,CY-01,,
-3810831,-5049657,hydrographic,Kharangi,Kharangi,variant,35.503763,34.239651,CY-04,,
-3811750,-5050581,park,Yerakopetra,Yerakopetra,variant,34.884586,32.403584,CY-05,,
-3812735,-5051385,park,Vikles,Vikles,official,35.167219,32.554576,CY-05,,
-3818433,-5056692,hypsographic,Alestos,Alestos,variant,35.03298,33.022001,CY-01,,
-3810721,14579363,vegetation,Cheromylia,Cheromylia,official,35.4875,34.120833,CY-04,,
-3810714,-5049540,hydrographic,Psarolimni,Psarolimni,official,35.481579,34.085117,CY-04,,
-3812757,-5051407,park,Mersinoudhia,Mersinoudhia,variant,35.101043,32.537064,CY-05,,
-3818675,-5056933,park,"Pitsillo Yolu","Pitsillo Yolu",official,35.18941,33.545426,CY-01,,
-3809783,15292001,hydrographic,Louria,Louria,official,35.344944,33.886169,CY-04,,
-3811212,-5050038,park,Samakia,Samakia,official,35.027683,32.312771,CY-05,,
-3810687,-5049513,park,Kombos,Kombos,variant,35.4,34.045833,CY-04,,
-3811388,-5050217,park,Shiromylia,Shiromylia,variant,35.210409,33.887101,CY-04,,
-3818571,-5056829,park,Kokkinoyia,Kokkinoyia,variant,35.028787,33.158208,CY-01,,
-3811213,-5050039,hydrographic,Koudhounas,Koudhounas,variant,35.011175,32.303346,CY-05,,
-3811079,14594826,park,Korakas,Korakas,official,35.6625,34.5125,CY-04,,
-3810716,-5049542,hydrographic,Kamares,Kamares,official,35.49655,34.098356,CY-04,,
-3818392,15581824,park,Katakroi,Katakroi,official,35.204058,33.045616,CY-01,,
-3811882,-5050713,park,Lartoyiannis,Lartoyiannis,short,34.820833,32.479167,CY-05,,
-3811187,499920,park,Mezoyi,Mezoyi,variant,35.075637,32.313242,CY-05,,
-3818650,-5056908,hydrographic,Kharangas,Kharangas,variant,35.101586,33.218406,CY-01,,
-3810719,-5049545,hydrographic,Petra,Petra,official,35.500676,34.115979,CY-04,,
-3810718,-5049544,park,Mouttarka,Mouttarka,variant,35.497059,34.113506,CY-04,,
-3811749,-5050580,park,Tremithia,Tremithia,official,34.895833,32.408333,CY-05,,
-3811748,-5050579,park,Yephyrka,Yephyrka,variant,34.908333,32.408333,CY-05,,
-3810817,14579587,park,Gerania,Gerania,official,35.4625,34.229167,CY-04,,
-3810717,-5049543,hydrographic,Vouppos,Vouppos,variant,35.498333,34.105278,CY-04,,
-3818677,-5056935,park,"Chatal Tepesi","Chatal Tepesi",variant,35.173451,33.5198,CY-01,,
-3817905,14779274,park,Aetofoulies,Aetofoulies,official,34.972819,32.556612,CY-05,,
-3811883,-5050714,park,Aetovounos,Aetovounos,short,34.825,32.4625,CY-05,,
-3811686,-5050517,hydrographic,Kalamoulli,Kalamoulli,variant,34.918683,32.327239,CY-05,,
-3810700,14579433,hydrographic,Skammata,Skammata,official,35.472879,34.044721,CY-04,,
-3818649,-5056907,hypsographic,Vlokkarka,Vlokkarka,variant,35.089575,33.249701,CY-01,,
-3818570,-5056828,hydrographic,Kolokia,Kolokia,official,35.040418,33.128812,CY-01,,
-3818390,-5056649,park,Kallinikos,Kallinikos,official,35.212175,33.00806,CY-01,,
-3811228,-5050054,park,Rigopoulos,Rigopoulos,variant,35.046681,32.3335,CY-05,,
-3811387,-5050216,park,Pallourotopia,Pallourotopia,official,35.215716,33.868035,CY-04,,
-3811750,14724014,park,Gerakopetra,Gerakopetra,official,34.884586,32.403584,CY-05,,
-3818277,-5056534,hypsographic,Mosphileri,Mosphileri,variant,35.032273,32.852552,CY-01,,
-3818346,-5056603,park,"Kambos tou Aga","Kambos tou Aga",variant,35.1,32.929167,CY-01,,
-3818648,15564212,park,Kountouri,Kountouri,official,35.099645,33.243897,CY-01,,
-3818277,14491535,hypsographic,Mosfileri,Mosfileri,official,35.032273,32.852552,CY-01,,
-3818393,-5056652,park,Kavallarka,Kavallarka,variant,35.202346,33.015308,CY-01,,
-3810815,-5049641,park,Lourka,Lourka,variant,35.454167,34.208333,CY-04,,
-3811213,14630696,hydrographic,Koudounas,Koudounas,official,35.011175,32.303346,CY-05,,
-3811227,14630258,park,Magnichia,Magnichia,official,35.041667,32.325,CY-05,,
-3818571,15551555,park,Kokkinogia,Kokkinogia,official,35.028787,33.158208,CY-01,,
-3818119,-5056376,hypsographic,Paoura,Paoura,official,34.813119,32.668202,CY-05,,
-3810748,-5049574,spot,"Ayia Sophia","Ayia Sophia",variant,35.430891,34.147058,CY-04,,
-3817939,-5056196,park,Asprokremia,Asprokremia,official,34.959758,32.676962,CY-05,,
-3818649,15561474,hypsographic,Vlokkaria,Vlokkaria,official,35.089575,33.249701,CY-01,,
-3818393,15581827,park,Kavallaria,Kavallaria,official,35.202346,33.015308,CY-01,,
-3810815,14580065,park,Louria,Louria,official,35.454167,34.208333,CY-04,,
-3809799,-5048625,hydrographic,Tenios,Tenios,official,35.419529,33.876087,CY-04,,
-3818572,15548281,park,Mazeria,Mazeria,official,35.022936,33.165092,CY-01,,
-3809800,-5048626,hydrographic,Pastarto,Pastarto,variant,35.420244,33.879962,CY-04,,
-3810713,14579362,hydrographic,Pigadi,Pigadi,official,35.488516,34.073146,CY-04,,
-3810814,-5049640,park,Stalos,Stalos,official,35.45,34.195833,CY-04,,
-3811229,14630254,park,Stavropigi,Stavropigi,official,35.05,32.325,CY-05,,
-3818508,-5056766,hydrographic,Angoulos,Angoulos,variant,35.246413,33.071069,CY-000,,
-3812736,-5051386,park,Pervolin,Pervolin,variant,35.153985,32.55512,CY-05,,
-3818391,-5056650,park,Kokkinoyia,Kokkinoyia,variant,35.209377,33.035126,CY-01,,
-3818596,-5056854,spot,Panayia,Panayia,variant,35.046758,33.19943,CY-01,,
-3810717,14579318,hydrographic,Vouppes,Vouppes,official,35.498333,34.105278,CY-04,,
-3811187,14629469,park,Mesogia,Mesogia,official,35.075637,32.313242,CY-05,,
-3818597,15558608,hydrographic,Kolades,Kolades,official,35.057655,33.213099,CY-01,,
-3809491,-5048317,park,Trapezia,Trapezia,official,35.31691,33.655879,CY-04,,
-3808186,-5047091,spot,Kaphizin,Kaphizin,variant,35.135653,33.423804,CY-01,,
-3808172,-5047077,park,Yephyrka,Yephyrka,variant,35.089765,33.387136,CY-01,,
-3809106,-5047932,park,"Tamli Belenk","Tamli Belenk",short,35.255804,33.234149,CY-06,,
-3809319,15181445,park,Platyvounos,Platyvounos,official,35.257244,33.407028,CY-06,,
-3808003,-5046908,park,Kafkalia,Kafkalia,variant,35.210871,33.284645,CY-01,,
-3808077,15747273,park,Mantroudia,Mantroudia,official,35.185761,33.304394,CY-01,,
-3809253,-5048080,park,Arodhaphnes,Arodhaphnes,variant,35.254193,33.305093,CY-06,,
-3809226,15180873,park,"Baş Tarla","Bas Tarla",short,35.285841,33.267699,CY-06,,
-3808001,-5046906,hypsographic,"Kara Tepe","Kara Tepe",short,35.215689,33.260273,CY-01,,
-3808215,15738508,park,Kokkinogi,Kokkinogi,official,35.227483,33.438397,CY-01,,
-3808156,-5047061,park,Jeleftis,Jeleftis,variant,35.046901,33.423532,CY-01,,
-3808201,15747369,park,Lantes,Lantes,official,35.187636,33.43587,CY-01,,
-3809252,-5048079,park,Bostanlikkin,Bostanlikkin,variant,35.262175,33.304223,CY-06,,
-3808028,15757395,park,Agiotika,Agiotika,official,35.090906,33.254465,CY-01,,
-3808077,-5046982,park,Mandroudhia,Mandroudhia,variant,35.185761,33.304394,CY-01,,
-3808216,15735436,park,Postannikkia,Postannikkia,official,35.237184,33.424537,CY-01,,
-3808170,15762049,park,Dimmata,Dimmata,official,35.08499,33.440761,CY-01,,
-3809495,-5048321,park,"Otoun Yiolou","Otoun Yiolou",variant,35.274431,33.674945,CY-04,,
-3809710,-5048536,park,Jipia,Jipia,short,35.335246,33.910651,CY-04,,
-3808156,15762452,park,Keleftis,Keleftis,official,35.046901,33.423532,CY-01,,
-3808217,-5047122,park,"Ouzoum Laxia","Ouzoum Laxia",official,35.240228,33.4028,CY-01,,
-3809250,15181097,park,Kafkallia,Kafkallia,official,35.270261,33.304169,CY-06,,
-3809496,-5048322,park,Mazeri,Mazeri,official,35.263487,33.675706,CY-04,,
-3809107,-5047933,park,Yaniklar,Yaniklar,official,35.26327,33.24578,CY-06,,
-3809493,-5048319,park,Merjanlar,Merjanlar,variant,35.290201,33.667701,CY-04,,
-3808155,-5047060,park,Arkosyja,Arkosyja,variant,35.047771,33.408224,CY-01,,
-3809250,-5048077,park,Kafkalia,Kafkalia,variant,35.270261,33.304169,CY-06,,
-3808155,15762449,park,Arkosykia,Arkosykia,official,35.047771,33.408224,CY-01,,
-3809598,-5048424,hydrographic,Pikros,Pikros,official,35.278216,33.765145,CY-04,,
-3809493,15252577,park,Mercanlar,Mercanlar,short,35.290201,33.667701,CY-04,,
-3808283,-5047188,park,Markoullos,Markoullos,official,35.006837,33.491832,CY-01,,
-3808002,-5046907,park,Vounia,Vounia,official,35.211904,33.261686,CY-01,,
-3809221,-5048048,park,Melissi,Melissi,official,35.313804,33.258195,CY-06,,
-3809222,-5048049,park,Potamoudhia,Potamoudhia,variant,35.311133,33.267952,CY-06,,
-3809388,15253976,hydrographic,"Koca Dere","Koca Dere",short,35.256576,33.536505,CY-01,,
-3809102,-5047928,park,Kalapakki,Kalapakki,official,35.297472,33.20155,CY-06,,
-3808144,-5047049,park,Kokkinovrysi,Kokkinovrysi,official,35.01337,33.440951,CY-01,,
-3808042,15763149,hydrographic,Galinia,Galinia,official,35.014873,33.295616,CY-01,,
-3809584,-5048410,park,"Pervola tou Mavrou","Pervola tou Mavrou",official,35.344338,33.767136,CY-04,,
-3809222,15180362,park,Potamoudia,Potamoudia,official,35.311133,33.267952,CY-06,,
-3809062,-5047888,park,Krinema,Krinema,variant,35.297228,33.146712,CY-06,,
-3808142,15763163,park,Gerokarya,Gerokarya,official,35.002454,33.406213,CY-01,,
-3808028,-5046933,park,Ayiatika,Ayiatika,variant,35.090906,33.254465,CY-01,,
-3808217,15735432,park,"Uzun Lakşa","Uzun Laks첧a",variant,35.240228,33.4028,CY-01,,
-3808216,-5047121,park,Bostanlikia,Bostanlikia,variant,35.237184,33.424537,CY-01,,
-3808215,-5047120,park,Kokkinoyi,Kokkinoyi,variant,35.227483,33.438397,CY-01,,
-3809711,15292127,hydrographic,Tholos,Tholos,official,35.339711,33.920453,CY-04,,
-3809103,-5047929,park,Plesha,Plesha,variant,35.28732,33.212882,CY-06,,
-3809104,-5047930,park,"Semiz Tarla","Semiz Tarla",official,35.276496,33.211877,CY-06,,
-3808245,-5047150,park,Kamilopetra,Kamilopetra,official,35.141884,33.491315,CY-01,,
-3809211,15179067,park,Kokkinogia,Kokkinogia,official,35.337529,33.279819,CY-06,,
-3808000,-5046905,park,"Chakili Ova","Chakili Ova",variant,35.221466,33.27473,CY-01,,
-3809490,15251369,hydrographic,Akonia,Akonia,official,35.290336,33.657156,CY-04,,
-3808157,15762392,park,Lagoudera,Lagoudera,official,35.056296,33.400925,CY-01,,
-3809210,-5048037,park,Syrmata,Syrmata,official,35.336088,33.260626,CY-06,,
-3810649,-5049475,vegetation,"Mandrika Forest","Mandrika Forest",variant,35.425,34.0125,CY-04,,
-3809107,15223286,park,Yanıklar,Yaniklar,variant,35.26327,33.24578,CY-06,,
-3809654,15291364,park,Ellinochori,Ellinochori,official,35.343224,33.842075,CY-04,,
-3810649,14580236,vegetation,Mantrika,Mantrika,official,35.425,34.0125,CY-04,,
-3809622,15291365,hydrographic,Galaktini,Galaktini,official,35.33808,33.823642,CY-04,,
-3808058,15762138,park,Asprogiades,Asprogiades,official,35.079221,33.289548,CY-01,,
-3809495,15253943,park,"Odun Yolu","Odun Yolu",short,35.274431,33.674945,CY-04,,
-3808142,-5047047,park,Yerokarka,Yerokarka,variant,35.002454,33.406213,CY-01,,
-3808172,15761525,park,Giofyria,Giofyria,official,35.089765,33.387136,CY-01,,
-3809224,-5048051,park,Mazeri,Mazeri,official,35.305254,33.254738,CY-06,,
-3809494,-5048320,hydrographic,Mazeri,Mazeri,official,35.249935,33.68472,CY-04,,
-3808170,-5047075,park,Dhimmata,Dhimmata,variant,35.08499,33.440761,CY-01,,
-3809371,-5048198,park,Phileri,Phileri,variant,35.265036,33.463697,CY-01,,
-3808126,-5047031,park,Katsokhiri,Katsokhiri,variant,35.071604,33.354548,CY-01,,
-3809498,15254346,park,Emince,Emince,short,35.250571,33.701984,CY-04,,
-3809711,-5048537,hydrographic,Cholos,Cholos,variant,35.339711,33.920453,CY-04,,
-3809319,-5048146,park,"Platy Vouno","Platy Vouno",variant,35.257244,33.407028,CY-06,,
-3809492,-5048318,park,Peristeria,Peristeria,official,35.29213,33.656268,CY-04,,
-3809105,-5047931,park,"Tari Yeri","Tari Yeri",short,35.255587,33.208251,CY-06,,
-3808171,-5047076,park,Lakkoudhia,Lakkoudhia,variant,35.088488,33.431886,CY-01,,
-3808186,15753847,spot,Kafizia,Kafizia,official,35.135653,33.423804,CY-01,,
-3808059,-5046964,park,Glyphos,Glyphos,variant,35.082055,33.308579,CY-01,,
-3808171,15762048,park,Lakkoudia,Lakkoudia,official,35.088488,33.431886,CY-01,,
-3809103,15223406,park,Plechia,Plechia,official,35.28732,33.212882,CY-06,,
-3809703,-5048529,park,Kalyphoudhes,Kalyphoudhes,variant,35.316965,33.915934,CY-04,,
-3809225,-5048052,park,Kouphopetra,Kouphopetra,variant,35.301005,33.277518,CY-06,,
-3808058,-5046963,park,Asproyiadhes,Asproyiadhes,variant,35.079221,33.289548,CY-01,,
-3809252,15181209,park,Postannikki,Postannikki,official,35.262175,33.304223,CY-06,,
-3808232,15746708,park,Palioklichia,Palioklichia,official,35.194092,33.442725,CY-01,,
-3809225,15180405,park,Koufopetra,Koufopetra,official,35.301005,33.277518,CY-06,,
-3809703,15288908,park,Kalyfoudes,Kalyfoudes,official,35.316965,33.915934,CY-04,,
-3846845,-5085952,park,Lastringas,Lastringas,variant,34.6875,32.879167,CY-02,,
-3846813,-5085920,park,Poulia,Poulia,variant,34.7375,33.116667,CY-02,,
-3846815,14548824,park,Fakiola,Fakiola,official,34.691667,32.754167,CY-02,,
-3846763,-5085870,park,Kochinoudhkia,Kochinoudhkia,variant,34.725,32.870833,CY-02,,
-3847573,-5086816,hypsographic,Arkolioudhia,Arkolioudhia,variant,34.989462,33.264756,CY-01,,
-3846813,14547711,park,Poullia,Poullia,official,34.7375,33.116667,CY-02,,
-3846817,-5085924,park,Mikhalo,Mikhalo,variant,34.660749,32.752018,CY-02,,
-3846843,14548688,park,Ktista,Ktista,official,34.69902,32.884471,CY-02,,
-3847678,-5086921,hydrographic,Jinarotos,Jinarotos,variant,34.954766,33.45341,CY-000,,
-3846812,14548681,park,Choletres,Choletres,official,34.7125,33.1,CY-02,,
-3846814,-5085921,park,Anoacha,Anoacha,short,34.7125,33.116667,CY-02,,
-3846815,-5085922,park,Phajiola,Phajiola,variant,34.691667,32.754167,CY-02,,
-3846845,14548829,park,Lastrigkas,Lastrigkas,official,34.6875,32.879167,CY-02,,
-3846843,-5085950,park,Khtista,Khtista,variant,34.69902,32.884471,CY-02,,
-3846727,-5085834,park,Kannies,Kannies,variant,34.737419,32.765025,CY-02,,
-3846817,14549546,park,Michalos,Michalos,official,34.660749,32.752018,CY-02,,
-3846816,-5085923,park,Kamares,Kamares,official,34.675537,32.753789,CY-02,,
-3846812,-5085919,park,Kholetres,Kholetres,variant,34.7125,33.1,CY-02,,
-3846763,14547798,park,Kokkinoudia,Kokkinoudia,official,34.725,32.870833,CY-02,,
-3846799,-5085906,hypsographic,Xi-Vouno,Xi-Vouno,variant,34.731871,33.021124,CY-02,,
-3846799,14547706,hypsographic,Xivounon,Xivounon,official,34.731871,33.021124,CY-02,,
-3847891,-5087206,park,Mouttes,Mouttes,official,34.912337,33.54726,CY-03,,
-3847908,15028608,park,Mosfiloti,Mosfiloti,official,34.866023,33.509541,CY-03,,
-3847890,-5087205,park,"Koja Seki","Koja Seki",variant,34.910911,33.515913,CY-03,,
-3847890,15028749,park,"Koca Seki","Koca Seki",official,34.910911,33.515913,CY-03,,
-3847583,-5086826,park,Teredhia,Teredhia,variant,34.969218,33.28231,CY-01,,
-3847868,15029669,hypsographic,"Moútti tou Farángou","Moutti tou Farangou",official,34.964999,33.540376,CY-03,,
-3847723,15012610,spot,"Παναγία Νικηφόρος","Παναγία Νικηφόρος",unknown,34.858333,33.354167,CY-03,,
-3847918,-5087233,spot,"Ayios Andronikos","Ayios Andronikos",variant,34.86258,33.552581,CY-03,,
-3847683,15012617,spot,Πυργά,Πυργά,unknown,34.925511,33.431316,CY-03,,
-3847613,-5086856,park,Aspropamboulos,Aspropamboulos,variant,34.996021,33.422955,CY-01,,
-3847653,-5086896,park,Dhidhymos,Dhidhymos,variant,34.94285,33.299219,CY-01,,
-3847671,14990545,park,Mazovounaros,Mazovounaros,official,34.931128,33.372395,CY-03,,
-3847579,-5086822,spot,Arkhangelos,Arkhangelos,variant,34.993762,33.28844,CY-01,,
-3847803,15011177,spot,"Άγιος Μάμας","Άγιος Μάμας",unknown,34.805084,33.434653,CY-03,,
-3847590,-5086833,hydrographic,Koutsos,Koutsos,official,34.977151,33.330189,CY-01,,
-3847889,15029722,park,Ormana,Ormana,variant,34.960618,33.648039,CY-03,,
-3847830,15011437,spot,"Ágios Nikifóros","Agios Nikiforos",short,34.791667,33.316667,CY-03,,
-3847644,14990561,hydrographic,"Argaki tou Agiou Georgiou","Argaki tou Agiou Georgiou",official,34.914698,33.27702,CY-01,,
-3847686,-5086929,park,"Niolimata Chiftlik","Niolimata Chiftlik",variant,34.905163,33.434599,CY-03,,
-3847706,14996709,spot,Pródromos,Prodromos,official,34.855831,33.285588,CY-03,,
-3847757,14996272,park,Volikoudia,Volikoudia,official,34.871695,33.492368,CY-03,,
-3847924,15039782,spot,"Άγιος Θωμάς","Άγιος Θωμάς",unknown,34.837528,33.566962,CY-03,,
-3847885,-5087200,spot,"Ayia Paraskevi","Ayia Paraskevi",variant,34.955695,33.626959,CY-03,,
-3847823,15004707,park,Pampoulos,Pampoulos,official,34.76806,33.27949,CY-03,,
-3847579,14987837,spot,Archángelos,Archangelos,official,34.993762,33.28844,CY-01,,
-3847633,14989228,hypsographic,Profali,Profali,official,34.981046,33.497126,CY-01,,
-3847637,-5086880,park,Zonias,Zonias,official,34.954462,33.49479,CY-03,,
-3847767,-5087010,park,Mandrika,Mandrika,variant,34.829726,33.290053,CY-03,,
-3847722,14995307,park,Mouttaria,Mouttaria,official,34.868951,33.338551,CY-03,,
-3847595,-5086838,hydrographic,Leska,Leska,variant,34.963364,33.319416,CY-01,,
-3847676,14992833,park,Kremmaria,Kremmaria,official,34.910453,33.386991,CY-03,,
-3847580,-5086823,park,Karamanitis,Karamanitis,official,34.988011,33.285507,CY-01,,
-3847879,15029640,park,Charkeia,Charkeia,official,34.960806,33.595914,CY-03,,
-3847927,15039307,spot,"Αγία Μαρίνα","Αγία Μαρίνα",unknown,34.860164,33.595026,CY-03,,
-3847679,-5086922,spot,"Ayios Yeoryios","Ayios Yeoryios",variant,34.933679,33.413681,CY-03,,
-3847682,14992836,park,"Mouttaria tou Mina","Mouttaria tou Mina",official,34.913546,33.423692,CY-03,,
-3847868,-5087183,hypsographic,"Moutti tou Pharangou","Moutti tou Pharangou",variant,34.964999,33.540376,CY-03,,
-3847808,15001448,park,Kokkinadia,Kokkinadia,official,34.838094,33.492207,CY-03,,
-3847941,533083,spot,"Pýrgos Kitíou","Pyrgos Kitiou",official,34.832686,33.602042,CY-03,,
-3847789,-5087032,hypsographic,"New Mavro","New Mavro",variant,34.847926,33.390671,CY-03,,
-3847594,-5086837,hydrographic,"Argaki ton Yerakion","Argaki ton Yerakion",variant,34.964326,33.321746,CY-01,,
-3847674,14990518,park,Xyntes,Xyntes,official,34.939217,33.395859,CY-01,,
-3847631,-5086874,park,Vatoudhi,Vatoudhi,variant,34.99035,33.475671,CY-01,,
-3847657,-5086900,hypsographic,"Vulture Point","Vulture Point",short,34.921318,33.314567,CY-03,,
-3847636,-5086879,park,Misiskopos,Misiskopos,official,34.958547,33.467442,CY-03,,
-3847749,-5086992,park,Mavrónero,Mavronero,official,34.885698,33.466264,CY-03,,
-3847754,15011439,spot,"Ágios Geórgios","Agios Georgios",short,34.85,33.458333,CY-03,,
-3847832,15003613,park,Kapsaloudia,Kapsaloudia,official,34.777606,33.338228,CY-03,,
-3847613,14988086,park,Aspropampoulos,Aspropampoulos,official,34.996021,33.422955,CY-01,,
-3847727,-5086970,park,Mesovounon,Mesovounon,official,34.859679,33.370431,CY-03,,
-3847816,-5087059,park,Yerakarkon,Yerakarkon,variant,34.788708,33.265213,CY-02,,
-3847589,14989406,park,"Pano Trachonas","Pano Trachonas",official,34.968868,33.308178,CY-01,,
-3847644,-5086887,hydrographic,"Argaki tou Ayiou Yeoryiou","Argaki tou Ayiou Yeoryiou",variant,34.914698,33.27702,CY-01,,
-3847744,-5086987,park,Gaidhouropniktos,Gaidhouropniktos,variant,34.87,33.432608,CY-03,,
-3847795,-5087038,park,Dhrakondies,Dhrakondies,variant,34.826502,33.420834,CY-03,,
-3847876,15032666,vegetation,"Δάσος Ριζοελιάς","Δάσος Ριζοελιάς",unknown,34.94164,33.573627,CY-03,,
-3847614,15010998,spot,"Αγία Μαρίνα","Αγία Μαρίνα",unknown,34.98782,33.398898,CY-01,,
-3847839,15005268,park,Katsaroupa,Katsaroupa,official,34.752795,33.342501,CY-03,,
-3847837,15010736,spot,"Αγία Μαρίνα","Αγία Μαρίνα",unknown,34.765213,33.344003,CY-03,,
-3847711,15010993,spot,"Αγία Αναστασία","Αγία Αναστασία",unknown,34.870188,33.302529,CY-03,,
-3847939,15034390,spot,"Άγιος Λεόντιος","Άγιος Λεόντιος",unknown,34.827067,33.57622,CY-03,,
-3847626,14989391,park,Mantres,Mantres,official,34.978199,33.438092,CY-01,,
-3847705,-5086948,spot,"Arkhangelos Monastery","Arkhangelos Monastery",variant,34.871167,33.293139,CY-03,,
-3847889,15032539,park,Ορμάνι,Ορμάνι,unknown,34.960618,33.648039,CY-03,,
-3847853,15005246,spot,"Ágios Athanásios","Agios Athanasios",official,34.756474,33.40632,CY-03,,
-3847840,-5087083,park,"Kochines tou Miri","Kochines tou Miri",variant,34.780486,33.366292,CY-03,,
-3847811,15010404,spot,"Άγιος Ξενοφών","Άγιος Ξενοφών",unknown,34.80715,33.498418,CY-03,,
-3847833,-5087076,park,Kambanaris,Kambanaris,variant,34.766586,33.317177,CY-03,,
-3847862,15003144,spot,Petoúnta,Petounta,official,34.783467,33.492907,CY-03,,
-3847746,-5086989,park,Mazera,Mazera,official,34.86282,33.441881,CY-03,,
-3847737,-5086980,park,Kamenos,Kamenos,official,34.882524,33.412256,CY-03,,
-3847800,15001463,hydrographic,"Argaki tis Mavrogis","Argaki tis Mavrogis",official,34.823413,33.424488,CY-03,,
-3847802,15002676,hypsographic,Trachonia,Trachonia,official,34.818303,33.438872,CY-03,,
-3847720,-5086963,park,Koupanos,Koupanos,official,34.882389,33.35575,CY-03,,
-3847778,-5087021,park,Kasparis,Kasparis,official,34.842953,33.340026,CY-03,,
-3847752,15000223,park,"Ágios Epifánios","Agios Epifanios",official,34.860056,33.449283,CY-03,,
-3847731,14993395,hypsographic,Malia,Malia,official,34.893868,33.394433,CY-03,,
-3847802,-5087045,hypsographic,Trakhonia,Trakhonia,variant,34.818303,33.438872,CY-03,,
-3847904,533116,spot,"Turkish Fort","Turkish Fort",variant,34.910136,33.637985,CY-03,,
-3847906,-5087221,park,Rodhino,Rodhino,variant,34.881905,33.503493,CY-03,,
-3847907,15028614,spot,"Ágios Epifánios","Agios Epifanios",official,34.872363,33.504246,CY-03,,
-3847633,-5086876,hypsographic,Prophali,Prophali,variant,34.981046,33.497126,CY-01,,
-3847619,15006031,spot,"Άγιος Ιωάννης","Άγιος Ιωάννης",unknown,34.96473,33.406745,CY-01,,
-3847766,-5087009,spot,"Ayios Minas Monastery","Ayios Minas Monastery",variant,34.840295,33.285857,CY-03,,
-3847864,-5087179,hypsographic,"Moútti tou Zyoú","Moutti tou Zyou",official,34.951152,33.512851,CY-03,,
-3847775,-5087018,park,Pambakas,Pambakas,variant,34.824624,33.334112,CY-03,,
-3847921,-5087236,spot,"Tremithos-Kiti Dam","Tremithos-Kiti Dam",variant,34.86965,33.557904,CY-03,,
-3847695,14992438,park,Maratheftes,Maratheftes,official,34.924057,33.483172,CY-03,,
-3847817,15011001,spot,"Άγιοι Απόστολοι","Άγιοι Απόστολοι",unknown,34.77984,33.255667,CY-02,,
-3847700,15011411,spot,"Άγιοι Σαράντα","Άγιοι Σαράντα",unknown,34.8625,33.25,CY-03,,
-3847630,15006530,spot,"Αγία Μαρίνα","Αγία Μαρίνα",unknown,34.945044,33.459737,CY-03,,
-3847796,-5087039,park,Argakia,Argakia,official,34.813921,33.409969,CY-03,,
-3847809,15001948,park,Voudomantres,Voudomantres,official,34.824167,33.492261,CY-03,,
-3847736,-5086979,park,Melanas,Melanas,variant,34.887474,33.419192,CY-03,,
-3847653,14990504,park,Didymos,Didymos,official,34.94285,33.299219,CY-01,,
-3847907,-5087222,spot,"Ayios Epiphanios","Ayios Epiphanios",variant,34.872363,33.504246,CY-03,,
-3847781,-5087024,spot,"Ayia Paraskevi","Ayia Paraskevi",variant,34.806989,33.350348,CY-03,,
-3847708,14993497,park,Kalyfoudia,Kalyfoudia,official,34.882551,33.295484,CY-03,,
-3847600,14989411,spot,"Panagía Chrysogalatoúsa","Panagia Chrysogalatousa",official,34.969137,33.33973,CY-01,,
-3847693,14990490,hydrographic,Τρέμιθος,Τρέμιθος,unknown,34.974104,33.42099,CY-03,,
-3847884,15039772,spot,"Άγιοι Ανάργυροι","Άγιοι Ανάργυροι",unknown,34.93067,33.623601,CY-03,,
-3847717,15008326,spot,"Άγιος Γεώργιος","Άγιος Γεώργιος",unknown,34.855427,33.321825,CY-03,,
-3847628,-5086871,hypsographic,Vyzakeri,Vyzakeri,official,34.958144,33.432985,CY-03,,
-3847857,-5087100,park,Kopros,Kopros,official,34.797604,33.439438,CY-03,,
-3847910,-5087225,hypsographic,"Moútti tou Alexikoú","Moutti tou Alexikou",official,34.877766,33.521397,CY-03,,
-3847923,-5087238,spot,"Panayia Angeloktistos","Panayia Angeloktistos",variant,34.847684,33.570702,CY-03,,
-3847912,15028353,park,Atopetra,Atopetra,official,34.83656,33.52836,CY-03,,
-3847728,15000206,spot,"Moni Panagias Galaktotrofousas","Moni Panagias Galaktotrofousas",variant,34.855535,33.380479,CY-03,,
-3847622,14989709,park,"Kampoi tou Kkeli","Kampoi tou Kkeli",official,34.958816,33.421297,CY-000,,
-3847740,-5086983,park,Spalathovouno,Spalathovouno,variant,34.852742,33.407574,CY-03,,
-3847898,-5087213,park,"Pasha Chiftlik","Pasha Chiftlik",short,34.898118,33.582363,CY-03,,
-3847612,-5086855,spot,"Ayios Konstantinos and Ayia Eleni","Ayios Konstantinos and Ayia Eleni",variant,34.954167,33.391667,CY-01,,
-3847705,15008317,spot,Αρχάγγελος,Αρχάγγελος,unknown,34.871167,33.293139,CY-03,,
-3847859,15004422,park,Filimeni,Filimeni,official,34.77406,33.449113,CY-03,,
-3847696,-5086939,park,Teratsotos,Teratsotos,official,34.913117,33.483495,CY-03,,
-3847704,14993951,park,Zanatofoulia,Zanatofoulia,official,34.875484,33.295457,CY-03,,
-3847895,-5087210,park,Exoyi,Exoyi,variant,34.896586,33.572338,CY-03,,
-3847642,-5086885,hydrographic,"Argaki ton Mandron","Argaki ton Mandron",variant,34.919986,33.27073,CY-01,,
-3847790,-5087033,park,Paliolino,Paliolino,official,34.839353,33.387904,CY-03,,
-3847863,15010610,hypsographic,Πετούντα,Πετούντα,unknown,34.778414,33.496615,CY-03,,
-3847913,-5087228,park,"Pende Petres","Pende Petres",variant,34.863522,33.536885,CY-03,,
-3847700,-5086943,spot,"Ayii Saranda","Ayii Saranda",variant,34.8625,33.25,CY-03,,
-3847715,15007595,spot,"Ágios Thomás","Agios Thomas",official,34.884596,33.312737,CY-03,,
-3847724,-5086967,park,Pernaka,Pernaka,variant,34.851719,33.343868,CY-03,,
-3847627,14989393,spot,"Agía Marína","Agia Marina",official,34.974164,33.441612,CY-01,,
-3847872,15039777,spot,"Άγιος Μάμας","Άγιος Μάμας",unknown,34.920807,33.552769,CY-03,,
-3847764,-5087007,park,Petromoudhkia,Petromoudhkia,variant,34.814674,33.256797,CY-03,,
-3847780,15012343,spot,Παναγία,Παναγία,unknown,34.822042,33.357284,CY-03,,
-3847931,-5087246,park,"Kafkarid Tepesi","Kafkarid Tepesi",short,34.860858,33.628547,CY-03,,
-3847876,-5087191,vegetation,"Rizoelia Forest","Rizoelia Forest",variant,34.94164,33.573627,CY-03,,
-3847666,-5086909,park,"Moutti tou Poti","Moutti tou Poti",official,34.926316,33.33987,CY-03,,
-3847777,-5087020,spot,"Knight’s Templar Commandery","Knight's Templar Commandery",short,34.798788,33.328481,CY-03,,
-3847924,-5087239,spot,"Ayios Thomas","Ayios Thomas",variant,34.837528,33.566962,CY-03,,
-3847896,-5087211,park,Kapsalos,Kapsalos,official,34.884919,33.571664,CY-03,,
-3847617,14989388,spot,Lýmpia,Lympia,official,34.974024,33.420589,CY-03,,
-3847761,-5087004,park,Koukos,Koukos,official,34.838228,33.257928,CY-03,,
-3847804,-5087047,spot,"Alaminos Tower","Alaminos Tower",variant,34.806165,33.438273,CY-03,,
-3847819,-5087062,park,Sterna,Sterna,official,34.766747,33.254354,CY-02,,
-3847910,15033327,hypsographic,"Μούττη του Αλεξικού","Μούττη του Αλεξικού",unknown,34.877766,33.521397,CY-03,,
-3847827,15011433,spot,"Ágios Iákovos","Agios Iakovos",short,34.8,33.333333,CY-03,,
-3847784,15001924,park,Choletra,Choletra,official,34.827014,33.364329,CY-03,,
-3847573,14987831,hypsographic,Arkoloudia,Arkoloudia,official,34.989462,33.264756,CY-01,,
-3847681,14992278,hydrographic,"Argaki tou Symeo Efenti","Argaki tou Symeo Efenti",official,34.909463,33.397095,CY-03,,
-3847894,15033248,park,Καβάλλα,Καβάλλα,unknown,34.902579,33.564895,CY-03,,
-3847692,-5086935,hypsographic,Papalia,Papalia,variant,34.900002,33.465483,CY-03,,
-3847618,-5086861,hydrographic,Karis,Karis,official,34.967402,33.412929,CY-000,,
-3847788,-5087031,hydrographic,Psyllos,Psyllos,official,34.795618,33.382368,CY-03,,
-3847907,15033470,spot,"Άγιος Επιφάνιος","Άγιος Επιφάνιος",unknown,34.872363,33.504246,CY-03,,
-3847807,15003134,park,Kavallarides,Kavallarides,official,34.799784,33.462824,CY-03,,
-3847669,-5086912,spot,"Ayios Eftykhios","Ayios Eftykhios",variant,34.945833,33.3625,CY-01,,
-3847912,-5087227,park,Akopetra,Akopetra,variant,34.83656,33.52836,CY-03,,
-3847902,15032788,spot,"Αγία Φανερωμένη","Αγία Φανερωμένη",unknown,34.910916,33.627416,CY-03,,
-3847634,-5086877,park,Adhkiaiera,Adhkiaiera,variant,34.968895,33.47121,CY-03,,
-3847669,15011431,spot,"Ágios Eftýchios","Agios Eftychios",short,34.945833,33.3625,CY-01,,
-3847942,-5087257,park,Plates,Plates,variant,34.824382,33.599433,CY-03,,
-3847782,532935,spot,Choirokoitía,Choirokoitia,official,34.797039,33.345112,CY-03,,
-3847675,15012614,spot,Πρόδρομος,Πρόδρομος,unknown,34.922819,33.397364,CY-03,,
-3847927,15028455,spot,"Agía Marína","Agia Marina",official,34.860164,33.595026,CY-03,,
-3847597,-5086840,park,"Kambos tou Mylou","Kambos tou Mylou",variant,34.984356,33.335216,CY-01,,
-3847612,15011435,spot,"Ágios Konstantínos kai Agía Eléni","Agios Konstantinos kai Agia Eleni",short,34.954167,33.391667,CY-01,,
-3847828,15011441,spot,"Ágios Geórgios","Agios Georgios",short,34.795833,33.320833,CY-03,,
-3847734,-5086977,park,"Kambos tou Simoni","Kambos tou Simoni",variant,34.862688,33.388389,CY-03,,
-3847911,-5087226,park,Kolymbi,Kolymbi,variant,34.85565,33.517474,CY-03,,
-3847601,-5086844,hydrographic,"Argaki tou Ayiou Iona","Argaki tou Ayiou Iona",variant,34.970989,33.337017,CY-01,,
-3847611,-5086854,park,Kaledhra,Kaledhra,variant,34.955108,33.368875,CY-01,,
-3847760,-5087003,spot,Arkhangelos,Arkhangelos,variant,34.840429,33.268948,CY-03,,
-3847588,-5086831,park,Kourvellos,Kourvellos,official,34.981611,33.312877,CY-01,,
-3847903,-5087218,spot,"Ayios Lazaros","Ayios Lazaros",variant,34.91153,33.634811,CY-03,,
-3847811,15002719,spot,"Ágios Xenofón","Agios Xenofon",official,34.80715,33.498418,CY-03,,
-3847763,15001691,spot,Panagía,Panagia,official,34.825754,33.266559,CY-03,,
-3847685,-5086928,park,Evgali,Evgali,official,34.911341,33.432608,CY-03,,
-3847922,-5087237,spot,"Ayios Yeoryios","Ayios Yeoryios",variant,34.859571,33.566343,CY-03,,
-3847682,-5086925,park,"Mouttarka tou Mina","Mouttarka tou Mina",variant,34.913546,33.423692,CY-03,,
-3847662,-5086905,hydrographic,"Argaki ton Vaton","Argaki ton Vaton",variant,34.923196,33.339009,CY-03,,
-3847670,15012624,hydrographic,Ξυλιάς,Ξυλιάς,unknown,34.954274,33.397237,CY-01,,
-3847854,15005272,hypsographic,Pentáschoinos,Pentaschoinos,official,34.750182,33.41173,CY-03,,
-3847619,-5086862,spot,"Ayios Ioannis","Ayios Ioannis",variant,34.96473,33.406745,CY-01,,
-3847673,-5086916,park,Khalospita,Khalospita,variant,34.902499,33.361342,CY-03,,
-3847809,-5087052,park,Voudhomandres,Voudhomandres,variant,34.824167,33.492261,CY-03,,
-3847701,-5086944,spot,"Panayia tis Agapis","Panayia tis Agapis",variant,34.858979,33.259488,CY-03,,
-3847813,-5087056,park,Petra,Petra,official,34.797873,33.264271,CY-000,,
-3847899,15032987,spot,"Άγιος Γεώργιος Μακρύς","Άγιος Γεώργιος Μακρύς",unknown,34.909215,33.616972,CY-03,,
-3847797,15010393,park,"Παναγία των Ασταδιών","Παναγία των Ασταδιών",unknown,34.806074,33.409463,CY-03,,
-3847903,533125,spot,"Church of Lazarus","Church of Lazarus",variant,34.91153,33.634811,CY-03,,
-3847793,-5087036,park,Appiakia,Appiakia,variant,34.83473,33.407499,CY-03,,
-3847604,-5086847,park,Trines,Trines,official,34.954436,33.347447,CY-01,,
-3847712,14999527,spot,"Ágios Timótheos","Agios Timotheos",official,34.863764,33.31349,CY-03,,
-3847647,-5086890,vegetation,"Makheras Forest","Makheras Forest",variant,34.906772,33.258525,CY-000,,
-3847650,14990540,park,Kedris,Kedris,official,34.933894,33.29113,CY-01,,
-3847901,-5087216,spot,"Vyzakia City-Site","Vyzakia City-Site",variant,34.884488,33.607257,CY-03,,
-3847938,15027898,park,Kokkinadi,Kokkinadi,official,34.821343,33.550914,CY-03,,
-3847745,-5086988,hypsographic,Aetomoutti,Aetomoutti,official,34.865483,33.432822,CY-03,,
-3847681,-5086924,hydrographic,"Argaki tou Symeou Efendi","Argaki tou Symeou Efendi",variant,34.909463,33.397095,CY-03,,
-3847758,15000884,park,Kouroukles,Kouroukles,official,34.848868,33.484464,CY-03,,
-3847833,15004710,park,Kampanaris,Kampanaris,official,34.766586,33.317177,CY-03,,
-3847616,-5086859,hydrographic,Kalamoulia,Kalamoulia,variant,34.976236,33.4148,CY-01,,
-3847615,-5086858,park,Misiskopos,Misiskopos,official,34.983253,33.418902,CY-01,,
-3847827,-5087070,spot,"Ayios Iakovos","Ayios Iakovos",variant,34.8,33.333333,CY-03,,
-3847797,15002713,park,"Panagía ton Astadión","Panagia ton Astadion",official,34.806074,33.409463,CY-03,,
-3847741,15007454,spot,"Agía Varvára","Agia Varvara",official,34.898979,33.425376,CY-03,,
-3847625,14988116,park,Plakia,Plakia,official,34.993472,33.441423,CY-01,,
-3847782,532933,spot,Khirokitiá-Vouni,Khirokitia-Vouni,variant,34.797039,33.345112,CY-03,,
-3847851,532971,hypsographic,"Cenk Tepesi","Cenk Tepesi",variant,34.783946,33.406933,CY-03,,
-3847710,15007597,spot,"Αγία Μαρίνα","Αγία Μαρίνα",unknown,34.875188,33.308792,CY-03,,
-3847679,14990549,spot,"Ágios Geórgios","Agios Georgios",official,34.933679,33.413681,CY-03,,
-3847770,15009530,spot,"Άγιος Νεόφυτος","Άγιος Νεόφυτος",unknown,34.845644,33.29903,CY-03,,
-3847719,-5086962,hypsographic,Kasi,Kasi,official,34.893598,33.34755,CY-03,,
-3847829,15010298,spot,"Παναγία του Κάμπου","Παναγία του Κάμπου",unknown,34.797825,33.328757,CY-03,,
-3847766,15009537,spot,"Άγιος Μηνάς","Άγιος Μηνάς",unknown,34.840295,33.285857,CY-03,,
-3847874,-5087189,spot,"Panayia Ematousa","Panayia Ematousa",variant,34.961317,33.565374,CY-03,,
-3847846,15010739,spot,"Άγιος Νικόλαος","Άγιος Νικόλαος",unknown,34.770455,33.38204,CY-03,,
-3847939,15028152,spot,"Ágios Leóntios","Agios Leontios",official,34.827067,33.57622,CY-03,,
-3847884,-5087199,spot,"Ayia Anargyron","Ayia Anargyron",variant,34.93067,33.623601,CY-03,,
-3847699,-5086942,park,Kokkinokremmos,Kokkinokremmos,official,34.874785,33.260701,CY-03,,
-3847882,15032529,spot,"Αγία Αναστασία","Αγία Αναστασία",unknown,34.958251,33.61262,CY-03,,
-3847851,-5087094,hypsographic,"High Hill","High Hill",variant,34.783946,33.406933,CY-03,,
-3847905,-5087220,spot,"Jami Kebir Mosque","Jami Kebir Mosque",variant,34.910082,33.636532,CY-03,,
-3847875,-5087190,spot,"Ayios Yeoryios","Ayios Yeoryios",variant,34.949113,33.570374,CY-03,,
-3847773,-5087016,park,Katsoura,Katsoura,official,34.807635,33.306478,CY-03,,
-3847768,-5087011,hypsographic,"Aetomoutti tis Vavlas","Aetomoutti tis Vavlas",official,34.816127,33.290834,CY-03,,
-3847624,14988113,hypsographic,Lariona,Lariona,official,34.992099,33.430084,CY-01,,
-3847658,-5086901,park,Kokkinopambouli,Kokkinopambouli,variant,34.913952,33.298062,CY-000,,
-3847640,-5086883,hypsographic,Oxys,Oxys,official,34.931854,33.264325,CY-01,,
-3847792,-5087035,park,Kamitsis,Kamitsis,variant,34.806854,33.391047,CY-03,,
-3847898,15028724,park,"Paşa Çiftlik","Pasa Ciftlik",variant,34.898118,33.582363,CY-03,,
-3847928,-5087243,park,Prountzidhes,Prountzidhes,variant,34.852688,33.599972,CY-03,,
-3847827,15011434,spot,"Άγιος Ιάκωβος","Άγιος Ιάκωβος",unknown,34.8,33.333333,CY-03,,
-3847921,15033625,spot,Τρέμιθος-Κίτι,Τρέμιθος-Κίτι,unknown,34.86965,33.557904,CY-03,,
-3847610,-5086853,park,Kokkinomoutti,Kokkinomoutti,official,34.963416,33.379031,CY-01,,
-3847799,15001402,spot,"Ágioi Athanásios kai Kýrillos","Agioi Athanasios kai Kyrillos",official,34.842905,33.441343,CY-03,,
-3847684,14992281,spot,"Agía Marína","Agia Marina",official,34.924838,33.432043,CY-03,,
-3847900,15033266,hypsographic,Μελισσάρι,Μελισσάρι,unknown,34.882066,33.599568,CY-03,,
-3847870,15029233,park,Pampoulari,Pampoulari,official,34.938872,33.546829,CY-03,,
-3847684,-5086927,spot,"Ayia Marina","Ayia Marina",variant,34.924838,33.432043,CY-03,,
-3847586,14988628,hydrographic,"Argaci Veran Bahça","Argaci Veran Bahca",variant,34.991319,33.303955,CY-01,,
-3847828,15011442,spot,"Άγιος Γεώργιος","Άγιος Γεώργιος",unknown,34.795833,33.320833,CY-03,,
-3847791,-5087034,hypsographic,"Vounon tis Kophinou","Vounon tis Kophinou",variant,34.818786,33.383547,CY-03,,
-3847791,15002311,hypsographic,"Vounon tis Kofinous","Vounon tis Kofinous",official,34.818786,33.383547,CY-03,,
-3847916,15028360,park,Ampeloudi,Ampeloudi,official,34.840295,33.540834,CY-03,,
-3847883,-5087198,park,Kochiniles,Kochiniles,variant,34.94462,33.617288,CY-03,,
-3847904,-5087219,spot,"Larnaca Castle","Larnaca Castle",variant,34.910136,33.637985,CY-03,,
-3847701,14996635,spot,"Panagía tis Agápis","Panagia tis Agapis",official,34.858979,33.259488,CY-03,,
-3847869,15032659,park,Κοντές,Κοντές,unknown,34.957955,33.535082,CY-03,,
-3847926,-5087241,spot,"Ayios Andronikos","Ayios Andronikos",variant,34.8625,33.595833,CY-03,,
-3847680,-5086923,hypsographic,Pikrasidhi,Pikrasidhi,variant,34.930137,33.40696,CY-03,,
-3847635,533036,hypsographic,"Sinomutti Tepesi","Sinomutti Tepesi",variant,34.968545,33.484464,CY-03,,
-3847742,-5086985,park,Garinos,Garinos,official,34.896074,33.44462,CY-03,,
-3847785,-5087028,spot,"Ayios Yeoryios","Ayios Yeoryios",variant,34.816667,33.3625,CY-03,,
-3847769,15010295,spot,"Άγιος Γεώργιος","Άγιος Γεώργιος",unknown,34.801962,33.278952,CY-03,,
-3847654,-5086897,park,Phyta,Phyta,variant,34.942904,33.315508,CY-01,,
-3847776,-5087019,hypsographic,Nemourka,Nemourka,official,34.811289,33.33379,CY-03,,
-3847865,15032684,hypsographic,Κουζούλα,Κουζούλα,unknown,34.921399,33.513873,CY-03,,
-3847671,-5086914,park,Mazovouno,Mazovouno,variant,34.931128,33.372395,CY-03,,
-3847617,15005966,spot,Λύμπια,Λύμπια,unknown,34.974024,33.420589,CY-03,,
-3847705,15008316,spot,Archángelos,Archangelos,official,34.871167,33.293139,CY-03,,
-3847886,-5087201,spot,"Ayios Savvas","Ayios Savvas",variant,34.948278,33.635052,CY-03,,
-3847902,533126,spot,"Faneromeni Church","Faneromeni Church",variant,34.910916,33.627416,CY-03,,
-3847592,-5086835,hydrographic,Koutsos,Koutsos,official,34.958776,33.310326,CY-01,,
-3847728,-5086971,spot,"Panayia Galaktotrophousa Monastery","Panayia Galaktotrophousa Monastery",variant,34.855535,33.380479,CY-03,,
-3847799,-5087042,spot,"Ayios Athanasios and Ayios Kyrilios","Ayios Athanasios and Ayios Kyrilios",variant,34.842905,33.441343,CY-03,,
-3847818,533290,hydrographic,Asgata,Asgata,variant,34.775916,33.293062,CY-000,,
-3847880,-5087195,spot,Panayia,Panayia,variant,34.945833,33.595833,CY-03,,
-3847702,-5086945,park,Vounon,Vounon,official,34.849353,33.26207,CY-03,,
-3847661,14990563,vegetation,Aetomoutti,Aetomoutti,official,34.925215,33.318165,CY-03,,
-3847822,15010732,spot,"Αρχάγγελος Μιχαήλ","Αρχάγγελος Μιχαήλ",unknown,34.781315,33.290618,CY-03,,
-3847600,-5086843,spot,"Panayia Khrysogalatousa","Panayia Khrysogalatousa",variant,34.969137,33.33973,CY-01,,
-3847677,533000,spot,"Atekla Manastırı","Atekla Manastiri",variant,34.9468,33.421426,CY-03,,
-3847726,-5086969,spot,"Mikhail Arkhangelos","Mikhail Arkhangelos",variant,34.87352,33.368063,CY-03,,
-3847877,-5087192,hypsographic,Alóna,Alona,official,34.940266,33.564276,CY-03,,
-3847825,-5087068,hypsographic,Kafkalia,Kafkalia,official,34.779678,33.30785,CY-03,,
-3847869,-5087184,park,Kondes,Kondes,variant,34.957955,33.535082,CY-03,,
-3847879,-5087194,park,Kharcha,Kharcha,variant,34.960806,33.595914,CY-03,,
-3847803,15002715,spot,"Ágios Mámas","Agios Mamas",official,34.805084,33.434653,CY-03,,
-3847660,14990543,hydrographic,Armyros,Armyros,official,34.927152,33.330236,CY-03,,
-3847629,15010997,spot,"Αγία Μαρίνα","Αγία Μαρίνα",unknown,34.94992,33.429438,CY-03,,
-3847933,15027736,park,Nikolides,Nikolides,official,34.809841,33.506878,CY-03,,
-3847707,15000612,park,Kafkallia,Kafkallia,official,34.851398,33.27871,CY-03,,
-3847690,14993026,park,Linos,Linos,official,34.905647,33.446314,CY-03,,
-3847795,15001926,park,Drakonties,Drakonties,official,34.826502,33.420834,CY-03,,
-3847741,533004,spot,"Moní Agías Varváras","Moni Agias Varvaras",variant,34.898979,33.425376,CY-03,,
-3847589,-5086832,park,"Pano Trakhonas","Pano Trakhonas",variant,34.968868,33.308178,CY-01,,
-3847868,15032473,hypsographic,"Μούττη του Φαράγγου","Μούττη του Φαράγγου",unknown,34.964999,33.540376,CY-03,,
-3847765,-5087008,park,Kapsalia,Kapsalia,official,34.809411,33.273172,CY-03,,
-3847887,-5087202,park,Rakhmeli,Rakhmeli,short,34.947042,33.639675,CY-03,,
-3847811,-5087054,spot,"Ayios Xenophon","Ayios Xenophon",variant,34.80715,33.498418,CY-03,,
-3847635,-5086878,hypsographic,Shinomoutti,Shinomoutti,variant,34.968545,33.484464,CY-03,,
-3847843,-5087086,park,Xalona,Xalona,official,34.753385,33.378278,CY-03,,
-3847935,15027895,park,Elioudia,Elioudia,official,34.823359,33.520186,CY-03,,
-3847754,-5086997,spot,"Ayios Yeoryios","Ayios Yeoryios",variant,34.85,33.458333,CY-03,,
-3847752,-5086995,park,"Ayios Epiphanios","Ayios Epiphanios",variant,34.860056,33.449283,CY-03,,
-3847787,-5087030,park,Zefkos,Zefkos,variant,34.808657,33.365081,CY-03,,
-3847805,15001406,hypsographic,Strachalas,Strachalas,official,34.839353,33.460725,CY-03,,
-3847760,15011184,spot,Αρχάγγελος,Αρχάγγελος,unknown,34.840429,33.268948,CY-03,,
-3847824,-5087067,park,Zoulophtidhes,Zoulophtidhes,variant,34.756582,33.283091,CY-03,,
-3847584,-5086827,park,Vylos,Vylos,variant,34.95887,33.279867,CY-01,,
-3847877,15032663,hypsographic,Αλώνα,Αλώνα,unknown,34.940266,33.564276,CY-03,,
-3847677,532999,spot,"Moní Agías Théklas","Moni Agias Theklas",variant,34.9468,33.421426,CY-03,,
-3847914,-5087229,park,Mazeri,Mazeri,official,34.857876,33.535324,CY-03,,
-3847814,-5087057,park,Asproyi,Asproyi,variant,34.793552,33.256098,CY-02,,
-3847872,-5087187,spot,"Ayios Mamas","Ayios Mamas",variant,34.920807,33.552769,CY-03,,
-3847817,15003146,spot,"Ágioi Apóstoloi","Agioi Apostoloi",official,34.77984,33.255667,CY-02,,
-3847669,15011432,spot,"Άγιος Ευτύχιος","Άγιος Ευτύχιος",unknown,34.945833,33.3625,CY-01,,
-3847642,14990560,hydrographic,"Argaki ton Mantron","Argaki ton Mantron",official,34.919986,33.27073,CY-01,,
-3847942,15027901,park,Pampakera,Pampakera,official,34.824382,33.599433,CY-03,,
-3847712,15011183,spot,"Άγιος Τιμόθεος","Άγιος Τιμόθεος",unknown,34.863764,33.31349,CY-03,,
-3847918,15028541,spot,"Ágios Andrónikos","Agios Andronikos",official,34.86258,33.552581,CY-03,,
-3847638,-5086881,park,"Laxies tou Venetou","Laxies tou Venetou",variant,34.946908,33.261722,CY-01,,
-3847651,14990562,spot,"Ágios Geórgios","Agios Georgios",official,34.925053,33.278494,CY-01,,
-3847708,-5086951,park,Kalyphoudhia,Kalyphoudhia,variant,34.882551,33.295484,CY-03,,
-3847829,15002726,spot,"Panagía tou Kámpou","Panagia tou Kampou",official,34.797825,33.328757,CY-03,,
-3847663,-5086906,park,Kourtellorótsos,Kourtellorotsos,official,34.913519,33.319432,CY-03,,
-3847894,-5087209,park,Kaválla,Kavalla,official,34.902579,33.564895,CY-03,,
-3847797,-5087040,park,"Panayia ton Astadhkion","Panayia ton Astadhkion",variant,34.806074,33.409463,CY-03,,
-3847804,15010398,spot,"Πύργος Αλαμινού","Πύργος Αλαμινού",unknown,34.806165,33.438273,CY-03,,
-3847600,15006045,spot,"Παναγία Χρυσογαλατούσα","Παναγία Χρυσογαλατούσα",unknown,34.969137,33.33973,CY-01,,
-3847873,15033059,hypsographic,Καψαλερόμουττη,Καψαλερόμουττη,unknown,34.914542,33.550403,CY-03,,
-3847775,15001920,park,Pampakas,Pampakas,official,34.824624,33.334112,CY-03,,
-3847701,15012608,spot,"Παναγία της Αγάπης","Παναγία της Αγάπης",unknown,34.858979,33.259488,CY-03,,
-3847609,-5086852,park,Trikormi,Trikormi,official,34.970591,33.388626,CY-01,,
-3847726,15007598,spot,"Μιχαήλ Αρχάγγελος","Μιχαήλ Αρχάγγελος",unknown,34.87352,33.368063,CY-03,,
-3847607,-5086850,hydrographic,Armyras,Armyras,variant,34.974003,33.385985,CY-01,,
-3847851,15010407,hypsographic,"Χαϊ Χιλλ","Χαϊ Χιλλ",unknown,34.783946,33.406933,CY-03,,
-3847623,15011176,spot,"Άγιος Γεώργιος","Άγιος Γεώργιος",unknown,34.997745,33.46164,CY-01,,
-3847738,-5086981,vegetation,"Stavrovouni Forest","Stavrovouni Forest",variant,34.878439,33.424488,CY-03,,
-3847714,-5086957,park,"Mesa Moutti","Mesa Moutti",official,34.886235,33.333521,CY-03,,
-3847630,15006522,spot,"Agía Marína","Agia Marina",official,34.945044,33.459737,CY-03,,
-3847886,15029634,spot,"Ágios Sávvas","Agios Savvas",official,34.948278,33.635052,CY-03,,
-3847840,15003614,park,"Kokkini tou Miri","Kokkini tou Miri",official,34.780486,33.366292,CY-03,,
-3847828,-5087071,spot,"Ayios Yeoryios","Ayios Yeoryios",variant,34.795833,33.320833,CY-03,,
-3847899,15032986,spot,"Ágios Geórgios Makrýs","Agios Georgios Makrys",official,34.909215,33.616972,CY-03,,
-3847822,15010731,spot,"Archángelos Michaíl","Archangelos Michail",official,34.781315,33.290618,CY-03,,
-3847871,-5087186,park,Vournia,Vournia,official,34.949005,33.553928,CY-03,,
-3847905,15029080,spot,"Jami Kebir","Jami Kebir",variant,34.910082,33.636532,CY-03,,
-3847910,533034,hypsographic,"Aleksiko Burnu","Aleksiko Burnu",variant,34.877766,33.521397,CY-03,,
-3847614,-5086857,spot,"Ayia Marina","Ayia Marina",variant,34.98782,33.398898,CY-01,,
-3847673,14993009,park,Chalospita,Chalospita,official,34.902499,33.361342,CY-03,,
-3847683,-5086926,spot,"Pyrga Royal Chapel","Pyrga Royal Chapel",variant,34.925511,33.431316,CY-03,,
-3847780,15001922,spot,Panagía,Panagia,official,34.822042,33.357284,CY-03,,
-3847849,15003132,park,Stefani,Stefani,official,34.795053,33.409619,CY-03,,
-3847769,-5087012,spot,"Ayios Yeoryios","Ayios Yeoryios",variant,34.801962,33.278952,CY-03,,
-3847784,-5087027,park,Kholetra,Kholetra,variant,34.827014,33.364329,CY-03,,
-3847650,-5086893,park,Kedhris,Kedhris,variant,34.933894,33.29113,CY-01,,
-3847844,-5087087,park,Kashones,Kashones,variant,34.778575,33.387447,CY-03,,
-3847937,15039776,spot,"Άγιος Γεώργιος","Άγιος Γεώργιος",unknown,34.813544,33.538688,CY-03,,
-3847759,-5087002,park,Paliolinos,Paliolinos,official,34.898844,33.279614,CY-03,,
-3847730,-5086973,park,Kaloyeros,Kaloyeros,variant,34.898602,33.381663,CY-03,,
-3847735,-5086978,park,Triandaphylia,Triandaphylia,variant,34.898629,33.412981,CY-03,,
-3847873,15028966,hypsographic,Kapsalerómoutti,Kapsaleromoutti,official,34.914542,33.550403,CY-03,,
-3847884,15029130,spot,"Ágioi Anárgyroi","Agioi Anargyroi",official,34.93067,33.623601,CY-03,,
-3847831,15010730,spot,"Τίμιος Σταυρός","Τίμιος Σταυρός",unknown,34.78188,33.322283,CY-03,,
-3847597,14988631,park,"Kampos tou Mylou","Kampos tou Mylou",official,34.984356,33.335216,CY-01,,
-3847689,14992843,park,"Laxia tou Vachioti","Laxia tou Vachioti",official,34.913709,33.453257,CY-03,,
-3847838,-5087081,spot,"Ayios Andronikos","Ayios Andronikos",variant,34.766667,33.35,CY-03,,
-3847620,-5086863,hypsographic,Karis,Karis,official,34.958816,33.395724,CY-01,,
-3847874,15032478,spot,"Panagía Aimatoúsa","Panagia Aimatousa",official,34.961317,33.565374,CY-03,,
-3847937,-5087252,spot,"Ayios Yeoryios","Ayios Yeoryios",variant,34.813544,33.538688,CY-03,,
-3847664,-5086907,park,Mouttara,Mouttara,official,34.946477,33.356778,CY-01,,
-3847626,-5086869,park,Mandres,Mandres,variant,34.978199,33.438092,CY-01,,
-3847930,-5087245,park,Pitsilli,Pitsilli,short,34.870833,33.6125,CY-03,,
-3847741,-5086984,spot,"Ayia Varvara Monastery","Ayia Varvara Monastery",variant,34.898979,33.425376,CY-03,,
-3847630,-5086873,spot,"Ayia Marina","Ayia Marina",variant,34.945044,33.459737,CY-03,,
-3847767,15001454,park,Mantrika,Mantrika,official,34.829726,33.290053,CY-03,,
-3847869,15029646,park,Kontés,Kontes,official,34.957955,33.535082,CY-03,,
-3847710,14994031,spot,"Agía Marína","Agia Marina",official,34.875188,33.308792,CY-03,,
-3847591,14989628,spot,Archistratigos,Archistratigos,official,34.961291,33.305111,CY-01,,
-3847763,-5087006,spot,Panayia,Panayia,variant,34.825754,33.266559,CY-03,,
-3847846,15004711,spot,"Ágios Nikólaos","Agios Nikolaos",official,34.770455,33.38204,CY-03,,
-3847860,-5087103,park,Latourou,Latourou,official,34.783602,33.459947,CY-03,,
-3847917,15028531,spot,"Ágios Geórgios tis Árperas","Agios Georgios tis Arperas",official,34.868493,33.556671,CY-03,,
-3847601,14989675,hydrographic,"Argaki tou Agiou Iona","Argaki tou Agiou Iona",official,34.970989,33.337017,CY-01,,
-3847603,14989689,hypsographic,Mouttaria,Mouttaria,official,34.95981,33.348545,CY-01,,
-3847578,-5086821,park,Psoumnidhes,Psoumnidhes,variant,34.998547,33.281557,CY-01,,
-3847723,15012609,spot,"Panagía Nikifóros","Panagia Nikiforos",short,34.858333,33.354167,CY-03,,
-3847672,-5086915,park,Kochinorashi,Kochinorashi,variant,34.925751,33.365083,CY-03,,
-3847928,15028429,park,Prountzides,Prountzides,official,34.852688,33.599972,CY-03,,
-3847697,14993191,spot,"Panagía Stázousa","Panagia Stazousa",official,34.903575,33.486261,CY-03,,
-3847886,15039780,spot,"Άγιος Σάββας","Άγιος Σάββας",unknown,34.948278,33.635052,CY-03,,
-3847899,-5087214,spot,"Ayios Yeoryios Makris","Ayios Yeoryios Makris",variant,34.909215,33.616972,CY-03,,
-3847786,15010292,spot,"Άγιος Λουκάς","Άγιος Λουκάς",unknown,34.813921,33.362203,CY-03,,
-3847876,15029145,vegetation,Rizoelia,Rizoelia,variant,34.94164,33.573627,CY-03,,
-3847753,-5086996,spot,"Ayios Therapon","Ayios Therapon",variant,34.855164,33.456045,CY-03,,
-3847619,14989419,spot,"Ágios Ioánnis","Agios Ioannis",official,34.96473,33.406745,CY-01,,
-3847667,14990565,spot,Chrysosotiros,Chrysosotiros,official,34.918465,33.361557,CY-03,,
-3847822,15003608,spot,"Michail Archangelos","Michail Archangelos",variant,34.781315,33.290618,CY-03,,
-3847866,-5087181,park,Kolokia,Kolokia,official,34.935482,33.521935,CY-03,,
-3847748,-5086991,park,Kapsala,Kapsala,official,34.889998,33.45105,CY-03,,
-3847689,-5086932,park,"Laxia tou Vashoti","Laxia tou Vashoti",variant,34.913709,33.453257,CY-03,,
-3847743,-5086986,park,Kangellopetra,Kangellopetra,variant,34.875242,33.432823,CY-03,,
-3847847,-5087090,park,Yeropalloures,Yeropalloures,variant,34.761101,33.390213,CY-03,,
-3847743,14994717,park,Kankellopetra,Kankellopetra,official,34.875242,33.432823,CY-03,,
-3847849,-5087092,park,Stephani,Stephani,variant,34.795053,33.409619,CY-03,,
-3847623,14988576,spot,"Ágios Geórgios","Agios Georgios",official,34.997745,33.46164,CY-01,,
-3847638,14990297,park,"Laxies tou Penettou","Laxies tou Penettou",official,34.946908,33.261722,CY-01,,
-3847880,15039288,spot,Panagía,Panagia,short,34.945833,33.595833,CY-03,,
-3847861,-5087104,park,Karpanalis,Karpanalis,short,34.791667,33.483333,CY-03,,
-3847941,533082,spot,"Çite Kulesi","Cite Kulesi",variant,34.832686,33.602042,CY-03,,
-3847822,-5087065,spot,"Mikhail Arkhangelos","Mikhail Arkhangelos",variant,34.781315,33.290618,CY-03,,
-3847940,15039295,spot,"Αγία Ειρήνη","Αγία Ειρήνη",unknown,34.828843,33.578911,CY-03,,
-3847925,-5087240,park,Mazeri,Mazeri,official,34.869107,33.598686,CY-03,,
-3847789,15000874,hypsographic,Mavros,Mavros,official,34.847926,33.390671,CY-03,,
-3847584,14989617,park,Vilos,Vilos,official,34.95887,33.279867,CY-01,,
-3847635,533039,hypsographic,Şinnomutti,Sinnomutti,variant,34.968545,33.484464,CY-03,,
-3847728,15008428,spot,"Παναγία Γαλακτοτροφούσα","Παναγία Γαλακτοτροφούσα",unknown,34.855535,33.380479,CY-03,,
-3847834,-5087077,park,Pateli,Pateli,variant,34.761074,33.334462,CY-03,,
-3847770,15001206,spot,"Ágios Neófytos","Agios Neofytos",official,34.845644,33.29903,CY-03,,
-3847842,15010742,spot,Περιβόλια,Περιβόλια,unknown,34.750538,33.358872,CY-03,,
-3847794,15012346,spot,Παναγία,Παναγία,unknown,34.826422,33.403898,CY-03,,
-3847668,-5086911,park,Loukkos,Loukkos,official,34.910642,33.354195,CY-03,,
-3847870,-5087185,park,Pamboulari,Pamboulari,variant,34.938872,33.546829,CY-03,,
-3847598,-5086841,park,Platyvounia,Platyvounia,official,34.987661,33.354464,CY-01,,
-3847798,15003133,park,Afentiko,Afentiko,official,34.800053,33.420457,CY-03,,
-3847774,15011443,spot,"Ágios Geórgios","Agios Georgios",short,34.804167,33.3125,CY-03,,
-3847749,15007456,park,Μαυρόνερο,Μαυρόνερο,unknown,34.885698,33.466264,CY-03,,
-3847710,-5086953,spot,"Ayia Marina","Ayia Marina",variant,34.875188,33.308792,CY-03,,
-3847721,14994123,hypsographic,Chchinnokefalos,Chchinnokefalos,official,34.872368,33.352284,CY-03,,
-3847755,14993491,park,Rousomantra,Rousomantra,official,34.89524,33.493795,CY-03,,
-3847837,15004715,spot,"Agía Marína","Agia Marina",official,34.765213,33.344003,CY-03,,
-3847629,-5086872,spot,"Ayia Marina","Ayia Marina",variant,34.94992,33.429438,CY-03,,
-3847923,15033805,spot,"Παναγία Αγγελόκτιστος","Παναγία Αγγελόκτιστος",unknown,34.847684,33.570702,CY-03,,
-3847711,-5086954,spot,"Ayia Anastasia","Ayia Anastasia",variant,34.870188,33.302529,CY-03,,
-3847837,-5087080,spot,"Ayia Marina","Ayia Marina",variant,34.765213,33.344003,CY-03,,
-3847848,-5087091,spot,"Ayion Yeorgoudhi","Ayion Yeorgoudhi",variant,34.754214,33.402579,CY-03,,
-3847766,15009536,spot,"Ágios Minás","Agios Minas",official,34.840295,33.285857,CY-03,,
-3847905,15032765,spot,"Tzamí Kepír","Tzami Kepir",official,34.910082,33.636532,CY-03,,
-3847674,-5086917,park,Xindes,Xindes,variant,34.939217,33.395859,CY-01,,
-3847716,15008324,spot,Αρχάγγελος,Αρχάγγελος,unknown,34.861315,33.315912,CY-03,,
-3847903,15029094,spot,"Ágios Lázaros","Agios Lazaros",official,34.91153,33.634811,CY-03,,
-3847605,-5086848,spot,"Ayia Varvara","Ayia Varvara",variant,34.99648,33.368789,CY-01,,
-3847660,-5086903,hydrographic,Armyrias,Armyrias,variant,34.927152,33.330236,CY-03,,
-3847579,15005841,spot,Αρχάγγελος,Αρχάγγελος,unknown,34.993762,33.28844,CY-01,,
-3847938,-5087253,park,Kokkinadhia,Kokkinadhia,variant,34.821343,33.550914,CY-03,,
-3847854,15012611,hypsographic,Πεντάσχοινος,Πεντάσχοινος,unknown,34.750182,33.41173,CY-03,,
-3847665,-5086908,park,Psathas,Psathas,official,34.937204,33.345394,CY-01,,
-3847905,533120,spot,"Djami Kebir","Djami Kebir",variant,34.910082,33.636532,CY-03,,
-3847645,-5086888,park,"Moutti tou Kornou","Moutti tou Kornou",official,34.91938,33.26164,CY-01,,
-3847853,-5087096,spot,"Ayios Athanasios","Ayios Athanasios",variant,34.756474,33.40632,CY-03,,
-3847623,-5086866,spot,"Ayios Yeoryios","Ayios Yeoryios",variant,34.997745,33.46164,CY-01,,
-3847629,14990343,spot,"Agía Marína","Agia Marina",official,34.94992,33.429438,CY-03,,
-3847779,-5087022,hypsographic,"Laona tou Mavrou","Laona tou Mavrou",official,34.835537,33.338976,CY-03,,
-3847892,-5087207,park,Strongylia,Strongylia,variant,34.895563,33.550026,CY-03,,
-3847649,-5086892,spot,"Ayia Paraskevi","Ayia Paraskevi",variant,34.941667,33.279167,CY-01,,
-3847926,15039182,spot,"Ágios Andrónikos","Agios Andronikos",short,34.8625,33.595833,CY-03,,
-3847927,-5087242,spot,"Ayia Marina","Ayia Marina",variant,34.860164,33.595026,CY-03,,
-3847936,-5087251,hypsographic,Límnes,Limnes,official,34.801397,33.525782,CY-03,,
-3847646,-5086889,park,Petromoutti,Petromoutti,official,34.913952,33.25817,CY-01,,
-3847744,14996083,park,Gadouropniktis,Gadouropniktis,official,34.87,33.432608,CY-03,,
-3847656,14990541,park,Kefalos,Kefalos,official,34.932366,33.301747,CY-01,,
-3847683,534890,spot,"Saint Catherine Shrine","Saint Catherine Shrine",variant,34.925511,33.431316,CY-03,,
-3847760,15001068,spot,Archángelos,Archangelos,official,34.840429,33.268948,CY-03,,
-3847582,-5086825,hydrographic,"Argaki tis Telendis","Argaki tis Telendis",official,34.990189,33.296533,CY-01,,
-3847612,15011436,spot,"Άγιος Κωνσταντίνος και Αγία Ελένη","Άγιος Κωνσταντίνος και Αγία Ελένη",unknown,34.954167,33.391667,CY-01,,
-3847769,15002677,spot,"Ágios Geórgios","Agios Georgios",official,34.801962,33.278952,CY-03,,
-3847599,-5086842,park,Aspromoutti,Aspromoutti,official,34.97594,33.35554,CY-01,,
-3847832,-5087075,park,Kapsaloudhkia,Kapsaloudhkia,variant,34.777606,33.338228,CY-03,,
-3847683,534888,spot,"Chapelle Royale","Chapelle Royale",variant,34.925511,33.431316,CY-03,,
-3847652,15007451,park,Κυπροβάσα,Κυπροβάσα,unknown,34.905992,33.274248,CY-01,,
-3847652,-5086895,park,"Kyprovasa Chiftlik","Kyprovasa Chiftlik",variant,34.905992,33.274248,CY-01,,
-3847917,15033626,spot,"Άγιος Γεώργιος της Άρπερας","Άγιος Γεώργιος της Άρπερας",unknown,34.868493,33.556671,CY-03,,
-3847605,15011000,spot,"Αγία Βαρβάρα","Αγία Βαρβάρα",unknown,34.99648,33.368789,CY-01,,
-3847933,-5087248,park,Nikolies,Nikolies,variant,34.809841,33.506878,CY-03,,
-3847885,15029636,spot,"Agía Paraskeví","Agia Paraskevi",official,34.955695,33.626959,CY-03,,
-3847920,15033322,hypsographic,Βουνό,Βουνό,unknown,34.873493,33.563603,CY-03,,
-3847711,14995055,spot,"Agía Anastasía","Agia Anastasia",official,34.870188,33.302529,CY-03,,
-3847712,-5086955,spot,"Ayios Timotheos","Ayios Timotheos",variant,34.863764,33.31349,CY-03,,
-3847902,-5087217,spot,"Ayia Phaneromeni","Ayia Phaneromeni",variant,34.910916,33.627416,CY-03,,
-3847723,-5086966,spot,"Panayia Nikiphoros","Panayia Nikiphoros",variant,34.858333,33.354167,CY-03,,
-3847817,-5087060,spot,"Ayii Apostoli","Ayii Apostoli",variant,34.77984,33.255667,CY-02,,
-3847661,-5086904,vegetation,"Aetomoutti Forest","Aetomoutti Forest",variant,34.925215,33.318165,CY-03,,
-3847824,15004713,park,Zouloftides,Zouloftides,official,34.756582,33.283091,CY-03,,
-3847875,15029625,spot,"Ágios Geórgios","Agios Georgios",official,34.949113,33.570374,CY-03,,
-3847718,-5086961,park,Potis,Potis,official,34.897095,33.33091,CY-03,,
-3847634,14989452,park,Adiakera,Adiakera,official,34.968895,33.47121,CY-03,,
-3847897,15028967,park,Vlachos,Vlachos,official,34.914382,33.582846,CY-03,,
-3847721,-5086964,hypsographic,Shinokephalo,Shinokephalo,variant,34.872368,33.352284,CY-03,,
-3847786,-5087029,spot,"Ayios Loukas","Ayios Loukas",variant,34.813921,33.362203,CY-03,,
-3847753,15000225,spot,"Ágios Therápon","Agios Therapon",official,34.855164,33.456045,CY-03,,
-3847848,15005270,spot,"Agion Georgoudi","Agion Georgoudi",official,34.754214,33.402579,CY-03,,
-3847865,-5087180,hypsographic,Kouzoúla,Kouzoula,official,34.921399,33.513873,CY-03,,
-3847675,14992273,spot,Pródromos,Prodromos,official,34.922819,33.397364,CY-03,,
-3847885,15039771,spot,"Αγία Παρασκευή","Αγία Παρασκευή",unknown,34.955695,33.626959,CY-03,,
-3847617,-5086860,spot,"Lymbia Dam","Lymbia Dam",variant,34.974024,33.420589,CY-03,,
-3847655,-5086898,hydrographic,Kandilioros,Kandilioros,variant,34.942548,33.301553,CY-01,,
-3847762,-5087005,park,Rialas,Rialas,official,34.825055,33.258062,CY-03,,
-3847663,15007226,park,Κουρτελλόροτσος,Κουρτελλόροτσος,unknown,34.913519,33.319432,CY-03,,
-3847654,14990508,park,Fyta,Fyta,official,34.942904,33.315508,CY-01,,
-3847757,-5087000,park,Volikoudhia,Volikoudhia,variant,34.871695,33.492368,CY-03,,
-3847782,15010388,spot,Χοιροκοιτία,Χοιροκοιτία,unknown,34.797039,33.345112,CY-03,,
-3847655,14990502,hydrographic,Kantilioros,Kantilioros,official,34.942548,33.301553,CY-01,,
-3847631,14988586,park,Vatoudi,Vatoudi,official,34.99035,33.475671,CY-01,,
-3847892,15028700,park,Stronkylia,Stronkylia,official,34.895563,33.550026,CY-03,,
-3847917,-5087232,spot,"Ayios Yeoryios tis Arperas","Ayios Yeoryios tis Arperas",variant,34.868493,33.556671,CY-03,,
-3847755,-5086998,park,Rousomandra,Rousomandra,variant,34.89524,33.493795,CY-03,,
-3847672,14992271,park,Kokkinorachi,Kokkinorachi,official,34.925751,33.365083,CY-03,,
-3847585,-5086828,spot,"Lythrodhondas Dam","Lythrodhondas Dam",variant,34.949893,33.289839,CY-01,,
-3847754,15011440,spot,"Άγιος Γεώργιος","Άγιος Γεώργιος",unknown,34.85,33.458333,CY-03,,
-3847936,15034399,hypsographic,Λίμνες,Λίμνες,unknown,34.801397,33.525782,CY-03,,
-3847602,-5086845,hydrographic,"Argaki tis Vasilous","Argaki tis Vasilous",official,34.970451,33.337044,CY-01,,
-3847863,-5087106,hypsographic,Petounda,Petounda,variant,34.778414,33.496615,CY-03,,
-3847812,-5087055,park,Limnes,Limnes,official,34.835429,33.43503,CY-03,,
-3847881,15029142,park,Tsakileron,Tsakileron,official,34.940831,33.597065,CY-03,,
-3847920,-5087235,hypsographic,Vounó,Vouno,official,34.873493,33.563603,CY-03,,
-3847799,15011005,spot,"Άγιοι Αθανάσιος και Κύριλλος","Άγιοι Αθανάσιος και Κύριλλος",unknown,34.842905,33.441343,CY-03,,
-3847591,-5086834,spot,"Arkhangelos Arkhistratigos","Arkhangelos Arkhistratigos",variant,34.961291,33.305111,CY-01,,
-3847715,15007596,spot,"Άγιος Θωμάς","Άγιος Θωμάς",unknown,34.884596,33.312737,CY-03,,
-3847639,14990497,hydrographic,"Argaki tou Neroufa","Argaki tou Neroufa",official,34.946341,33.27836,CY-01,,
-3847649,15011408,spot,"Αγία Παρασκευή","Αγία Παρασκευή",unknown,34.941667,33.279167,CY-01,,
-3847659,-5086902,hypsographic,Kataxylos,Kataxylos,official,34.901611,33.298142,CY-03,,
-3847844,15004356,park,Kachiones,Kachiones,official,34.778575,33.387447,CY-03,,
-3847729,-5086972,park,Zgouros,Zgouros,variant,34.850321,33.370727,CY-03,,
-3847670,-5086913,hydrographic,Xyliás,Xylias,official,34.954274,33.397237,CY-01,,
-3847676,-5086919,park,Kremarka,Kremarka,variant,34.910453,33.386991,CY-03,,
-3847806,-5087049,park,Sougles,Sougles,official,34.810051,33.461344,CY-03,,
-3847785,15010290,spot,"Ágios Geórgios","Agios Georgios",official,34.816667,33.3625,CY-03,,
-3847905,533118,spot,"Büyük Cami","Buyuk Cami",variant,34.910082,33.636532,CY-03,,
-3847774,15011444,spot,"Άγιος Γεώργιος","Άγιος Γεώργιος",unknown,34.804167,33.3125,CY-03,,
-3847873,-5087188,hypsographic,"Kapsalero Moutti","Kapsalero Moutti",variant,34.914542,33.550403,CY-03,,
-3847753,15008431,spot,"Άγιος Θεράπων","Άγιος Θεράπων",unknown,34.855164,33.456045,CY-03,,
-3847901,15028635,spot,Vyzakia,Vyzakia,official,34.884488,33.607257,CY-03,,
-3847909,15028162,hypsographic,Pámpoulos,Pampoulos,official,34.843739,33.51024,CY-03,,
-3847835,-5087078,park,Petromoutti,Petromoutti,official,34.798627,33.356557,CY-03,,
-3847635,533038,hypsographic,Schinomoutti,Schinomoutti,variant,34.968545,33.484464,CY-03,,
-3847785,15010291,spot,"Άγιος Γεώργιος","Άγιος Γεώργιος",unknown,34.816667,33.3625,CY-03,,
-3847805,-5087048,hypsographic,Strakhala,Strakhala,variant,34.839353,33.460725,CY-03,,
-3847756,-5086999,park,Mersines,Mersines,official,34.883654,33.487257,CY-03,,
-3847820,15005247,park,Kountouria,Kountouria,official,34.754785,33.261801,CY-02,,
-3847691,15011182,spot,"Άγιος Μόδεστος","Άγιος Μόδεστος",unknown,34.904221,33.445051,CY-03,,
-3847581,-5086824,hydrographic,"Argaki ton Pliktron","Argaki ton Pliktron",official,34.992341,33.300435,CY-01,,
-3847731,-5086974,hypsographic,"New Mallia","New Mallia",variant,34.893868,33.394433,CY-03,,
-3847889,-5087204,park,Ormáni,Ormani,official,34.960618,33.648039,CY-03,,
-3847703,-5086946,park,Zakharovouni,Zakharovouni,variant,34.877255,33.274329,CY-03,,
-3847595,14990319,hydrographic,Leskas,Leskas,official,34.963364,33.319416,CY-01,,
-3847804,15002717,spot,"Pýrgos Alaminoú","Pyrgos Alaminou",official,34.806165,33.438273,CY-03,,
-3847716,-5086959,spot,Arkhangelos,Arkhangelos,variant,34.861315,33.315912,CY-03,,
-3847820,-5087063,park,Koundourka,Koundourka,variant,34.754785,33.261801,CY-02,,
-3847922,15028442,spot,"Ágios Geórgios","Agios Georgios",official,34.859571,33.566343,CY-03,,
-3847934,-5087249,park,"Kato Potamos","Kato Potamos",short,34.795887,33.506986,CY-03,,
-3847594,14989668,hydrographic,"Argaki ton Gerakion","Argaki ton Gerakion",official,34.964326,33.321746,CY-01,,
-3847766,532879,spot,"Moní Agíou Miná","Moni Agiou Mina",variant,34.840295,33.285857,CY-03,,
-3847937,15027894,spot,"Ágios Geórgios","Agios Georgios",official,34.813544,33.538688,CY-03,,
-3847614,14989145,spot,"Agía Marína","Agia Marina",official,34.98782,33.398898,CY-01,,
-3847810,-5087053,hypsographic,Viklones,Viklones,official,34.814836,33.482795,CY-03,,
-3847926,15039183,spot,"Άγιος Ανδρόνικος","Άγιος Ανδρόνικος",unknown,34.8625,33.595833,CY-03,,
-3847585,14990309,spot,Lythrodóntas,Lythrodontas,official,34.949893,33.289839,CY-01,,
-3847818,-5087061,hydrographic,"Argaki tis Asgatas","Argaki tis Asgatas",official,34.775916,33.293062,CY-000,,
-3847643,14990537,hydrographic,Peristeria,Peristeria,official,34.919434,33.272149,CY-01,,
-3847903,533124,spot,"Ayios Lazarus","Ayios Lazarus",variant,34.91153,33.634811,CY-03,,
-3847807,-5087050,park,Kavallaridhes,Kavallaridhes,variant,34.799784,33.462824,CY-03,,
-3847893,-5087208,park,"Pano Chiftlik","Pano Chiftlik",official,34.913871,33.564809,CY-03,,
-3847607,14989245,hydrographic,Armyros,Armyros,official,34.974003,33.385985,CY-01,,
-3847922,15033802,spot,"Άγιος Γεώργιος","Άγιος Γεώργιος",unknown,34.859571,33.566343,CY-03,,
-3847800,-5087043,hydrographic,"Argaki tis Mavroyis","Argaki tis Mavroyis",variant,34.823413,33.424488,CY-03,,
-3847935,-5087250,park,Elioudhia,Elioudhia,variant,34.823359,33.520186,CY-03,,
-3847764,15001949,park,Petromouttia,Petromouttia,official,34.814674,33.256797,CY-03,,
-3847738,15012620,vegetation,Σταυροβούνι,Σταυροβούνι,unknown,34.878439,33.424488,CY-03,,
-3847782,-5087025,spot,"Khirokitia Settlement","Khirokitia Settlement",variant,34.797039,33.345112,CY-03,,
-3847859,-5087102,park,Philimeni,Philimeni,variant,34.77406,33.449113,CY-03,,
-3847774,-5087017,spot,"Ayios Yeoryios","Ayios Yeoryios",variant,34.804167,33.3125,CY-03,,
-3847909,-5087224,hypsographic,Pamboulos,Pamboulos,variant,34.843739,33.51024,CY-03,,
-3847730,14993392,park,Kalogyros,Kalogyros,official,34.898602,33.381663,CY-03,,
-3847726,14994210,spot,"Michaíl Archángelos","Michail Archangelos",official,34.87352,33.368063,CY-03,,
-3847940,15028143,spot,"Agía Eiríni","Agia Eirini",official,34.828843,33.578911,CY-03,,
-3847794,15001461,spot,Panagía,Panagia,official,34.826422,33.403898,CY-03,,
-3847691,-5086934,spot,"Ayios Modhestos","Ayios Modhestos",variant,34.904221,33.445051,CY-03,,
-3847863,15004536,hypsographic,Petoúnta,Petounta,official,34.778414,33.496615,CY-03,,
-3847680,14990547,hypsographic,Pikrasidi,Pikrasidi,official,34.930137,33.40696,CY-03,,
-3847834,15004714,park,Patelli,Patelli,official,34.761074,33.334462,CY-03,,
-3847635,14989460,hypsographic,Chchinnomoutti,Chchinnomoutti,official,34.968545,33.484464,CY-03,,
-3847752,15011172,park,"Άγιος Επιφάνιος","Άγιος Επιφάνιος",unknown,34.860056,33.449283,CY-03,,
-3847908,-5087223,park,Mosphiloti,Mosphiloti,variant,34.866023,33.509541,CY-03,,
-3847766,532882,spot,"Aymina Manastırı","Aymina Manastiri",variant,34.840295,33.285857,CY-03,,
-3847577,-5086820,spot,"Ayios Dhimitrios","Ayios Dhimitrios",variant,34.954167,33.2625,CY-01,,
-3847593,-5086836,hypsographic,Yerakes,Yerakes,variant,34.958036,33.316693,CY-01,,
-3847838,15010738,spot,"Άγιος Ανδρόνικος","Άγιος Ανδρόνικος",unknown,34.766667,33.35,CY-03,,
-3847897,-5087212,park,"Vlakhos Chiftlik","Vlakhos Chiftlik",variant,34.914382,33.582846,CY-03,,
-3847704,-5086947,park,Zanatophoulia,Zanatophoulia,variant,34.875484,33.295457,CY-03,,
-3847905,533119,spot,"Cami Kebir","Cami Kebir",variant,34.910082,33.636532,CY-03,,
-3847842,-5087085,spot,"Pervolia City-Site","Pervolia City-Site",variant,34.750538,33.358872,CY-03,,
-3847845,15010621,spot,"Άγιοι Ανάργυροι","Άγιοι Ανάργυροι",unknown,34.778198,33.394783,CY-03,,
-3847692,14993488,hypsographic,Papalias,Papalias,official,34.900002,33.465483,CY-03,,
-3847923,533075,spot,"Angelóktisti Church","Angeloktisti Church",variant,34.847684,33.570702,CY-03,,
-3847929,-5087244,park,Kokkines,Kokkines,official,34.839407,33.59769,CY-03,,
-3847842,15005269,spot,Perivólia,Perivolia,official,34.750538,33.358872,CY-03,,
-3847697,-5086940,spot,"Panayia Stazousa","Panayia Stazousa",variant,34.903575,33.486261,CY-03,,
-3847903,15032751,spot,"Άγιος Λάζαρος","Άγιος Λάζαρος",unknown,34.91153,33.634811,CY-03,,
-3847772,15001455,spot,"Ágios Spyrídon","Agios Spyridon",official,34.827982,33.304707,CY-03,,
-3847603,-5086846,hypsographic,Mouttarka,Mouttarka,variant,34.95981,33.348545,CY-01,,
-3847694,-5086937,park,Rakharka,Rakharka,variant,34.93215,33.489329,CY-03,,
-3847855,-5087098,park,Shiromandres,Shiromandres,variant,34.779815,33.437472,CY-03,,
-3847735,14993398,park,Triantafyllia,Triantafyllia,official,34.898629,33.412981,CY-03,,
-3847772,15010096,spot,"Άγιος Σπυρίδων","Άγιος Σπυρίδων",unknown,34.827982,33.304707,CY-03,,
-3847771,-5087014,park,Xylosyrma,Xylosyrma,official,34.83812,33.31102,CY-03,,
-3847794,-5087037,spot,Panayia,Panayia,variant,34.826422,33.403898,CY-03,,
-3847713,-5086956,park,Marathos,Marathos,official,34.856154,33.301854,CY-03,,
-3847915,-5087230,park,"Arpera Chiftlik","Arpera Chiftlik",variant,34.868009,33.542389,CY-03,,
-3847838,15010737,spot,"Ágios Andrónikos","Agios Andronikos",official,34.766667,33.35,CY-03,,
-3847939,-5087254,spot,"Ayios Leondios","Ayios Leondios",variant,34.827067,33.57622,CY-03,,
-3847651,15006770,spot,"Άγιος Γεώργιος","Άγιος Γεώργιος",unknown,34.925053,33.278494,CY-01,,
-3847652,14993008,park,Kyprovása,Kyprovasa,official,34.905992,33.274248,CY-01,,
-3847867,-5087182,park,Rotsos,Rotsos,official,34.930326,33.51855,CY-03,,
-3847577,15006716,spot,"Άγιος Δημήτριος","Άγιος Δημήτριος",unknown,34.954167,33.2625,CY-01,,
-3847882,15029638,spot,"Agía Anastasía","Agia Anastasia",official,34.958251,33.61262,CY-03,,
-3847643,-5086886,hydrographic,Peristerkas,Peristerkas,variant,34.919434,33.272149,CY-01,,
-3847862,15010434,spot,Πετούντα,Πετούντα,unknown,34.783467,33.492907,CY-03,,
-3847627,15005967,spot,"Αγία Μαρίνα","Αγία Μαρίνα",unknown,34.974164,33.441612,CY-01,,
-3847905,15032766,spot,"Τζαμί Κεπίρ","Τζαμί Κεπίρ",unknown,34.910082,33.636532,CY-03,,
-3847763,15012345,spot,Παναγία,Παναγία,unknown,34.825754,33.266559,CY-03,,
-3847694,14990559,park,Racharia,Racharia,official,34.93215,33.489329,CY-03,,
-3847716,14999528,spot,Archángelos,Archangelos,official,34.861315,33.315912,CY-03,,
-3847678,14990527,hydrographic,Kinares,Kinares,official,34.954766,33.45341,CY-000,,
-3847921,15028486,spot,Trémithos-Kíti,Tremithos-Kiti,official,34.86965,33.557904,CY-03,,
-3847781,15010999,spot,"Αγία Παρασκευή","Αγία Παρασκευή",unknown,34.806989,33.350348,CY-03,,
-3847706,15012612,spot,Πρόδρομος,Πρόδρομος,unknown,34.855831,33.285588,CY-03,,
-3847915,15028546,park,Arpera,Arpera,official,34.868009,33.542389,CY-03,,
-3847724,15000616,park,Pernaria,Pernaria,official,34.851719,33.343868,CY-03,,
-3847923,15028436,spot,"Panagía Angelóktistos","Panagia Angeloktistos",official,34.847684,33.570702,CY-03,,
-3847793,15001458,park,Appidakia,Appidakia,official,34.83473,33.407499,CY-03,,
-3847916,-5087231,park,Ambeloudhi,Ambeloudhi,variant,34.840295,33.540834,CY-03,,
-3847846,-5087089,spot,"Ayios Nikolaos","Ayios Nikolaos",variant,34.770455,33.38204,CY-03,,
-3847940,-5087255,spot,"Ayia Irini","Ayia Irini",variant,34.828843,33.578911,CY-03,,
-3847888,-5087203,park,Kathari,Kathari,official,34.935832,33.635106,CY-03,,
-3847741,533006,spot,"Ayvarvara Manastırı","Ayvarvara Manastiri",variant,34.898979,33.425376,CY-03,,
-3847675,-5086918,spot,Prodhromos,Prodhromos,variant,34.922819,33.397364,CY-03,,
-3847697,15007455,spot,"Παναγία Στάζουσα","Παναγία Στάζουσα",unknown,34.903575,33.486261,CY-03,,
-3847662,14990564,hydrographic,"Vathy Argaki","Vathy Argaki",official,34.923196,33.339009,CY-03,,
-3847830,-5087073,spot,"Ayios Nikiphoros","Ayios Nikiphoros",variant,34.791667,33.316667,CY-03,,
-3847651,-5086894,spot,"Ayios Yeoryios","Ayios Yeoryios",variant,34.925053,33.278494,CY-01,,
-3847616,14989246,hydrographic,Kalamoudia,Kalamoudia,official,34.976236,33.4148,CY-01,,
-3847770,-5087013,spot,"Ayios Neophytos","Ayios Neophytos",variant,34.845644,33.29903,CY-03,,
-3847621,-5086864,hydrographic,Vrysi,Vrysi,official,34.965384,33.410507,CY-01,,
-3847880,15039187,spot,Παναγία,Παναγία,unknown,34.945833,33.595833,CY-03,,
-3847741,533003,spot,"Agia Varvara Monastery","Agia Varvara Monastery",variant,34.898979,33.425376,CY-03,,
-3847803,-5087046,spot,"Ayios Mamas","Ayios Mamas",variant,34.805084,33.434653,CY-03,,
-3847786,15002309,spot,"Ágios Loukás","Agios Loukas",official,34.813921,33.362203,CY-03,,
-3847648,-5086891,park,"Pano Teratsotos","Pano Teratsotos",official,34.898952,33.259381,CY-01,,
-3847667,-5086910,spot,Khrysosotiros,Khrysosotiros,variant,34.918465,33.361557,CY-03,,
-3847733,-5086976,park,Asprospilios,Asprospilios,official,34.869892,33.385967,CY-03,,
-3847808,-5087051,park,Kokkinadhia,Kokkinadhia,variant,34.838094,33.492207,CY-03,,
-3847605,14987883,spot,"Agía Varvára","Agia Varvara",official,34.99648,33.368789,CY-01,,
-3847656,-5086899,park,Kephalos,Kephalos,variant,34.932366,33.301747,CY-01,,
-3847792,15002712,park,Kammytsis,Kammytsis,official,34.806854,33.391047,CY-03,,
-3847801,-5087044,park,Plakotos,Plakotos,official,34.827955,33.436262,CY-03,,
-3847691,14993156,spot,"Ágios Módestos","Agios Modestos",official,34.904221,33.445051,CY-03,,
-3847845,-5087088,spot,"Ayii Anargyri","Ayii Anargyri",variant,34.778198,33.394783,CY-03,,
-3847751,-5086994,park,Mouttas,Mouttas,official,34.862849,33.463094,CY-03,,
-3847783,-5087026,park,"Piyi tou Kounna","Piyi tou Kounna",variant,34.838067,33.365054,CY-03,,
-3847700,15011410,spot,"Ágioi Saránta","Agioi Saranta",short,34.8625,33.25,CY-03,,
-3847593,14989644,hypsographic,Gerakies,Gerakies,official,34.958036,33.316693,CY-01,,
-3847585,15006713,spot,Λυθροδόντας,Λυθροδόντας,unknown,34.949893,33.289839,CY-01,,
-3847906,15028636,park,Rodinos,Rodinos,official,34.881905,33.503493,CY-03,,
-3847688,14990558,hypsographic,Appidaki,Appidaki,official,34.933011,33.460618,CY-03,,
-3847853,15011007,spot,"Άγιος Αθανάσιος","Άγιος Αθανάσιος",unknown,34.756474,33.40632,CY-03,,
-3847750,-5086993,hypsographic,Aspropetra,Aspropetra,official,34.872449,33.46586,CY-03,,
-3847856,-5087099,park,Merika,Merika,official,34.769056,33.439034,CY-03,,
-3847625,-5086868,park,Plaja,Plaja,variant,34.993472,33.441423,CY-01,,
-3847639,-5086882,hydrographic,"Argaki tou Neroupha","Argaki tou Neroupha",variant,34.946341,33.27836,CY-01,,
-3847690,-5086933,park,"Linos Chiftlik","Linos Chiftlik",variant,34.905647,33.446314,CY-03,,
-3847900,-5087215,hypsographic,Melissári,Melissari,official,34.882066,33.599568,CY-03,,
-3847717,-5086960,spot,"Ayios Yeoryios","Ayios Yeoryios",variant,34.855427,33.321825,CY-03,,
-3847740,15000875,park,Spalathovounos,Spalathovounos,official,34.852742,33.407574,CY-03,,
-3847641,-5086884,hydrographic,"Argaki ton Marathefti","Argaki ton Marathefti",official,34.921047,33.268441,CY-01,,
-3847876,15032665,vegetation,"Dásos Rizoeliás","Dasos Rizoelias",official,34.94164,33.573627,CY-03,,
-3847677,533001,spot,"Agía Thékla","Agia Thekla",official,34.9468,33.421426,CY-03,,
-3847850,15003143,park,Kylintros,Kylintros,official,34.785588,33.416614,CY-03,,
-3847874,15032479,spot,"Παναγία Αιματούσα","Παναγία Αιματούσα",unknown,34.961317,33.565374,CY-03,,
-3847816,15003138,park,Gerakareia,Gerakareia,official,34.788708,33.265213,CY-02,,
-3847736,14993611,park,Melanos,Melanos,official,34.887474,33.419192,CY-03,,
-3847732,-5086975,park,Koullouropetra,Koullouropetra,official,34.883412,33.392581,CY-03,,
-3847717,14999529,spot,"Ágios Geórgios","Agios Georgios",official,34.855427,33.321825,CY-03,,
-3847728,15008327,spot,"Panagía Galaktotrofoúsa","Panagia Galaktotrofousa",official,34.855535,33.380479,CY-03,,
-3847739,-5086982,park,Vatos,Vatos,official,34.869596,33.408979,CY-03,,
-3847578,14987836,park,Psoumnides,Psoumnides,official,34.998547,33.281557,CY-01,,
-3847909,15034388,hypsographic,Πάμπουλος,Πάμπουλος,unknown,34.843739,33.51024,CY-03,,
-3847722,-5086965,park,Mouttarka,Mouttarka,variant,34.868951,33.338551,CY-03,,
-3847941,15034393,spot,"Πύργος Κιτίου","Πύργος Κιτίου",unknown,34.832686,33.602042,CY-03,,
-3847738,14994565,vegetation,Stavrovoúni,Stavrovouni,official,34.878439,33.424488,CY-03,,
-3847836,-5087079,hypsographic,Amala,Amala,official,34.788977,33.356584,CY-03,,
-3847622,-5086865,park,"Kambos tou Kkeli","Kambos tou Kkeli",variant,34.958816,33.421297,CY-000,,
-3847783,15001391,park,"Pigi tou Kounna","Pigi tou Kounna",official,34.838067,33.365054,CY-03,,
-3847684,15007215,spot,"Αγία Μαρίνα","Αγία Μαρίνα",unknown,34.924838,33.432043,CY-03,,
-3847709,-5086952,park,Kavallaris,Kavallaris,official,34.877686,33.304922,CY-03,,
-3847688,-5086931,hypsographic,"New Appidhaki","New Appidhaki",variant,34.933011,33.460618,CY-03,,
-3847647,14992986,vegetation,Machairas,Machairas,official,34.906772,33.258525,CY-000,,
-3847924,15028417,spot,"Ágios Thomás","Agios Thomas",official,34.837528,33.566962,CY-03,,
-3847911,15028437,park,Kolympi,Kolympi,official,34.85565,33.517474,CY-03,,
-3847679,15006769,spot,"Άγιος Γεώργιος","Άγιος Γεώργιος",unknown,34.933679,33.413681,CY-03,,
-3847693,-5086936,hydrographic,Trémithos,Tremithos,official,34.974104,33.42099,CY-03,,
-3847874,15029642,spot,"Panagia Gaimatousa","Panagia Gaimatousa",variant,34.961317,33.565374,CY-03,,
-3847698,-5086941,park,Paliaplikon,Paliaplikon,official,34.883358,33.259246,CY-03,,
-3847841,-5087084,park,Elioti,Elioti,official,34.772741,33.369031,CY-03,,
-3847875,15032578,spot,"Άγιος Γεώργιος","Άγιος Γεώργιος",unknown,34.949113,33.570374,CY-03,,
-3847707,-5086950,park,Kafkalia,Kafkalia,variant,34.851398,33.27871,CY-03,,
-3847821,-5087064,park,Melissotrypa,Melissotrypa,official,34.791426,33.290995,CY-03,,
-3847858,-5087101,hypsographic,Akonia,Akonia,official,34.78196,33.451502,CY-03,,
-3847715,-5086958,spot,"Ayios Thomas","Ayios Thomas",variant,34.884596,33.312737,CY-03,,
-3847649,15011187,spot,"Agía Paraskeví","Agia Paraskevi",short,34.941667,33.279167,CY-01,,
-3847850,-5087093,park,Kylindros,Kylindros,variant,34.785588,33.416614,CY-03,,
-3847830,15011438,spot,"Άγιος Νικηφόρος","Άγιος Νικηφόρος",unknown,34.791667,33.316667,CY-03,,
-3847895,15028714,park,Exogi,Exogi,official,34.896586,33.572338,CY-03,,
-3847902,15029077,spot,"Agía Faneroméni","Agia Faneromeni",official,34.910916,33.627416,CY-03,,
-3847695,-5086938,park,Maratheftou,Maratheftou,variant,34.924057,33.483172,CY-03,,
-3847851,532972,hypsographic,"Chaï Chill","Chai Chill",official,34.783946,33.406933,CY-03,,
-3847632,-5086875,hypsographic,Aetomoutti,Aetomoutti,official,34.982526,33.461557,CY-01,,
-3847831,-5087074,spot,"Tímios Stavrós","Timios Stavros",official,34.78188,33.322283,CY-03,,
-3847606,-5086849,hydrographic,Ammos,Ammos,official,34.978866,33.415109,CY-01,,
-3847725,-5086968,hydrographic,"Argaki tou Mylou","Argaki tou Mylou",official,34.866078,33.36272,CY-03,,
-3847845,15004367,spot,"Ágioi Anárgyroi","Agioi Anargyroi",official,34.778198,33.394783,CY-03,,
-3847627,-5086870,spot,"Ayia Marina","Ayia Marina",variant,34.974164,33.441612,CY-01,,
-3847852,-5087095,park,Kapses,Kapses,official,34.768168,33.417018,CY-03,,
-3847758,-5087001,park,Kourouklies,Kourouklies,variant,34.848868,33.484464,CY-03,,
-3847823,-5087066,park,Pamboulos,Pamboulos,variant,34.76806,33.27949,CY-03,,
-3847847,15005245,park,Geropalloura,Geropalloura,official,34.761101,33.390213,CY-03,,
-3847787,15002710,park,Zefgos,Zefgos,official,34.808657,33.365081,CY-03,,
-3847587,-5086830,hydrographic,"Argaki ton Villourkon","Argaki ton Villourkon",short,34.994274,33.334112,CY-01,,
-3847741,15007453,spot,"Αγία Βαρβάρα","Αγία Βαρβάρα",unknown,34.898979,33.425376,CY-03,,
-3847687,-5086930,park,Kaourotrypes,Kaourotrypes,official,34.935966,33.45309,CY-03,,
-3847782,532934,spot,Hirokitiya,Hirokitiya,variant,34.797039,33.345112,CY-03,,
-3847862,-5087105,spot,Petounda,Petounda,variant,34.783467,33.492907,CY-03,,
-3847913,15028547,park,"Pente Petres","Pente Petres",official,34.863522,33.536885,CY-03,,
-3847882,-5087197,spot,"Ayia Anastasia","Ayia Anastasia",variant,34.958251,33.61262,CY-03,,
-3847881,-5087196,park,Chakkilera,Chakkilera,variant,34.940831,33.597065,CY-03,,
-3847683,14990550,spot,Pyrgá,Pyrga,official,34.925511,33.431316,CY-03,,
-3847941,-5087256,spot,"Kiti Tower","Kiti Tower",variant,34.832686,33.602042,CY-03,,
-3847677,-5086920,spot,"Ayia Thekla Monastery","Ayia Thekla Monastery",variant,34.9468,33.421426,CY-03,,
-3847677,15006654,spot,"Αγία Θέκλα","Αγία Θέκλα",unknown,34.9468,33.421426,CY-03,,
-3847734,15000214,park,"Kampos tou Simoniou","Kampos tou Simoniou",official,34.862688,33.388389,CY-03,,
-3847814,15002720,park,Asprogi,Asprogi,official,34.793552,33.256098,CY-02,,
-3847586,-5086829,hydrographic,"Argaki tou Vernan Bagche","Argaki tou Vernan Bagche",short,34.991319,33.303955,CY-01,,
-3847624,-5086867,hypsographic,Larkona,Larkona,variant,34.992099,33.430084,CY-01,,
-3847772,-5087015,spot,"Ayios Spyridhon","Ayios Spyridhon",variant,34.827982,33.304707,CY-03,,
-3847883,15029629,park,Kokkinies,Kokkinies,official,34.94462,33.617288,CY-03,,
-3847658,14992665,park,Kokkinopampouloi,Kokkinopampouloi,official,34.913952,33.298062,CY-000,,
-3847747,-5086990,park,Kamini,Kamini,official,34.851342,33.43207,CY-03,,
-3847706,-5086949,spot,Prodhromos,Prodhromos,variant,34.855831,33.285588,CY-03,,
-3847855,15004390,park,Choiromantres,Choiromantres,official,34.779815,33.437472,CY-03,,
-3847780,-5087023,spot,Panayia,Panayia,variant,34.822042,33.357284,CY-03,,
-3847872,15029103,spot,"Ágios Mámas","Agios Mamas",official,34.920807,33.552769,CY-03,,
-3847703,14993950,park,Zacharovouni,Zacharovouni,official,34.877255,33.274329,CY-03,,
-3847766,532881,spot,"Agios Minas Monastery","Agios Minas Monastery",variant,34.840295,33.285857,CY-03,,
-3847904,15029083,spot,"Kastro Larnakas","Kastro Larnakas",official,34.910136,33.637985,CY-03,,
-3847611,14989693,park,Kaledra,Kaledra,official,34.955108,33.368875,CY-01,,
-3847798,-5087041,park,Aphendiko,Aphendiko,variant,34.800053,33.420457,CY-03,,
-3847854,-5087097,hypsographic,Pendaskhinos,Pendaskhinos,variant,34.750182,33.41173,CY-03,,
-3847596,-5086839,park,Asprokremmos,Asprokremmos,official,34.997072,33.343416,CY-01,,
-3847729,15000872,park,Zouron,Zouron,official,34.850321,33.370727,CY-03,,
-3847829,-5087072,spot,"Panayia tou Kambou","Panayia tou Kambou",variant,34.797825,33.328757,CY-03,,
-3847781,15002686,spot,"Agía Paraskeví","Agia Paraskevi",official,34.806989,33.350348,CY-03,,
-3847905,533121,spot,"Holy Cross Church","Holy Cross Church",variant,34.910082,33.636532,CY-03,,
-3847941,533095,spot,"Venetian Watchtower","Venetian Watchtower",variant,34.832686,33.602042,CY-03,,
-3847686,14993010,park,Niolymata,Niolymata,official,34.905163,33.434599,CY-03,,
-3847918,15033803,spot,"Άγιος Ανδρόνικος","Άγιος Ανδρόνικος",unknown,34.86258,33.552581,CY-03,,
-3847583,14989398,park,Tereteia,Tereteia,official,34.969218,33.28231,CY-01,,
-3847864,15032658,hypsographic,"Μούττη του Ζυού","Μούττη του Ζυού",unknown,34.951152,33.512851,CY-03,,
-3846727,14547619,park,Kannides,Kannides,official,34.737419,32.765025,CY-02,,
-3846739,-5085846,park,Kafkalla,Kafkalla,official,34.702982,32.788629,CY-02,,
-3846862,-5085969,spot,"Ayios Yeoryios","Ayios Yeoryios",variant,34.667769,32.934316,CY-02,,
-3847572,-5086815,hydrographic,"Argaki tou Syrkanou","Argaki tou Syrkanou",variant,35.000188,33.259515,CY-01,,
-3846743,-5085850,park,Kliouphas,Kliouphas,variant,34.740969,32.804545,CY-02,,
-3846770,-5085877,park,Palialonon,Palialonon,variant,34.733549,32.896747,CY-02,,
-3846878,-5085985,spot,"Ayios Syllas","Ayios Syllas",variant,34.699842,32.966858,CY-02,,
-3846798,14550638,spot,"Άγιος Δημητριανός","Άγιος Δημητριανός",unknown,34.736492,33.022925,CY-02,,
-3846751,532505,settlement,Sterakova,Sterakova,variant,34.710594,32.81893,CY-02,,
-3846905,14549534,park,Pampoula,Pampoula,official,34.64737,33.00256,CY-02,,
-3846810,532677,hypsographic,Koryf,Koryf,variant,34.742999,33.097693,CY-02,,
-3846768,14548673,park,Kankelli,Kankelli,official,34.710026,32.88212,CY-02,,
-3846797,-5085904,park,Kommorotsos,Kommorotsos,official,34.7375,33.016667,CY-02,,
-3846882,14548817,spot,"Ágios Nikólaos","Agios Nikolaos",official,34.693388,32.991934,CY-02,,
-3846854,14549535,settlement,Pampoula,Pampoula,official,34.675,32.9125,CY-02,,
-3846786,-5085893,spot,"Ayia Arini","Ayia Arini",variant,34.748908,32.972773,CY-02,,
-3846748,14547346,spot,"Panagia Perachoritissa","Panagia Perachoritissa",official,34.744801,32.829888,CY-02,,
-3846754,532511,hypsographic,Rothesia,Rothesia,variant,34.718713,32.830809,CY-02,,
-3847572,14987643,hydrographic,"Argaki tou Syrianou","Argaki tou Syrianou",official,35.000188,33.259515,CY-01,,
-3846795,-5085902,spot,"Ayios Tithikos","Ayios Tithikos",variant,34.731111,32.999079,CY-02,,
-3846806,-5085913,spot,"Sphalangiotissa Monastery","Sphalangiotissa Monastery",variant,34.731452,33.056109,CY-02,,
-3846780,14548229,park,Sykari,Sykari,official,34.712448,32.938652,CY-02,,
-3846851,-5085958,spot,"Kandou Dam","Kandou Dam",variant,34.697749,32.899126,CY-02,,
-3846752,-5085859,park,Karvouneri,Karvouneri,official,34.703547,32.817769,CY-02,,
-3846738,14551073,spot,"Panagía Diakinoúsa","Panagia Diakinousa",short,34.727419,32.77819,CY-02,,
-3846888,-5085995,spot,"Ayios Yeoryios","Ayios Yeoryios",variant,34.694162,33.014891,CY-02,,
-3846791,14550339,spot,"Παναγία Ευαγγελίστρια","Παναγία Ευαγγελίστρια",unknown,34.744854,32.975184,CY-02,,
-3846746,14547796,hydrographic,Perdikia,Perdikia,official,34.69867,32.796025,CY-02,,
-3847574,-5086817,spot,"Panayia Khrysogalatousa","Panayia Khrysogalatousa",variant,34.978764,33.255404,CY-01,,
-3846774,-5085881,park,Vounaros,Vounaros,official,34.713064,32.929557,CY-02,,
-3846730,14551582,spot,"Αγία Ελένη","Αγία Ελένη",unknown,34.714303,32.764276,CY-02,,
-3846870,-5085977,spot,"Ayios Viskanos","Ayios Viskanos",variant,34.68591,32.950478,CY-02,,
-3846785,-5085892,spot,"Ayios Yeoryios tou Vikliou","Ayios Yeoryios tou Vikliou",variant,34.702709,32.961468,CY-02,,
-3846901,14554864,spot,"Παναγία Χρυσελεούσα","Παναγία Χρυσελεούσα",unknown,34.652418,32.964892,CY-02,,
-3846859,-5085966,hypsographic,Kaminia,Kaminia,official,34.699921,32.934951,CY-02,,
-3846728,14547617,park,Xeroleivada,Xeroleivada,official,34.730535,32.757793,CY-02,,
-3846778,-5085885,park,Kokkinokolymbos,Kokkinokolymbos,variant,34.733333,32.933333,CY-02,,
-3846729,14548000,park,"Kato Kentedes","Kato Kentedes",official,34.718626,32.757712,CY-02,,
-3846751,532504,settlement,Sterakovu,Sterakovu,variant,34.710594,32.81893,CY-02,,
-3846811,14550997,spot,"Άγιος Γεώργιος","Άγιος Γεώργιος",unknown,34.720091,33.093734,CY-02,,
-3846849,-5085956,park,Moundanous,Moundanous,variant,34.670833,32.8875,CY-02,,
-3847575,-5086818,park,Tsopanidhes,Tsopanidhes,variant,34.968093,33.258116,CY-01,,
-3846753,14547347,spot,"Ágios Akíndynos","Agios Akindynos",official,34.744748,32.83428,CY-02,,
-3846862,14550992,spot,"Άγιος Γεώργιος","Άγιος Γεώργιος",unknown,34.667769,32.934316,CY-02,,
-3846778,14547679,park,Kokkinokólympos,Kokkinokolympos,official,34.733333,32.933333,CY-02,,
-3846851,14548689,spot,"Kantou Dam","Kantou Dam",variant,34.697749,32.899126,CY-02,,
-3846891,532617,spot,"Cyprus Medieval Museum","Cyprus Medieval Museum",variant,34.67192,33.040741,CY-02,,
-3846852,-5085959,spot,"Panayia Khrysanayiotissa","Panayia Khrysanayiotissa",short,34.666396,32.893909,CY-02,,
-3846890,-5085997,park,Chiftlikoudhkia,Chiftlikoudhkia,short,34.658333,33.016667,CY-02,,
-3846805,-5085912,park,Pladhikia,Pladhikia,variant,34.7375,33.066667,CY-02,,
-3846781,14547351,park,"Laxia tou Stefani","Laxia tou Stefani",official,34.743552,32.953171,CY-02,,
-3846824,14548826,park,Kokkatikka,Kokkatikka,official,34.6875,32.775,CY-02,,
-3846904,-5086011,park,Loura,Loura,official,34.65,33.008333,CY-02,,
-3846810,532676,hypsographic,Korifi,Korifi,variant,34.742999,33.097693,CY-02,,
-3846891,14549544,spot,"Frourion Lemesou","Frourion Lemesou",official,34.67192,33.040741,CY-02,,
-3846740,-5085847,park,Teratseros,Teratseros,official,34.731423,32.798062,CY-02,,
-3846800,-5085907,park,Stazousa,Stazousa,official,34.720833,33.008333,CY-02,,
-3846755,-5085862,park,Korajes,Korajes,variant,34.714891,32.835217,CY-02,,
-3846783,-5085890,hypsographic,Khortovouno,Khortovouno,variant,34.726959,32.959878,CY-02,,
-3846754,-5085861,hypsographic,Rophesia,Rophesia,variant,34.718713,32.830809,CY-02,,
-3846888,14550651,spot,"Άγιος Γεώργιος","Άγιος Γεώργιος",unknown,34.694162,33.014891,CY-02,,
-3846796,14551549,spot,Πολεμίδια,Πολεμίδια,unknown,34.7189,32.989034,CY-02,,
-3846887,-5085994,settlement,"Berengaria Village","Berengaria Village",variant,34.696106,33.005405,CY-02,,
-3846822,14548683,park,Flourenzos,Flourenzos,official,34.7,32.770833,CY-02,,
-3846834,14548927,hydrographic,Symvoulas,Symvoulas,variant,34.66279,32.816268,S1-000,,
-3846745,-5085852,park,Alonia,Alonia,official,34.726102,32.805164,CY-02,,
-3846762,532556,settlement,Sanaya,Sanaya,variant,34.730445,32.875509,CY-02,,
-3846749,-5085856,park,Yiannou,Yiannou,variant,34.739085,32.821988,CY-02,,
-3846810,-5085917,hypsographic,Koryphi,Koryphi,variant,34.742999,33.097693,CY-02,,
-3846783,14547992,hypsographic,Chortovounos,Chortovounos,official,34.726959,32.959878,CY-02,,
-3847575,14989395,park,Kkioupanides,Kkioupanides,official,34.968093,33.258116,CY-01,,
-3846794,14547700,hydrographic,Mersinia,Mersinia,official,34.723568,32.986704,CY-02,,
-3846731,-5085838,park,Kochini,Kochini,variant,34.707875,32.755861,CY-02,,
-3846808,14547557,spot,"Germasogeia Dam","Germasogeia Dam",variant,34.744,33.084763,CY-02,,
-3846834,-5085941,hydrographic,Sýmvoulos,Symvoulos,official,34.66279,32.816268,S1-000,,
-3846870,14548914,spot,"Agios Vichchianos","Agios Vichchianos",variant,34.68591,32.950478,CY-02,,
-3846767,-5085874,park,"Kalon Teratsoudhin","Kalon Teratsoudhin",variant,34.717205,32.881609,CY-02,,
-3846804,-5085911,park,Mesovounaros,Mesovounaros,variant,34.725,33.0375,CY-02,,
-3846728,-5085835,park,Xerolivadhia,Xerolivadhia,variant,34.730535,32.757793,CY-02,,
-3846782,14547695,park,Chalospita,Chalospita,official,34.733333,32.9625,CY-02,,
-3846792,14547698,hydrographic,"Argaki tou Damnous","Argaki tou Damnous",official,34.723854,32.978529,CY-02,,
-3846756,-5085863,park,Vathyronas,Vathyronas,official,34.742476,32.851748,CY-02,,
-3846823,14550640,spot,"Άγιος Δημητριανός","Άγιος Δημητριανός",unknown,34.692654,32.774518,CY-02,,
-3846808,-5085915,spot,"Yermasoyia Dam","Yermasoyia Dam",variant,34.744,33.084763,CY-02,,
-3846882,-5085989,spot,"Ayios Nikolaos","Ayios Nikolaos",variant,34.693388,32.991934,CY-02,,
-3847577,15006715,spot,"Ágios Dimítrios","Agios Dimitrios",official,34.954167,33.2625,CY-01,,
-3846733,14551076,spot,"Άγιος Θεράπων","Άγιος Θεράπων",unknown,34.721101,32.776857,CY-02,,
-3846782,-5085889,park,Khalospita,Khalospita,variant,34.733333,32.9625,CY-02,,
-3846775,-5085882,spot,"Ayios Mamas","Ayios Mamas",variant,34.703828,32.908253,CY-02,,
-3846863,14554756,spot,"Kástro Kolossíou","Kastro Kolossiou",official,34.665161,32.934056,CY-02,,
-3846754,14548003,hypsographic,Rofesia,Rofesia,official,34.718713,32.830809,CY-02,,
-3846823,-5085930,spot,"Ayios Dhimitrianos","Ayios Dhimitrianos",variant,34.692654,32.774518,CY-02,,
-3846790,14547479,spot,Archángelos,Archangelos,official,34.748119,32.976668,CY-02,,
-3846738,14551074,spot,"Παναγία Διακινούσα","Παναγία Διακινούσα",unknown,34.727419,32.77819,CY-02,,
-3846759,-5085866,park,Arkolies,Arkolies,official,34.717711,32.854599,CY-02,,
-3846742,532495,hydrographic,Paramáli,Paramali,official,34.686037,32.800047,S1-000,,
-3846788,-5085895,park,Khortovounaron,Khortovounaron,variant,34.725,32.970833,CY-02,,
-3846735,14548530,park,"Vathia Koilada","Vathia Koilada",official,34.707417,32.776616,CY-02,,
-3846777,-5085884,park,Paliolania,Paliolania,official,34.741667,32.929167,CY-02,,
-3846866,-5085973,hydrographic,Jirlaou,Jirlaou,short,34.671278,32.953769,S1-000,,
-3846789,14548679,spot,Karmi,Karmi,official,34.7125,32.979167,CY-02,,
-3846834,14561054,hydrographic,Σύμβουλος,Σύμβουλος,unknown,34.66279,32.816268,S1-000,,
-3846757,-5085864,hypsographic,"Khistron Vounon","Khistron Vounon",variant,34.734982,32.844879,CY-02,,
-3846750,14551077,spot,"Άγιος Ευστάθιος","Άγιος Ευστάθιος",unknown,34.725793,32.824736,CY-02,,
-3846860,-5085967,park,Phourremis,Phourremis,variant,34.681585,32.933603,CY-02,,
-3846766,-5085873,hypsographic,Sikouestia,Sikouestia,official,34.723064,32.887103,CY-02,,
