wgdPlaceId,wgdId,type,name,fullName,nameType,latitude,longitude,administrationGroup,isHistorical,isCapital
-1355262,-1951571,hypsographic,Mascarenhas,Mascarenhas,variant,-20,57,S1-000,,
-1355262,-1951568,hypsographic,"Mascarene Islands","Mascarene Islands",official,-20,57,S1-000,,
-1355262,-1951569,hypsographic,Mascareignes,Mascareignes,official,-20,57,S1-000,,
-1355262,-1951493,hypsographic,"Les Mascareignes","Les Mascareignes",variant,-20,57,S1-000,,
-1331212,-1922048,hypsographic,"Petite Plaine","Petite Plaine",variant,-21.143618,55.594659,RE-000,,
-1331407,-1921542,hydrographic,"Grande Rade","Grande Rade",variant,-20.992149,55.269603,RE-000,,
-1331489,-1922422,hydrographic,"Ravine du Trou","Ravine du Trou",official,-21.23874,55.309652,RE-000,,
-1331302,-1922165,settlement,Renaissance,Renaissance,variant,-20.927239,55.60433,RE-000,,
-1331356,-1921825,hydrographic,"Les Sables Noirs","Les Sables Noirs",variant,-21.3,55.45,RE-000,,
-1331415,-1922328,hypsographic,"Plaine des Salazes","Plaine des Salazes",official,-21.114644,55.515933,RE-000,,
-1331057,-1921853,settlement,"Ligne des Bambous","Ligne des Bambous",variant,-21.299468,55.490492,RE-000,,
-1331046,-1921840,hypsographic,"Le Tapage","Le Tapage",official,-21.237057,55.441,RE-000,,
-1331459,-1922387,hypsographic,"Piton de Tangues","Piton de Tangues",official,-21.186643,55.653812,RE-000,,
-1331482,-1921829,hydrographic,"Les Trois Bassins","Les Trois Bassins",variant,-21.110134,55.254278,RE-000,,
-1331387,-1922287,settlement,Saint-François,Saint-Francois,official,-21.069745,55.73293,RE-000,,
-1331327,-1922205,settlement,"Rivière du Mât","Riviere du Mat",variant,-20.975643,55.647489,RE-000,,
-1331468,-1922397,hypsographic,"Piton Terre-Rouge","Piton Terre-Rouge",variant,-21.315142,55.513546,RE-000,,
-1331352,-1922241,hypsographic,"Pas des Sables","Pas des Sables",official,-21.235221,55.647661,RE-000,,
-1331118,-1921922,hydrographic,"Ravine Marmanière","Ravine Marmaniere",official,-20.916667,55.5,RE-000,,
-1331354,-1922243,hypsographic,"Plaine des Sables","Plaine des Sables",official,-21.233402,55.658365,RE-000,,
-1331466,18890216,hydrographic,"Ravine Terre Rouge","Ravine Terre Rouge",official,-20.992716,55.649922,RE-000,,
-1331198,-1922027,hydrographic,"Petit Bras de Patience","Petit Bras de Patience",official,-21.124738,55.634193,RE-000,,
-1331428,-1922344,settlement,Savannah,Savannah,official,-20.98661,55.298314,RE-000,,
-1331016,-1921802,settlement,"Les Aigrettes","Les Aigrettes",official,-21.142871,55.456084,RE-000,,
-1331029,-1921816,settlement,"Les Jacques","Les Jacques",official,-21.376464,55.630826,RE-000,,
-1331366,-1922439,settlement,"Village Sainte Anne","Village Sainte Anne",variant,-21.08204,55.745226,RE-000,,
-1331323,-1922202,hypsographic,"Pic Rivière des Roches","Pic Riviere des Roches",variant,-21.059952,55.619277,RE-000,,
-1331287,-1921574,hypsographic,Grègues,Gregues,variant,-21.302979,55.610379,RE-000,,
-1331077,-1921876,settlement,"Maison James Biget","Maison James Biget",official,-21.215645,55.521072,RE-000,,
-1331273,-1922130,hypsographic,"Piton Ravine Blanche","Piton Ravine Blanche",variant,-21.229472,55.562074,RE-000,,
-1331255,-1922104,hydrographic,"Bras de Ponteau","Bras de Ponteau",variant,-21.245586,55.488015,RE-000,,
-1331397,-1922303,hydrographic,"Grande Rivière Saint-Jean","Grande Riviere Saint-Jean",official,-20.910808,55.628605,RE-000,,
-1331123,-1921929,hydrographic,"Ravine Marrons","Ravine Marrons",official,-21.004901,55.638727,RE-000,,
-1331304,-1922168,hydrographic,"Ravine Rencontre","Ravine Rencontre",official,-21.307637,55.804387,RE-000,,
-1331464,-1922393,park,"Terre Plate","Terre Plate",official,-21.080225,55.520246,RE-000,,
-1331472,-1922403,hypsographic,"Piton Tortue","Piton Tortue",official,-21.151002,55.551675,RE-000,,
-1331060,18874082,settlement,"Îlet aux Palmistes","Ilet aux Palmistes",official,-21.335232,55.801641,RE-000,,
-1331461,-1922390,spot,"Caverne de Terre","Caverne de Terre",official,-20.983333,55.466667,RE-000,,
-1331076,-1921875,settlement,"Maison Isautier","Maison Isautier",official,-21.314476,55.53208,RE-000,,
-1331172,-1921988,vegetation,"Bois de Nèfles","Bois de Nefles",official,-21.076162,55.241353,RE-000,,
-1331385,-1922284,hydrographic,"Rivière Saint-Étienne","Riviere Saint-Etienne",official,-21.302077,55.40278,RE-000,,
-1331202,-1922031,hydrographic,"Ravine Pavée","Ravine Pavee",official,-21.089846,55.5933,RE-000,,
-1331443,18875144,settlement,"Bois Noirs","Bois Noirs",official,-21.379031,55.639323,RE-000,,
-1331040,18875134,settlement,"Trois Mares","Trois Mares",official,-21.258414,55.500724,RE-000,,
-1331459,-1922405,hypsographic,"Piton des Treize Cantons","Piton des Treize Cantons",variant,-21.186643,55.653812,RE-000,,
-1331120,-1921925,hypsographic,"Piton de Marmite","Piton de Marmite",variant,-21.057109,55.454365,RE-000,,
-1331207,-1922041,hypsographic,"Petit Bernard","Petit Bernard",variant,-21.144826,55.405422,RE-000,,
-1331126,-1921932,hydrographic,"Rivière des Marsouins","Riviere des Marsouins",official,-21.03114,55.71636,RE-000,,
-1331395,18891400,settlement,"Saint-Gilles les Bains","Saint-Gilles les Bains",official,-21.052031,55.225708,RE-000,,
-1331409,-1922316,hypsographic,"Brûlé de Saint-Paul","Brule de Saint-Paul",variant,-21.087476,55.383227,RE-000,,
-1331190,-1922014,hydrographic,"Bras du Parc","Bras du Parc",official,-21.071403,55.491718,RE-000,,
-1331495,-1922431,hydrographic,"Ravine de la Veuve","Ravine de la Veuve",official,-21.232261,55.298041,RE-000,,
-1331246,-1922094,spot,"Caverne Plate","Caverne Plate",official,-20.966667,55.433333,RE-000,,
-1331488,-1922421,hypsographic,"Piton Trois Têtes","Piton Trois Tetes",official,-21.183009,55.790446,RE-000,,
-1331248,-1922096,hydrographic,"Ravine Plate","Ravine Plate",official,-21.096973,55.681294,RE-000,,
-1331470,-1922401,hydrographic,"Ravine Tête Dure","Ravine Tete Dure",official,-20.998331,55.311125,RE-000,,
-1331196,18889345,hydrographic,"Bras Patience","Bras Patience",official,-21.093139,55.612481,RE-000,,
-1331281,-1922139,hypsographic,"Piton de la Ravine des Cafres","Piton de la Ravine des Cafres",official,-21.2,55.366667,RE-000,,
-1331377,-1922274,hypsographic,"Piton de Sainte-Rose","Piton de Sainte-Rose",official,-21.199455,55.73079,RE-000,,
-1331365,-1922256,hydrographic,"Rivière de Saint Denis","Riviere de Saint Denis",variant,-20.875526,55.444118,RE-000,,
-1331463,-1922392,hypsographic,"Terre Carrère","Terre Carrere",official,-21.079821,55.685907,RE-000,,
-1331385,-1922285,hydrographic,"Rivière de Saint Etienne","Riviere de Saint Etienne",variant,-21.302077,55.40278,RE-000,,
-1331238,-1922084,hydrographic,"Ravine du Piton Rond","Ravine du Piton Rond",official,-21.193053,55.693975,RE-000,,
-1331242,-1922088,hypsographic,"Piton de la Plaine des Cafres","Piton de la Plaine des Cafres",official,-21.133419,55.572704,RE-000,,
-1331327,18890211,settlement,"Rivière du Mât les Hauts","Riviere du Mat les Hauts",official,-20.975643,55.647489,RE-000,,
-1331421,-1922336,settlement,"Saline-les Hauts","Saline-les Hauts",official,-21.092626,55.305531,RE-000,,
-1331270,-1922127,settlement,"Ravine à Marquet","Ravine a Marquet",official,-20.95,55.333333,RE-000,,
-1331333,-1922216,hydrographic,"Ravine Rochefort","Ravine Rochefort",official,-21.36537,55.724406,RE-000,,
-1331292,18888065,settlement,"La Ravine Glissante","La Ravine Glissante",official,-21.138109,55.806629,RE-000,,
-1331066,-1921865,hypsographic,"Cirque de Mafatte","Cirque de Mafatte",variant,-21.053263,55.424933,RE-000,,
-1331113,-1921917,hydrographic,"Ravine de la Mare Longue","Ravine de la Mare Longue",official,-21.35,55.75,RE-000,,
-1331054,-1921850,hypsographic,"Plaine des Lianes","Plaine des Lianes",official,-21.016667,55.75,RE-000,,
-1331376,-1922273,hypsographic,"Brûlé de Sainte-Rose","Brule de Sainte-Rose",official,-21.143638,55.77125,RE-000,,
-1331219,-1922324,hydrographic,"Ravine Saint Pierre","Ravine Saint Pierre",variant,-21.08287,55.749917,RE-000,,
-1331405,-1922312,settlement,Saint-Paul,Saint-Paul,official,-21.009607,55.271336,RE-000,,
-1331014,-1921800,settlement,"Le Rond","Le Rond",official,-21.316272,55.60681,RE-000,,
-1331161,18875138,settlement,"Mont Vert les Bas","Mont Vert les Bas",official,-21.332472,55.530328,RE-000,,
-1331359,-1922249,settlement,Saint-Benoît,Saint-Benoit,official,-21.037952,55.715461,RE-000,,
-1331132,-1921941,hydrographic,"Petit Bras Massard","Petit Bras Massard",official,-21.057341,55.680631,RE-000,,
-1331038,-1921831,hypsographic,"Les Trois Chameaux","Les Trois Chameaux",official,-21.074874,55.217808,RE-000,,
-1331141,-1921952,hydrographic,"Bras des Merles","Bras des Merles",official,-20.998073,55.397719,RE-000,,
-1331420,-1922337,hydrographic,"Ravine des Salines","Ravine des Salines",variant,-21.090316,55.239353,RE-000,,
-1331498,-1922440,hypsographic,"Piton de Villers","Piton de Villers",official,-21.190309,55.573436,RE-000,,
-1331211,-1922047,hydrographic,"Ravine de la Petite Île","Ravine de la Petite Ile",variant,-21.374135,55.567667,RE-000,,
-1331317,18912405,hypsographic,"Piton Défaud","Piton Defaud",official,-20.962518,55.307418,RE-000,,
-1331232,-1922076,hydrographic,"Grand Bras Piton","Grand Bras Piton",official,-21.099105,55.678413,RE-000,,
-1331416,-1922329,settlement,Salazie,Salazie,official,-21.027098,55.539502,RE-000,,
-1331346,-1922231,hypsographic,"Cratère Rouge","Cratere Rouge",official,-21.233333,55.733333,RE-000,,
-1331332,-1922215,hydrographic,"Ravine de la Roche à Jacquot","Ravine de la Roche a Jacquot",official,-21.028317,55.492901,RE-000,,
-1331207,-1922039,hypsographic,"Petit Bénard","Petit Benard",variant,-21.144826,55.405422,RE-000,,
-1331342,-1922227,hypsographic,"Rond des Chevrons","Rond des Chevrons",official,-21.150173,55.510036,RE-000,,
-1331156,-1921970,hypsographic,Montause,Montause,official,-21.185746,55.3289,RE-000,,
-1331257,-1922108,hydrographic,"Ravine du Portail","Ravine du Portail",official,-21.217402,55.288965,RE-000,,
-1331222,-1922061,hypsographic,"Cap Picard","Cap Picard",official,-20.983333,55.55,RE-000,,
-1331161,-1922435,settlement,"Village de Montvert","Village de Montvert",variant,-21.332472,55.530328,RE-000,,
-1331260,-1922115,hydrographic,"Mare à Poule d’Eau","Mare a Poule d'Eau",official,-21.051232,55.525836,RE-000,,
-1331314,18892411,hypsographic,"Pointe du Parc","Pointe du Parc",official,-21.351042,55.484674,RE-000,,
-1331195,-1922023,hydrographic,"Rivière Patates à Durand","Riviere Patates a Durand",variant,-20.883508,55.467452,RE-000,,
-1331396,-1922302,settlement,"Saint-Gilles-les Hauts","Saint-Gilles-les Hauts",variant,-21.050203,55.269995,RE-000,,
-1331127,-1921933,hydrographic,"Rivière des Marsouins","Riviere des Marsouins",official,-21.101021,55.585228,RE-000,,
-1331208,-1922044,hypsographic,"Petite Île","Petite Ile",official,-21.376391,55.568063,RE-000,,
-1331462,-1922391,hypsographic,"Pointe Terre","Pointe Terre",official,-21.166667,55.383333,RE-000,,
-1331042,-1922426,settlement,Vacoas,Vacoas,variant,-21.316667,55.8,RE-000,,
-1331170,-1921986,spot,"Caverne Mussard","Caverne Mussard",official,-21.094964,55.510302,RE-000,,
-1331491,18889309,settlement,L’Union,L'Union,official,-20.999681,55.67236,RE-000,,
-1331280,18891780,settlement,"La Ravine des Cabris","La Ravine des Cabris",official,-21.286117,55.470099,RE-000,,
-1331101,-1921903,hydrographic,"Ravine la Mare","Ravine la Mare",variant,-20.890353,55.529763,RE-000,,
-1331051,-1921845,settlement,L’Hermitage,L'Hermitage,variant,-21.081759,55.227801,RE-000,,
-1331081,-1921880,settlement,"Maison Payet","Maison Payet",official,-20.966667,55.633333,RE-000,,
-1331349,-1922234,hypsographic,"Pointe Rouge","Pointe Rouge",official,-21.174793,55.833966,RE-000,,
-1331195,-1922021,hydrographic,"Ravine Patates à Durand","Ravine Patates a Durand",variant,-20.883508,55.467452,RE-000,,
-1331401,-1922308,settlement,Saint-Leu,Saint-Leu,official,-21.170589,55.288236,RE-000,,
-1331449,-1922373,hypsographic,"Pointe de la Table","Pointe de la Table",official,-21.331185,55.808122,RE-000,,
-1331073,-1921872,hypsographic,"Piton Maillot","Piton Maillot",official,-21.03847,55.507145,RE-000,,
-1331075,-1921874,settlement,"Maison Henou","Maison Henou",official,-21.149497,55.597821,RE-000,,
-1331278,18875595,hypsographic,"La Porte","La Porte",official,-21.349868,55.796705,RE-000,,
-1331451,-1922376,settlement,Takamaka,Takamaka,official,-21.317855,55.800941,RE-000,,
-1331444,-1922367,settlement,"Stella Matutina","Stella Matutina",variant,-21.20201,55.295949,RE-000,,
-1331261,-1922117,hydrographic,"Ravine du Premier Bras","Ravine du Premier Bras",official,-20.883251,55.497384,RE-000,,
-1331355,18875597,hypsographic,"Quai d’Henri Dalleau","Quai d'Henri Dalleau",official,-21.360501,55.782388,RE-000,,
-1331497,-1922070,settlement,Piton,Piton,variant,-21.219678,55.310953,RE-000,,
-1331114,-1921918,settlement,Marepine,Marepine,official,-20.888499,55.518441,RE-000,,
-1331504,-1922448,settlement,"Vue Belle","Vue Belle",official,-21.07884,55.275002,RE-000,,
-1331199,-1922028,hydrographic,"Ravine Patience","Ravine Patience",official,-21.149441,55.447963,RE-000,,
-1331231,-1922073,hydrographic,"Bras Piton","Bras Piton",official,-21.01607,55.613069,RE-000,,
-1331176,-1921993,hypsographic,"Piton Noir","Piton Noir",official,-21.3,55.733333,RE-000,,
-1331160,-1921978,hypsographic,"Piton Monvert","Piton Monvert",variant,-21.327574,55.538502,RE-000,,
-1331119,-1921923,hypsographic,"Piton Marmite","Piton Marmite",official,-20.975342,55.470524,RE-000,,
-1331089,-1921888,hypsographic,"Pitons Manapany","Pitons Manapany",official,-21.364801,55.591301,RE-000,,
-1331314,-1922188,hypsographic,"Pointe de la Rivière Arbord","Pointe de la Riviere Arbord",variant,-21.351042,55.484674,RE-000,,
-1331299,-1922162,hypsographic,"Piton de Reinette","Piton de Reinette",variant,-21.274604,55.346489,RE-000,,
-1331115,-1921928,hypsographic,"Brulé Marron","Brule Marron",variant,-21.147647,55.471398,RE-000,,
-1331245,-1922093,settlement,Plate,Plate,variant,-21.204478,55.333715,RE-000,,
-1331325,-1922206,hypsographic,"Pointe de la Rivière du Mât","Pointe de la Riviere du Mat",official,-20.979235,55.700982,RE-000,,
-1331219,-1922325,hydrographic,"Rivière Saint Pierre","Riviere Saint Pierre",variant,-21.08287,55.749917,RE-000,,
-1331310,-1921711,hypsographic,"La Réunion","La Reunion",official,-21.1,55.6,RE-000,,
-1331324,-1922204,hypsographic,"Pointe de la Rivière des Roches","Pointe de la Riviere des Roches",official,-20.983333,55.7,RE-000,,
-1331159,18875249,hydrographic,"Bras de Mont Vert","Bras de Mont Vert",official,-21.324452,55.528586,RE-000,,
-1331137,-1921947,hypsographic,"Coteau Mazarin","Coteau Mazarin",official,-21.075128,55.55228,RE-000,,
-1331295,-1922157,settlement,"Ravine Martin","Ravine Martin",official,-21.166667,55.45,RE-000,,
-1331426,-1922342,hypsographic,"Piton Sartave","Piton Sartave",official,-20.956245,55.397606,RE-000,,
-1331492,-1922428,hypsographic,"Piton Véra","Piton Vera",official,-21.116667,55.366667,RE-000,,
-1331063,-1921859,hypsographic,"Piton Long","Piton Long",official,-21.15,55.366667,RE-000,,
-1331084,-1921883,hypsographic,"Plaine des Makes","Plaine des Makes",official,-21.200465,55.416915,RE-000,,
-1331272,-1922129,settlement,"Ravine Blanche","Ravine Blanche",variant,-21.337066,55.460532,RE-000,,
-1331157,-1921971,hydrographic,"Ruisseau Montplaisir","Ruisseau Montplaisir",official,-20.891537,55.45893,RE-000,,
-1331327,-1922209,settlement,"Rivière du Mât Usine","Riviere du Mat Usine",variant,-20.975643,55.647489,RE-000,,
-1331456,-1922384,hydrographic,"Ravine du Tampon","Ravine du Tampon",official,-21.265895,55.554444,RE-000,,
-1331277,18874241,settlement,"Ravine Ango","Ravine Ango",official,-21.349793,55.791054,RE-000,,
-1331200,-1922029,hypsographic,"Piton Patu de Rosemont","Piton Patu de Rosemont",official,-21.176778,55.598544,RE-000,,
-1331483,-1922416,hypsographic,"Piton des Trois Mares","Piton des Trois Mares",official,-21.102381,55.548875,RE-000,,
-1331479,-1922412,settlement,Trinité,Trinite,official,-21.333333,55.766667,RE-000,,
-1331497,-1922436,settlement,"Village du Piton","Village du Piton",variant,-21.219678,55.310953,RE-000,,
-1331236,-1922082,hydrographic,"Ravine du Piton","Ravine du Piton",variant,-21.147868,55.826369,RE-000,,
-1331455,-1922382,hypsographic,"Plaine des Tamarins","Plaine des Tamarins",official,-21.081442,55.443751,RE-000,,
-1331274,-1922132,hypsographic,"Pointe de la Ravine Blanche","Pointe de la Ravine Blanche",official,-21.337904,55.456415,RE-000,,
-1331283,18875142,settlement,"La Ravine des Cafres les Hauts","La Ravine des Cafres les Hauts",official,-21.337336,55.518707,RE-000,,
-1331485,-1922418,settlement,"Trois Mares-les Hauts","Trois Mares-les Hauts",variant,-21.244103,55.512805,RE-000,,
-1331330,-1922213,settlement,"Rivière Saint-Pierre","Riviere Saint-Pierre",official,-21.083333,55.733333,RE-000,,
-1331219,-1922058,hydrographic,"Ravine du Petit Saint-Pierre","Ravine du Petit Saint-Pierre",official,-21.08287,55.749917,RE-000,,
-1331447,-1922370,hydrographic,"Bras Tabac","Bras Tabac",official,-21.083333,55.616667,RE-000,,
-1331150,-1921962,settlement,"M. Lamotte","M. Lamotte",official,-20.983333,55.666667,RE-000,,
-1331490,-1922423,hypsographic,"Piton des Trous Blancs","Piton des Trous Blancs",official,-21.166667,55.6,RE-000,,
-1331393,-1922298,hydrographic,"Bras Saint-Gilles","Bras Saint-Gilles",official,-21.033333,55.283333,RE-000,,
-1331028,-1921815,settlement,"Les Jacques","Les Jacques",official,-21.070834,55.701527,RE-000,,
-1331298,18874282,hypsographic,"Puys Ramond","Puys Ramond",official,-21.294255,55.70295,RE-000,,
-1331027,-1921813,hypsographic,"Les Deux Mamelles","Les Deux Mamelles",official,-21.078151,55.619853,RE-000,,
-1331396,18891401,settlement,"Saint-Gilles les Hauts","Saint-Gilles les Hauts",official,-21.050203,55.269995,RE-000,,
-1331230,-1922072,hydrographic,"Bras Piton","Bras Piton",official,-21.03044,55.5887,RE-000,,
-1331098,-1921899,hypsographic,"Piton Maravalavou","Piton Maravalavou",official,-21.166667,55.6,RE-000,,
-1331108,-1921911,hypsographic,"Piton de la Mare d’Arzule","Piton de la Mare d'Arzule",variant,-21.337186,55.7646,RE-000,,
-1331434,-1922351,hydrographic,"Ravine Sèche","Ravine Seche",official,-21.033333,55.5,RE-000,,
-1331067,-1921864,settlement,Mafatte,Mafatte,official,-21.061408,55.417468,RE-000,,
-1331180,-1921997,hypsographic,"Coteau des Orangers","Coteau des Orangers",official,-21.140651,55.440713,RE-000,,
-1331057,18891775,settlement,"La Ligne des Bambous","La Ligne des Bambous",official,-21.299468,55.490492,RE-000,,
-1331319,-1922196,hypsographic,"Piton Rivière des Marsouins","Piton Riviere des Marsouins",official,-21.116667,55.566667,RE-000,,
-1331263,-1922119,settlement,Quartier-Français,Quartier-Francais,variant,-20.929035,55.635239,RE-000,,
-1331263,18890199,settlement,"Quartier Français","Quartier Francais",official,-20.929035,55.635239,RE-000,,
-1331398,-1922304,hydrographic,"Petite Rivière Saint-Jean","Petite Riviere Saint-Jean",official,-20.926461,55.629809,RE-000,,
-1331390,18887605,hypsographic,"Morne de Saint-François","Morne de Saint-Francois",official,-21.137184,55.649425,RE-000,,
-1331249,-1922091,hypsographic,"Piton Plat","Piton Plat",variant,-20.990683,55.45213,RE-000,,
-1331395,-1922297,settlement,"Saint Gilles","Saint Gilles",variant,-21.052031,55.225708,RE-000,,
-1331037,-1921830,hypsographic,"Les Trois Bras","Les Trois Bras",official,-21.152313,55.728707,RE-000,,
-1331438,-1922357,hypsographic,"Piton Sec Patates","Piton Sec Patates",official,-20.926638,55.449544,RE-000,,
-1331475,-1922408,hydrographic,"Ravine du Tremblet","Ravine du Tremblet",official,-21.292857,55.804468,RE-000,,
-1331280,-1922138,settlement,"Ravine des Cabris","Ravine des Cabris",variant,-21.286117,55.470099,RE-000,,
-1331183,-1922004,hypsographic,Osmondes,Osmondes,variant,-21.213319,55.745413,RE-000,,
-1331015,-1922239,settlement,Ruisseau,Ruisseau,variant,-21.258634,55.438964,RE-000,,
-1331391,-1922293,hydrographic,"Premier Bras Saint-François","Premier Bras Saint-Francois",official,-21.083333,55.683333,RE-000,,
-1331500,-1922442,settlement,Vincendo,Vincendo,official,-21.37104,55.67013,RE-000,,
-1331155,-1921969,hydrographic,"Ravine Montauban","Ravine Montauban",official,-20.934704,55.501075,RE-000,,
-1331380,-1922279,hydrographic,"Bras de Sainte-Suzanne","Bras de Sainte-Suzanne",official,-21.186586,55.52982,RE-000,,
-1331237,-1922083,hypsographic,"Chaîne du Piton Papangué","Chaine du Piton Papangue",variant,-21.061828,55.638281,RE-000,,
-1331365,-1922255,hydrographic,"Rivière Saint-Denis","Riviere Saint-Denis",official,-20.875526,55.444118,RE-000,,
-1331293,-1922153,hypsographic,"Piton de la Ravine Glissante","Piton de la Ravine Glissante",official,-21.15,55.75,RE-000,,
-1331017,-1921108,settlement,Avirons,Avirons,variant,-21.240629,55.336847,RE-000,,
-1331360,-1922250,administrative_region,"Arrondissement de Saint-Benoît","Arrondissement de Saint-Benoit",official,-21.083333,55.666667,RE-000,,
-1331471,-1922402,hypsographic,"Piton Textor","Piton Textor",official,-21.189495,55.635913,RE-000,,
-1331213,-1922049,settlement,"Petite Ravine","Petite Ravine",variant,-21.124637,55.301856,RE-000,,
-1331458,-1922386,hypsographic,"Piton Tanan","Piton Tanan",variant,-20.970912,55.4968,RE-000,,
-1331031,-1921819,park,"Les Mares","Les Mares",official,-21.187623,55.730428,RE-000,,
-1331334,-1922217,settlement,"Roche Maigre","Roche Maigre",official,-21.271795,55.415671,RE-000,,
-1331367,-1922262,hydrographic,"Rivière Sainte-Anne","Riviere Sainte-Anne",official,-21.077582,55.743737,RE-000,,
-1331503,-1922447,hydrographic,"Ravine à Vincendo","Ravine a Vincendo",variant,-21.37701,55.67682,RE-000,,
-1331256,-1922107,hypsographic,"Pointe du Portail","Pointe du Portail",variant,-21.227091,55.29263,RE-000,,
-1331286,18890201,settlement,"Ravine des Chèvres les Hauts","Ravine des Chevres les Hauts",official,-20.90975,55.569367,RE-000,,
-1331474,-1922407,hypsographic,"Pointe du Tremblet","Pointe du Tremblet",official,-21.287806,55.807841,RE-000,,
-1331322,-1922201,hypsographic,"Piton de la Rivière des Remparts","Piton de la Riviere des Remparts",variant,-21.366667,55.616667,RE-000,,
-1331169,-1921985,spot,"Camp Mussard","Camp Mussard",official,-21.266667,55.583333,RE-000,,
-1331181,-1921999,hypsographic,"Pointe des Orangers","Pointe des Orangers",official,-21.083333,55.766667,RE-000,,
-1331487,18912138,park,"Les Trois Roches","Les Trois Roches",official,-21.042062,55.24846,RE-000,,
-1331097,-1921898,hypsographic,"Pitons Marabout","Pitons Marabout",variant,-21.159095,55.576024,RE-000,,
-1331178,-1921995,hypsographic,"Piton d’Orange","Piton d'Orange",official,-20.935768,55.381196,RE-000,,
-1331085,-1921884,hydrographic,Mal-Côte,Mal-Cote,variant,-20.927009,55.388325,RE-000,,
-1331084,-1921818,hypsographic,"Les Makes","Les Makes",variant,-21.200465,55.416915,RE-000,,
-1331128,-1921934,hydrographic,"Mare à Martin","Mare a Martin",official,-21.015229,55.488792,RE-000,,
-1331273,-1922131,hypsographic,"Piton de la Ravine Blanche","Piton de la Ravine Blanche",official,-21.229472,55.562074,RE-000,,
-1331360,20331887,administrative_region,Saint-Benoît,Saint-Benoit,official,-21.083333,55.666667,RE-000,,
-1331086,-1921885,hydrographic,"Bras Malheur","Bras Malheur",official,-20.919654,55.402627,RE-000,,
-1331253,-1922102,settlement,"Pont Dives","Pont Dives",variant,-21.233968,55.505113,RE-000,,
-1331467,-1922396,hypsographic,"Piton Terre Rouge","Piton Terre Rouge",official,-20.975828,55.439855,RE-000,,
-1331051,-1921847,settlement,"L’Hermitage-les Bas","L'Hermitage-les Bas",variant,-21.081759,55.227801,RE-000,,
-1331275,-1922133,settlement,"Ravine Creuse","Ravine Creuse",official,-20.965872,55.665687,RE-000,,
-1331452,-1922372,hypsographic,"Brûlé de la Table","Brule de la Table",variant,-21.325365,55.783019,RE-000,,
-1331453,-1922379,hypsographic,"Piton de Takamaka","Piton de Takamaka",official,-21.307847,55.769554,RE-000,,
-1331355,-1922244,hypsographic,"Pointe des Sables Blancs","Pointe des Sables Blancs",variant,-21.360501,55.782388,RE-000,,
-1331302,18890202,settlement,"La Renaissance","La Renaissance",official,-20.927239,55.60433,RE-000,,
-1331209,18875140,settlement,Petite-Île,Petite-Ile,official,-21.35327,55.564267,RE-000,,
-1331308,17731429,administrative_region,"Region of Reunion","Region of Reunion",colloquial,-21.1,55.6,RE-000,,
-1331287,-1922146,hypsographic,"Piton de la Ravine des Grègues","Piton de la Ravine des Gregues",variant,-21.302979,55.610379,RE-000,,
-1331341,-1922225,hypsographic,"Gros Piton Rond","Gros Piton Rond",official,-21.155092,55.59747,RE-000,,
-1331191,18874284,hypsographic,"Piton Sale","Piton Sale",variant,-21.218794,55.701968,RE-000,,
-1331403,-1922310,settlement,Saint-Louis,Saint-Louis,official,-21.285846,55.41124,RE-000,,
-1331368,-1922263,settlement,"Sainte-Anne-les Hauts","Sainte-Anne-les Hauts",official,-21.083333,55.716667,RE-000,,
-1331440,-1922362,hypsographic,"Piton des Songes","Piton des Songes",official,-21.15137,55.607937,RE-000,,
-1331162,-1921977,settlement,"Montvert-les Hauts","Montvert-les Hauts",variant,-21.316941,55.552652,RE-000,,
-1331300,-1922163,hypsographic,"Plaine des Remparts","Plaine des Remparts",official,-21.231166,55.642587,RE-000,,
-1331179,18891110,hypsographic,"Crête des Orangers","Crete des Orangers",official,-21.04909,55.393462,RE-000,,
-1331321,18893179,vegetation,"Forêt Départementale de Notre-Dame de la Paix","Foret Departementale de Notre-Dame de la Paix",official,-21.25796,55.591281,RE-000,,
-1331223,-1922062,hypsographic,"Gap à Picard","Gap a Picard",official,-20.983333,55.55,RE-000,,
-1331071,-1921870,hypsographic,"Piton Mahot","Piton Mahot",official,-21.228135,55.588432,RE-000,,
-1331284,18890200,settlement,"Ravine des Chèvres les Bas","Ravine des Chevres les Bas",official,-20.895435,55.570731,RE-000,,
-1331414,-1921826,hypsographic,"Les Salazes","Les Salazes",official,-21.088339,55.469744,RE-000,,
-1331389,18890888,hypsographic,"Morne de Saint-François","Morne de Saint-Francois",official,-20.937178,55.452494,RE-000,,
-1331048,-1921842,settlement,"Le Tévelave","Le Tevelave",official,-21.209436,55.355657,RE-000,,
-1331299,18891741,hypsographic,"Piton Reinette","Piton Reinette",official,-21.274604,55.346489,RE-000,,
-1331167,-1921983,hydrographic,"Bras des Moufiats","Bras des Moufiats",official,-20.966667,55.65,RE-000,,
-1331094,-1921894,hypsographic,"Pitons Manuel","Pitons Manuel",variant,-21.21544,55.574986,RE-000,,
-1331111,-1921914,hypsographic,"Brûlé de Mare longue","Brule de Mare longue",variant,-21.354934,55.75361,RE-000,,
-1331392,-1922294,hydrographic,"Ravine Saint François","Ravine Saint Francois",variant,-21.064373,55.731715,RE-000,,
-1331493,-1922429,hydrographic,"Ravine la Verdure","Ravine la Verdure",official,-20.891473,55.466889,RE-000,,
-1331106,-1921908,hydrographic,"Bras de la Mare d’Affouche","Bras de la Mare d'Affouche",official,-21.033333,55.5,RE-000,,
-1331138,-1921948,hypsographic,"Plateau de Mazarin","Plateau de Mazarin",variant,-21.070692,55.56751,RE-000,,
-1331329,-1922212,hypsographic,"Pointe de la Rivière Saint-Étienne","Pointe de la Riviere Saint-Etienne",official,-21.31269,55.41105,RE-000,,
-1331010,-1922106,settlement,Portail,Portail,variant,-21.213196,55.300705,RE-000,,
-1331496,-1922432,hydrographic,"Ruisseau la Vigne","Ruisseau la Vigne",official,-20.883333,55.616667,RE-000,,
-1331322,-1922200,hypsographic,"Piton Rivière des Remparts","Piton Riviere des Remparts",official,-21.366667,55.616667,RE-000,,
-1331125,-1921931,hypsographic,"Plaine des Marsouins","Plaine des Marsouins",official,-21.092987,55.559282,RE-000,,
-1331394,-1922299,hydrographic,"Ravine Saint-Gilles","Ravine Saint-Gilles",official,-21.055082,55.223819,RE-000,,
-1331450,-1922375,hypsographic,Taïbit,Taibit,official,-21.114274,55.428113,RE-000,,
-1331226,-1922066,hydrographic,"Bras Pigeon","Bras Pigeon",official,-21.07443,55.719046,RE-000,,
-1331147,-1921959,hydrographic,"Bras du Milieu","Bras du Milieu",official,-21.057382,55.60882,RE-000,,
-1331413,20331890,administrative_region,Saint-Pierre,Saint-Pierre,official,-21.25,55.583333,RE-000,,
-1331413,-1922323,administrative_region,"Arrondissement de Saint-Pierre","Arrondissement de Saint-Pierre",official,-21.25,55.583333,RE-000,,
-1331311,18890209,settlement,"La Révolution","La Revolution",official,-20.916364,55.557573,RE-000,,
-1331228,18896995,settlement,"La Cour du Piton","La Cour du Piton",official,-20.967964,55.301013,RE-000,,
-1331011,18891396,settlement,"Le Grand Pourpier","Le Grand Pourpier",official,-20.973016,55.309579,RE-000,,
-1331315,18888081,settlement,"La Rivière de l’Est","La Riviere de l'Est",official,-21.119946,55.759198,RE-000,,
-1331117,-1921921,hypsographic,"Chaîne des Mariannes","Chaine des Mariannes",variant,-21.009632,55.425325,RE-000,,
-1331045,-1921839,hypsographic,"Le Tan Rouge","Le Tan Rouge",official,-21.201398,55.344311,RE-000,,
-1331088,-1921887,settlement,Manapany,Manapany,official,-21.375994,55.600782,RE-000,,
-1331373,-1922269,hypsographic,"Pointe Sainte-Marie","Pointe Sainte-Marie",official,-20.891934,55.558113,RE-000,,
-1331138,18889513,hypsographic,"Plateau du Mazerin","Plateau du Mazerin",official,-21.070692,55.56751,RE-000,,
-1331445,-1922368,settlement,Surprise,Surprise,official,-21.151295,55.302103,RE-000,,
-1331139,-1921950,spot,"Camp Menard","Camp Menard",official,-20.966667,55.433333,RE-000,,
-1331294,-1922156,hypsographic,"Piton Ravine Marquet","Piton Ravine Marquet",variant,-20.970562,55.398804,RE-000,,
-1331428,-1922346,settlement,"Savannah Usine","Savannah Usine",variant,-20.98661,55.298314,RE-000,,
-1331438,-1922292,hypsographic,"Piton Saint François","Piton Saint Francois",variant,-20.926638,55.449544,RE-000,,
-1331286,-1922144,settlement,"Ravine des Chèvres-les Hauts","Ravine des Chevres-les Hauts",variant,-20.90975,55.569367,RE-000,,
-1331481,-1922414,hypsographic,"Pointe des Trois Bassins","Pointe des Trois Bassins",variant,-21.112844,55.253722,RE-000,,
-1331196,-1922025,hydrographic,"Bras de Patience","Bras de Patience",variant,-21.093139,55.612481,RE-000,,
-1331096,-1921896,settlement,"Ma Pensée","Ma Pensee",official,-20.993032,55.692602,RE-000,,
-1331291,-1922151,hypsographic,"Piton Ravine du Trou","Piton Ravine du Trou",official,-21.166667,55.35,RE-000,,
-1331437,-1922354,hydrographic,"Ravine Sèche","Ravine Seche",official,-21.143214,55.591562,RE-000,,
-1331306,18890208,settlement,"La Réunion","La Reunion",official,-20.900742,55.536504,RE-000,,
-1331207,18891115,hypsographic,"Le Petit Bénare","Le Petit Benare",official,-21.144826,55.405422,RE-000,,
-1331095,-1921895,hydrographic,"Ruisseau Manuel","Ruisseau Manuel",official,-20.9,55.633333,RE-000,,
-1331486,-1922419,hypsographic,"Trois Petits Bonhommes","Trois Petits Bonhommes",official,-21.101848,55.500904,RE-000,,
-1331023,-1921809,settlement,"Les Chicots","Les Chicots",official,-21.11445,55.749246,RE-000,,
-1331030,-1921817,settlement,"Les Lianes","Les Lianes",official,-21.345084,55.602026,RE-000,,
-1331102,-1921683,hydrographic,"Ravine Lamarre","Ravine Lamarre",variant,-20.951092,55.353155,RE-000,,
-1331018,-1921804,hydrographic,"Les Bras","Les Bras",official,-21.216667,55.433333,RE-000,,
-1331323,-1922203,hypsographic,"Pic de la Rivière des Roches","Pic de la Riviere des Roches",variant,-21.059952,55.619277,RE-000,,
-1331211,18875251,hydrographic,"Ravine de Petite-Île","Ravine de Petite-Ile",official,-21.374135,55.567667,RE-000,,
-1331160,18874502,hypsographic,"Piton de Mont Vert","Piton de Mont Vert",official,-21.327574,55.538502,RE-000,,
-1331183,-1922005,hypsographic,"Plaine des Osmondes","Plaine des Osmondes",official,-21.213319,55.745413,RE-000,,
-1331078,-1921877,settlement,"Maison Lelièvre","Maison Lelievre",official,-21.083333,55.316667,RE-000,,
-1331356,-1922245,hydrographic,"Ravine des Sables Noirs","Ravine des Sables Noirs",official,-21.3,55.45,RE-000,,
-1331044,-1921434,settlement,Etang,Etang,variant,-20.929402,55.655644,RE-000,,
-1331194,-1922019,hypsographic,"Morne Patates à Durand","Morne Patates a Durand",variant,-20.946663,55.464613,RE-000,,
-1331326,18890210,settlement,"Rivière du Mât les Bas","Riviere du Mat les Bas",official,-20.969804,55.689238,RE-000,,
-1331388,-1922288,hydrographic,"Deuxième Bras Saint-François","Deuxieme Bras Saint-Francois",official,-21.066667,55.7,RE-000,,
-1331091,18875135,settlement,"Manapany les Bains","Manapany les Bains",official,-21.374761,55.59355,RE-000,,
-1331334,-1921212,settlement,"Bois de Nèfles","Bois de Nefles",variant,-21.271795,55.415671,RE-000,,
-1331370,18888170,hydrographic,"Ravine Sainte-Marguerite","Ravine Sainte-Marguerite",official,-21.073299,55.737435,RE-000,,
-1331109,-1921912,hypsographic,"Pointe de la Mare d’Arzule","Pointe de la Mare d'Arzule",official,-21.364729,55.774208,RE-000,,
-1331363,20331888,administrative_region,Saint-Denis,Saint-Denis,official,-20.916667,55.5,RE-000,,
-1331043,-1922437,settlement,"Village du Tampon","Village du Tampon",variant,-21.276601,55.517657,RE-000,,
-1331192,-1922016,hypsographic,"Piton Pas des Sables","Piton Pas des Sables",official,-21.226848,55.644824,RE-000,,
-1331068,-1921867,settlement,Mahavel,Mahavel,official,-21.275779,55.469118,RE-000,,
-1331012,-1921797,settlement,"Le Quatorzième","Le Quatorzieme",official,-21.251603,55.521145,RE-000,,
-1331371,-1922267,settlement,Sainte-Marie,Sainte-Marie,official,-20.896859,55.550556,RE-000,,
-1331061,-1921857,settlement,L’Oasis,L'Oasis,official,-21.04648,55.668754,RE-000,,
-1331040,-1921833,settlement,"Les Trois Mares","Les Trois Mares",variant,-21.258414,55.500724,RE-000,,
-1331476,-1922409,hypsographic,"Rempart du Tremblet","Rempart du Tremblet",official,-21.28505,55.767776,RE-000,,
-1331287,-1922145,hypsographic,"Piton Ravine des Grègues","Piton Ravine des Gregues",official,-21.302979,55.610379,RE-000,,
-1331501,-1922444,hypsographic,"Piton à Vincendo","Piton a Vincendo",variant,-21.379585,55.666456,RE-000,,
-1331059,-1921855,settlement,L’Îlet,L'Ilet,official,-21.323521,55.601593,RE-000,,
-1331024,-1921810,settlement,"Les Cocos","Les Cocos",official,-21.28396,55.436644,RE-000,,
-1331395,-1922301,settlement,"Saint-Gilles-les Bains","Saint-Gilles-les Bains",variant,-21.052031,55.225708,RE-000,,
-1331335,-1922218,hydrographic,"Ravine Roche Pendue","Ravine Roche Pendue",official,-21.166667,55.433333,RE-000,,
-1331340,-1922224,hydrographic,"Fond des Roefles","Fond des Roefles",official,-21.2,55.283333,RE-000,,
-1331306,18890207,settlement,"Les Cocos","Les Cocos",variant,-20.900742,55.536504,RE-000,,
-1331418,-1922332,hydrographic,"Étang Salé","Etang Sale",official,-21.267767,55.332106,RE-000,,
-1331165,-1921981,hypsographic,"Piton Morne Langevin","Piton Morne Langevin",official,-21.233333,55.666667,RE-000,,
-1331279,-1922137,settlement,"Ravine des Cabris","Ravine des Cabris",official,-21.26499,55.508185,RE-000,,
-1331402,-1922309,hypsographic,"Brûlé de Saint-Leu","Brule de Saint-Leu",variant,-21.154955,55.378498,RE-000,,
-1331066,-1921863,hypsographic,"Cirque de Mafate","Cirque de Mafate",official,-21.053263,55.424933,RE-000,,
-1331218,-1922057,settlement,"Petit Saint-Pierre","Petit Saint-Pierre",official,-21.088009,55.748526,RE-000,,
-1331473,18874234,settlement,"Le Tremblet","Le Tremblet",official,-21.304026,55.801199,RE-000,,
-1331041,-1922051,hypsographic,"Petites Salazes","Petites Salazes",variant,-21.107014,55.442451,RE-000,,
-1331410,-1922318,hydrographic,"Étang de Saint-Paul","Etang de Saint-Paul",official,-20.987918,55.286004,RE-000,,
-1331044,-1921440,settlement,"Etang de Saint Andre","Etang de Saint Andre",variant,-20.929402,55.655644,RE-000,,
-1331097,18887803,hypsographic,"Pitons Mare à Boue","Pitons Mare a Boue",official,-21.159095,55.576024,RE-000,,
-1331015,-1921801,settlement,"Le Ruisseau","Le Ruisseau",variant,-21.258634,55.438964,RE-000,,
-1331013,-1921798,settlement,"Le Ramier","Le Ramier",variant,-21.025173,55.532523,RE-000,,
-1331041,-1921834,hypsographic,"Les Trois Salazes","Les Trois Salazes",official,-21.107014,55.442451,RE-000,,
-1331350,-1922236,hypsographic,"Cratère Rouge de l’Enclos","Cratere Rouge de l'Enclos",official,-21.216667,55.683333,RE-000,,
-1331174,-1921991,hypsographic,"Cap Noir","Cap Noir",official,-21.033333,55.216667,RE-000,,
-1331093,-1921893,hydrographic,"Canal du Maniron","Canal du Maniron",official,-21.266667,55.483333,RE-000,,
-1331230,-1922075,hydrographic,"Grand Bras Piton","Grand Bras Piton",variant,-21.03044,55.5887,RE-000,,
-1331044,-1921837,settlement,L’Étang,L'Etang,official,-20.929402,55.655644,RE-000,,
-1331400,18875148,hypsographic,"Pointe de la Cayenne","Pointe de la Cayenne",official,-21.38653,55.609887,RE-000,,
-1331465,-1922394,settlement,"Terre Rouge","Terre Rouge",official,-21.344703,55.503991,RE-000,,
-1331425,-1922341,hypsographic,"Plateau Sarabe","Plateau Sarabe",official,-20.979998,55.604834,RE-000,,
-1331331,-1921222,hydrographic,"Bras de Bonne Espérance","Bras de Bonne Esperance",variant,-21.1,55.683333,RE-000,,
-1331337,-1922221,hydrographic,"Ravine des Roches","Ravine des Roches",official,-21.349669,55.494266,RE-000,,
-1331166,18891789,hydrographic,"Ravine du Mouchoir Gris","Ravine du Mouchoir Gris",official,-21.225531,55.407633,RE-000,,
-1331442,-1922364,hydrographic,"Ravine Souris Chaude","Ravine Souris Chaude",official,-21.359042,55.665478,RE-000,,
-1331419,-1922333,hypsographic,"Pitons Sales","Pitons Sales",variant,-21.198343,55.561733,RE-000,,
-1331331,-1922214,hydrographic,"Ravine à Robert","Ravine a Robert",official,-21.1,55.683333,RE-000,,
-1331362,-1922252,settlement,Saint-Denis,Saint-Denis,official,-20.866667,55.466667,RE-000,,
-1331390,-1922290,hypsographic,"Mornes Saint Francois","Mornes Saint Francois",variant,-21.137184,55.649425,RE-000,,
-1331327,-1922208,settlement,"Rivière du Mât-les Hauts","Riviere du Mat-les Hauts",variant,-20.975643,55.647489,RE-000,,
-1331062,-1921858,hydrographic,"Bras Long","Bras Long",official,-21.241935,55.470852,RE-000,,
-1331347,-1922232,hypsographic,"Piton Rouge","Piton Rouge",official,-21.132746,55.389566,RE-000,,
-1331182,-1922000,hydrographic,"Ravine des Orangers","Ravine des Orangers",official,-21.098597,55.761055,RE-000,,
-1331353,-1922242,hypsographic,"Pic des Sables","Pic des Sables",official,-21.139018,55.595311,RE-000,,
-1331206,-1922038,settlement,"Petit Bazar","Petit Bazar",official,-20.944171,55.649862,RE-000,,
-1331383,-1922282,hypsographic,"Plateau Sainte-Thérèse","Plateau Sainte-Therese",official,-20.96354,55.351022,RE-000,,
-1331064,-1921860,hypsographic,"Piton Louis","Piton Louis",official,-21.171759,55.612077,RE-000,,
-1331173,-1921989,hypsographic,"Piton des Neiges","Piton des Neiges",official,-21.099352,55.479872,RE-000,,
-1331180,-1921998,hypsographic,"Ilet des Orangers","Ilet des Orangers",variant,-21.140651,55.440713,RE-000,,
-1331116,-1921920,hydrographic,"Ravine Maret","Ravine Maret",official,-21.133333,55.483333,RE-000,,
-1331303,-1922166,hydrographic,"Ravine Renaud","Ravine Renaud",official,-21.007684,55.297145,RE-000,,
-1331454,-1922380,hydrographic,"Ravine Takamaka","Ravine Takamaka",variant,-21.320406,55.800127,RE-000,,
-1331239,-1922085,settlement,"Piton Sainte-Rose","Piton Sainte-Rose",official,-21.157173,55.823439,RE-000,,
-1331244,-1922092,hypsographic,Plate,Plate,official,-20.992982,55.574074,RE-000,,
-1331411,-1922321,settlement,"Saint Phillippe","Saint Phillippe",variant,-21.360859,55.767898,RE-000,,
-1331101,18890218,hydrographic,"Ravine de la Mare","Ravine de la Mare",official,-20.890353,55.529763,RE-000,,
-1331422,-1922338,hydrographic,"Source Samary","Source Samary",official,-21.15,55.533333,RE-000,,
-1331013,18889522,settlement,"Les Ramiers","Les Ramiers",official,-21.025173,55.532523,RE-000,,
-1331092,18875136,settlement,"Manapany les Hauts","Manapany les Hauts",official,-21.336855,55.577051,RE-000,,
-1331087,-1921886,hydrographic,"Ravine à Malheur","Ravine a Malheur",official,-20.911299,55.35369,RE-000,,
-1331213,18891398,settlement,"La Petite Ravine","La Petite Ravine",official,-21.124637,55.301856,RE-000,,
-1331204,-1922035,hydrographic,"Ravine à Perote","Ravine a Perote",variant,-21.365639,55.723941,RE-000,,
-1331315,-1922191,settlement,"Rivière de l’Est","Riviere de l'Est",variant,-21.119946,55.759198,RE-000,,
-1331294,18891126,hypsographic,"Piton Ravine à Marquet","Piton Ravine a Marquet",official,-20.970562,55.398804,RE-000,,
-1331208,-1921696,hypsographic,"La Petite Ile","La Petite Ile",variant,-21.376391,55.568063,RE-000,,
-1331236,18875536,hydrographic,"Ravine Bellevue","Ravine Bellevue",official,-21.147868,55.826369,RE-000,,
-1331301,-1922164,hydrographic,"Rivière des Remparts","Riviere des Remparts",official,-21.384606,55.619025,RE-000,,
-1331186,-1922009,hydrographic,"Bras Panon","Bras Panon",official,-20.966667,55.65,RE-000,,
-1331501,-1922443,hypsographic,"Piton Vincendo","Piton Vincendo",official,-21.379585,55.666456,RE-000,,
-1331143,-1921954,hypsographic,"Plaine des Merles","Plaine des Merles",official,-21.064925,55.447647,RE-000,,
-1331348,-1922233,hypsographic,"Piton Rouge","Piton Rouge",official,-21.278167,55.352247,RE-000,,
-1331214,-1922050,hydrographic,"Petite Ravine","Petite Ravine",official,-21.135203,55.271749,RE-000,,
-1331015,18891774,settlement,"Le Ruisseau les Hauts","Le Ruisseau les Hauts",official,-21.258634,55.438964,RE-000,,
-1331432,-1922349,hydrographic,"Ravine Sèche","Ravine Seche",official,-20.943108,55.643532,RE-000,,
-1331499,-1922441,spot,"Caverne Villier","Caverne Villier",official,-21.033333,55.55,RE-000,,
-1331308,-1922177,administrative_region,"Département de la Réunion","Departement de la Reunion",variant,-21.1,55.6,RE-000,,
-1331100,-1921902,hypsographic,"Piton de la Mare","Piton de la Mare",official,-21.193275,55.334501,RE-000,,
-1331085,18891408,hydrographic,"Bras Mal Coté","Bras Mal Cote",official,-20.927009,55.388325,RE-000,,
-1331310,-1921246,hypsographic,"Bourbon Island","Bourbon Island",variant,-21.1,55.6,RE-000,,
-1331017,-1921803,settlement,"Les Avirons","Les Avirons",official,-21.240629,55.336847,RE-000,,
-1331151,-1921963,settlement,Moka,Moka,official,-20.932473,55.513402,RE-000,,
-1331314,-1922190,hypsographic,"Pointe Rivière d’Abord","Pointe Riviere d'Abord",variant,-21.351042,55.484674,RE-000,,
-1331043,-1921836,settlement,"Le Tampon","Le Tampon",official,-21.276601,55.517657,RE-000,,
-1331420,-1922335,hydrographic,"Ravine de la Saline","Ravine de la Saline",official,-21.090316,55.239353,RE-000,,
-1331137,-1921966,hypsographic,"Coteau Monique","Coteau Monique",variant,-21.075128,55.55228,RE-000,,
-1331468,-1922398,hypsographic,"Piton de Terre Rouge","Piton de Terre Rouge",variant,-21.315142,55.513546,RE-000,,
-1331201,18889509,hydrographic,"Bras Pauline","Bras Pauline",official,-21.034129,55.641904,RE-000,,
-1331480,-1921828,settlement,"Les Trois-Bassins","Les Trois-Bassins",official,-21.105652,55.298482,RE-000,,
-1331193,-1922018,hydrographic,"Bras de Patates","Bras de Patates",variant,-21.216457,55.40882,RE-000,,
-1331065,-1921861,hypsographic,Maduran,Maduran,official,-21.205562,55.3289,RE-000,,
-1331191,-1921424,hypsographic,"Piton Sommet de l’Enclos","Piton Sommet de l'Enclos",variant,-21.218794,55.701968,RE-000,,
-1331480,-1922413,settlement,"Trois Bassins","Trois Bassins",variant,-21.105652,55.298482,RE-000,,
-1331338,-1922222,hydrographic,"Rivière des Roches","Riviere des Roches",official,-21.007785,55.700932,RE-000,,
-1331289,-1922149,settlement,"Ravine du Pont","Ravine du Pont",variant,-21.339107,55.562053,RE-000,,
-1331161,-1921972,settlement,Montvert,Montvert,variant,-21.332472,55.530328,RE-000,,
-1331025,-1921811,settlement,"Les Colimaçons","Les Colimacons",official,-21.13923,55.292884,RE-000,,
-1331025,-1921366,settlement,Colimaçons,Colimacons,variant,-21.13923,55.292884,RE-000,,
-1331149,-1921961,hydrographic,"Ravine Misère","Ravine Misere",official,-21.090641,55.593003,RE-000,,
-1331201,-1922030,hydrographic,"Ravine Pauline","Ravine Pauline",variant,-21.034129,55.641904,RE-000,,
-1331448,-1922371,hydrographic,"Ravine Tabac","Ravine Tabac",official,-21.108462,55.2581,RE-000,,
-1331312,-1922186,settlement,Rivière,Riviere,official,-21.266667,55.416667,RE-000,,
-1331072,-1921871,hypsographic,"Coteau Maigre","Coteau Maigre",official,-21.135833,55.529081,RE-000,,
-1331260,-1922114,hydrographic,"Poule d’eau","Poule d'eau",variant,-21.051232,55.525836,RE-000,,
-1331043,-1922383,settlement,Tampon,Tampon,variant,-21.276601,55.517657,RE-000,,
-1331035,-1921824,settlement,"Les Sables Blancs","Les Sables Blancs",official,-21.35277,55.786459,RE-000,,
-1331250,-1922099,hydrographic,"Rivière des Pluies","Riviere des Pluies",official,-20.882718,55.500973,RE-000,,
-1331364,-1922254,hydrographic,"Rade de Saint-Denis","Rade de Saint-Denis",official,-20.85,55.433333,RE-000,,
-1331140,-1921951,settlement,Menciol,Menciol,official,-20.96185,55.627066,RE-000,,
-1331406,20331889,administrative_region,Saint-Paul,Saint-Paul,official,-21.083333,55.333333,RE-000,,
-1331466,-1922395,hydrographic,"Bras de Terre Rouge","Bras de Terre Rouge",variant,-20.992716,55.649922,RE-000,,
-1331154,18891397,settlement,"Mon Repos","Mon Repos",official,-20.987058,55.333754,RE-000,,
-1331034,18875133,settlement,"Les Quatre Cents","Les Quatre Cents",official,-21.270682,55.4955,RE-000,,
-1331375,-1922272,settlement,Sainte-Rose,Sainte-Rose,official,-21.128582,55.796164,RE-000,,
-1331285,-1922143,hypsographic,"Pointe de la Ravine des Chèvres","Pointe de la Ravine des Chevres",official,-20.893444,55.570957,RE-000,,
-1331264,-1922120,hypsographic,"Cratère Ramond","Cratere Ramond",official,-21.266667,55.7,RE-000,,
-1331177,-1921994,hydrographic,"Ruisseau des Noirs","Ruisseau des Noirs",official,-20.891403,55.458732,RE-000,,
-1331166,-1921982,hydrographic,"Bras du Mouchoir Gris","Bras du Mouchoir Gris",variant,-21.225531,55.407633,RE-000,,
-1331239,-1922069,settlement,Piton,Piton,variant,-21.157173,55.823439,RE-000,,
-1331310,-1922180,hypsographic,"Île de la Réunion","Ile de la Reunion",official,-21.1,55.6,RE-000,,
-1331154,-1921967,settlement,Monrepos,Monrepos,variant,-20.987058,55.333754,RE-000,,
-1331235,-1922080,hydrographic,"Ravine Piton","Ravine Piton",official,-20.916667,55.516667,RE-000,,
-1331323,18888178,hypsographic,"Piton de la Rivière des Roches","Piton de la Riviere des Roches",official,-21.059952,55.619277,RE-000,,
-1331423,-1922339,hypsographic,"Montée Sano","Montee Sano",official,-20.951809,55.536647,RE-000,,
-1331409,18890886,hypsographic,"Le Brûlé de Saint-Paul","Le Brule de Saint-Paul",official,-21.087476,55.383227,RE-000,,
-1331107,-1921909,hypsographic,"Piton Mare d’Affouche","Piton Mare d'Affouche",official,-21.048447,55.488403,RE-000,,
-1331255,18893185,hydrographic,"Bras de Pontho","Bras de Pontho",official,-21.245586,55.488015,RE-000,,
-1331321,-1922199,vegetation,"Forêt de la Rivière des Remparts","Foret de la Riviere des Remparts",variant,-21.25796,55.591281,RE-000,,
-1331121,-1921926,hydrographic,"Ravine à Marquet","Ravine a Marquet",official,-20.927473,55.330354,RE-000,,
-1331193,18891788,hydrographic,"Bras Patates","Bras Patates",official,-21.216457,55.40882,RE-000,,
-1331268,-1922125,settlement,"Ravine à Malheur","Ravine a Malheur",variant,-20.923021,55.366339,RE-000,,
-1331406,-1922313,administrative_region,"Arrondissement de Saint-Paul","Arrondissement de Saint-Paul",official,-21.083333,55.333333,RE-000,,
-1331164,-1921980,hypsographic,"Crête Morne de Fourche","Crete Morne de Fourche",official,-21.033333,55.416667,RE-000,,
-1331443,-1922365,settlement,"Sous les Bois Noirs","Sous les Bois Noirs",variant,-21.379031,55.639323,RE-000,,
-1331487,-1922420,park,"Trois Roches","Trois Roches",variant,-21.042062,55.24846,RE-000,,
-1331277,-1922135,settlement,"Ravine d’Ango","Ravine d'Ango",variant,-21.349793,55.791054,RE-000,,
-1331036,-1921827,settlement,"Les Six-Cents","Les Six-Cents",official,-21.266667,55.516667,RE-000,,
-1331187,-1922010,hypsographic,"Montée Panon","Montee Panon",official,-21.091796,55.263147,RE-000,,
-1331204,18874162,hydrographic,"Ravine Pérote","Ravine Perote",official,-21.365639,55.723941,RE-000,,
-1331297,-1922160,hypsographic,"Pointe de la Ravine Sèche","Pointe de la Ravine Seche",official,-21.049527,55.732012,RE-000,,
-1331394,-1922300,hydrographic,"Ravine de Saint Gilles","Ravine de Saint Gilles",variant,-21.055082,55.223819,RE-000,,
-1331317,-1922194,hypsographic,"Piton de la Rivière des Galets","Piton de la Riviere des Galets",variant,-20.962518,55.307418,RE-000,,
-1331207,-1922040,hypsographic,"Piton du Petit Bénard","Piton du Petit Benard",variant,-21.144826,55.405422,RE-000,,
-1331194,-1922017,hypsographic,"Morne Patate à Durand","Morne Patate a Durand",variant,-20.946663,55.464613,RE-000,,
-1331386,-1922286,settlement,Saint-François,Saint-Francois,official,-20.917025,55.458924,RE-000,,
-1331439,-1922359,hypsographic,"Piton Selez","Piton Selez",official,-20.9,55.416667,RE-000,,
-1331212,18887606,hypsographic,"La Petite Plaine","La Petite Plaine",official,-21.143618,55.594659,RE-000,,
-1331162,18875139,settlement,"Mont Vert les Hauts","Mont Vert les Hauts",official,-21.316941,55.552652,RE-000,,
-1331050,18874614,settlement,L’Ermitage,L'Ermitage,official,-21.357952,55.577108,RE-000,,
-1331066,-1921862,hypsographic,Mafate,Mafate,variant,-21.053263,55.424933,RE-000,,
-1331047,-1922388,hypsographic,Tapal,Tapal,variant,-21.116667,55.433333,RE-000,,
-1331136,-1921945,hydrographic,"Bras Mazarin","Bras Mazarin",official,-21.088248,55.595465,RE-000,,
-1331147,-1921958,hydrographic,"Bras de Milieu","Bras de Milieu",variant,-21.057382,55.60882,RE-000,,
-1331052,-1921848,hydrographic,"Bras des Lianes","Bras des Lianes",official,-20.990482,55.625691,RE-000,,
-1331384,-1921449,hydrographic,"Canal Etienne","Canal Etienne",variant,-21.294156,55.439717,RE-000,,
-1331392,18888171,hydrographic,"Ravine Saint-François","Ravine Saint-Francois",official,-21.064373,55.731715,RE-000,,
-1331402,18890885,hypsographic,"Le Brûlé de Saint-Leu","Le Brule de Saint-Leu",official,-21.154955,55.378498,RE-000,,
-1331468,-1922399,hypsographic,"Pitons de Terre Rouge","Pitons de Terre Rouge",official,-21.315142,55.513546,RE-000,,
-1331197,-1922026,hydrographic,"Grand Bras de Patience","Grand Bras de Patience",official,-21.113429,55.644918,RE-000,,
-1331271,-1922128,hypsographic,"Piton Ravine Basse Vallée","Piton Ravine Basse Vallee",official,-21.31845,55.70328,RE-000,,
-1331485,18875145,settlement,"Trois Mares les Hauts","Trois Mares les Hauts",official,-21.244103,55.512805,RE-000,,
-1331429,-1922345,hypsographic,"Îlet Savannah","Ilet Savannah",official,-20.971387,55.330676,RE-000,,
-1331358,-1922247,settlement,Saint-André,Saint-Andre,official,-20.963331,55.650312,RE-000,,
-1331478,-1922411,hydrographic,"Mare à Trevet","Mare a Trevet",official,-21.05,55.55,RE-000,,
-1331265,-1922121,hypsographic,"Pic Ramond","Pic Ramond",official,-21.283333,55.7,RE-000,,
-1331215,-1922052,hydrographic,"Ravine Petit Etang","Ravine Petit Etang",variant,-21.169542,55.287534,RE-000,,
-1331228,-1922068,settlement,Piton,Piton,variant,-20.967964,55.301013,RE-000,,
-1331124,-1921930,hypsographic,Marsouins,Marsouins,official,-21.1,55.566667,RE-000,,
-1331250,-1922098,hydrographic,"Ravine des Pluies","Ravine des Pluies",variant,-20.882718,55.500973,RE-000,,
-1331282,-1922140,settlement,"Ravine des Cafres-les Bas","Ravine des Cafres-les Bas",official,-21.349855,55.508318,RE-000,,
-1331457,-1922385,hydrographic,"Bras Tanan","Bras Tanan",official,-20.933333,55.483333,RE-000,,
-1331079,-1921878,settlement,"Maison Leroux","Maison Leroux",official,-21.201761,55.818916,RE-000,,
-1331283,-1922141,settlement,"Ravine des Cafres-les Hauts","Ravine des Cafres-les Hauts",variant,-21.337336,55.518707,RE-000,,
-1331414,-1922327,hypsographic,"Chaîne des Salazes","Chaine des Salazes",variant,-21.088339,55.469744,RE-000,,
-1331117,18891111,hypsographic,"Crête de la Marianne","Crete de la Marianne",official,-21.009632,55.425325,RE-000,,
-1331243,-1922089,settlement,"Plaine des Grègues","Plaine des Gregues",official,-21.332198,55.609393,RE-000,,
-1331047,-1921841,hypsographic,"Le Tap Cal","Le Tap Cal",official,-21.116667,55.433333,RE-000,,
-1331209,-1922045,settlement,"Petite Île","Petite Ile",variant,-21.35327,55.564267,RE-000,,
-1331171,-1921987,hydrographic,"Bras de la Nage","Bras de la Nage",official,-20.973441,55.489708,RE-000,,
-1331407,-1922319,hydrographic,"Saint Paul Bay","Saint Paul Bay",variant,-20.992149,55.269603,RE-000,,
-1331220,18891777,settlement,"Le Petit Serré","Le Petit Serre",official,-21.214541,55.454691,RE-000,,
-1331053,-1921849,hypsographic,"Pic des Lianes","Pic des Lianes",official,-21.023231,55.575227,RE-000,,
-1331221,-1922060,park,"Petit Tampon","Petit Tampon",official,-21.268292,55.557397,RE-000,,
-1331382,-1922281,settlement,Sainte-Thérèse,Sainte-Therese,official,-20.952046,55.343018,RE-000,,
-1331136,-1921946,hydrographic,"Bras du Mazarin","Bras du Mazarin",variant,-21.088248,55.595465,RE-000,,
-1331482,18891434,hydrographic,"Ravine des Trois-Bassins","Ravine des Trois-Bassins",official,-21.110134,55.254278,RE-000,,
-1331083,18891776,settlement,"Les Makes","Les Makes",official,-21.207832,55.405478,RE-000,,
-1331276,-1922134,hypsographic,"Pointe de la Ravine Creuse","Pointe de la Ravine Creuse",official,-20.933333,55.683333,RE-000,,
-1331497,18891781,settlement,"Le Piton Saint-Leu","Le Piton Saint-Leu",official,-21.219678,55.310953,RE-000,,
-1331104,-1921906,settlement,"Mare à Citrons","Mare a Citrons",official,-21.035331,55.529947,RE-000,,
-1331175,-1921992,hypsographic,"Cap Noir","Cap Noir",official,-21.15,55.45,RE-000,,
-1331210,-1922046,hypsographic,"Piton Petite Île","Piton Petite Ile",official,-21.333333,55.55,RE-000,,
-1331458,18890321,hypsographic,"Piton Tanane","Piton Tanane",official,-20.970912,55.4968,RE-000,,
-1331051,-1921597,settlement,Hermitage,Hermitage,variant,-21.081759,55.227801,RE-000,,
-1331224,-1922063,settlement,Pichète,Pichete,official,-20.960643,55.34561,RE-000,,
-1331310,-1921245,hypsographic,Bourbon,Bourbon,variant,-21.1,55.6,RE-000,,
-1331205,-1922036,hydrographic,"Bras Pétard","Bras Petard",official,-21.003183,55.67495,RE-000,,
-1331233,18888066,hypsographic,"Pointe de Bellevue","Pointe de Bellevue",official,-21.145202,55.826108,RE-000,,
-1331339,-1922223,hypsographic,"Pitons des Roches Tendres","Pitons des Roches Tendres",variant,-21.203552,55.28781,RE-000,,
-1331408,-1922315,hydrographic,"Bras de Saint-Paul","Bras de Saint-Paul",official,-21.172884,55.444895,RE-000,,
-1331099,-1921900,hydrographic,"Bras Marcel","Bras Marcel",official,-21.156373,55.607651,RE-000,,
-1331357,-1922246,hydrographic,"Anse du Sac","Anse du Sac",official,-21.116667,55.816667,RE-000,,
-1331298,-1922161,hypsographic,"Puys Raymond","Puys Raymond",variant,-21.294255,55.70295,RE-000,,
-1331320,-1922198,hypsographic,"Pointe de la Rivière des Pluies","Pointe de la Riviere des Pluies",official,-20.866667,55.516667,RE-000,,
-1331363,-1922253,administrative_region,"Arrondissement de Saint-Denis","Arrondissement de Saint-Denis",official,-20.916667,55.5,RE-000,,
-1331033,18891736,hypsographic,"Le Gouffre","Le Gouffre",official,-21.2054,55.283121,RE-000,,
-1331366,-1922257,settlement,Sainte-Anne,Sainte-Anne,official,-21.08204,55.745226,RE-000,,
-1331105,-1921907,settlement,"Mare à Vieille Place","Mare a Vieille Place",official,-21.027327,55.508425,RE-000,,
-1331326,-1922147,settlement,"Ravine du Mât les Bas","Ravine du Mat les Bas",variant,-20.969804,55.689238,RE-000,,
-1331411,-1922320,settlement,Saint-Philippe,Saint-Philippe,official,-21.360859,55.767898,RE-000,,
-1331472,-1922404,hypsographic,"Piton de Tortue","Piton de Tortue",variant,-21.151002,55.551675,RE-000,,
-1331166,18910624,hydrographic,"Le Mouchoir Gris","Le Mouchoir Gris",official,-21.225531,55.407633,RE-000,,
-1331091,-1921891,settlement,"Manapany-les Bains","Manapany-les Bains",variant,-21.374761,55.59355,RE-000,,
-1331306,-1922173,settlement,Réunion,Reunion,variant,-20.900742,55.536504,RE-000,,
-1331392,-1922296,hydrographic,"Rivière Saint François","Riviere Saint Francois",variant,-21.064373,55.731715,RE-000,,
-1331051,-1921799,settlement,"L’Ermitage-les Bas","L'Ermitage-les Bas",variant,-21.081759,55.227801,RE-000,,
-1331249,-1922097,hypsographic,"Pitons Plats","Pitons Plats",official,-20.990683,55.45213,RE-000,,
-1331163,-1921979,settlement,Morange,Morange,official,-21.095065,55.7347,RE-000,,
-1331217,18889343,settlement,"Le Petit Sable","Le Petit Sable",official,-21.034888,55.535997,RE-000,,
-1331316,-1922192,hypsographic,"Piton Rivière de l’Est","Piton Riviere de l'Est",official,-21.195395,55.670176,RE-000,,
-1331317,-1922193,hypsographic,"Piton Rivière des Galets","Piton Riviere des Galets",variant,-20.962518,55.307418,RE-000,,
-1331289,-1922438,settlement,"Village Ravine du Pont","Village Ravine du Pont",variant,-21.339107,55.562053,RE-000,,
-1331381,-1922276,hydrographic,"Bras Sainte Suzanne","Bras Sainte Suzanne",variant,-20.908678,55.616937,RE-000,,
-1331433,-1922350,hydrographic,"Ravine Sèche","Ravine Seche",official,-21.012842,55.51078,RE-000,,
-1331215,-1922053,hydrographic,"Ravine du Petit Étang","Ravine du Petit Etang",official,-21.169542,55.287534,RE-000,,
-1331370,-1922266,hydrographic,"Rivière Sainte Marguerite","Riviere Sainte Marguerite",variant,-21.073299,55.737435,RE-000,,
-1331225,-1922065,settlement,"Pierrefonds Usine","Pierrefonds Usine",variant,-21.301345,55.429733,RE-000,,
-1331376,-1922043,hypsographic,"Petit Brule de Sainte Rose","Petit Brule de Sainte Rose",variant,-21.143638,55.77125,RE-000,,
-1331207,-1921177,hypsographic,Bénards,Benards,variant,-21.144826,55.405422,RE-000,,
-1331120,-1921924,hypsographic,"Piton Marmite","Piton Marmite",official,-21.057109,55.454365,RE-000,,
-1331318,-1922187,hypsographic,"Pointe de la Rivière","Pointe de la Riviere",variant,-20.954831,55.277726,RE-000,,
-1331011,-1921796,settlement,"Le Pourpier","Le Pourpier",variant,-20.973016,55.309579,RE-000,,
-1331482,-1922415,hydrographic,"Ravine des Trois Bassins","Ravine des Trois Bassins",variant,-21.110134,55.254278,RE-000,,
-1331020,-1921806,settlement,"Les Camélias","Les Camelias",official,-20.894796,55.4629,RE-000,,
-1331310,-1922172,hypsographic,Réunion,Reunion,variant,-21.1,55.6,RE-000,,
-1331080,-1921879,settlement,"Maison Moullan","Maison Moullan",official,-21.033333,55.5,RE-000,,
-1331446,-1922369,hydrographic,"Bras de Sylvert","Bras de Sylvert",official,-21.214492,55.406927,RE-000,,
-1331308,17731428,administrative_region,"Région Réunion","Region Reunion",official,-21.1,55.6,RE-000,,
-1331229,-1922071,hydrographic,"Bras Piton","Bras Piton",official,-20.883333,55.383333,RE-000,,
-1331304,-1922167,hydrographic,Rencontre,Rencontre,variant,-21.307637,55.804387,RE-000,,
-1331102,-1921904,hydrographic,"Ravine la Mare","Ravine la Mare",official,-20.951092,55.353155,RE-000,,
-1331168,-1921984,vegetation,"Forêt Mourouvin","Foret Mourouvin",official,-21.158983,55.776887,RE-000,,
-1331160,-1921975,hypsographic,"Piton Montvert","Piton Montvert",variant,-21.327574,55.538502,RE-000,,
-1331039,-1921832,settlement,"Les Trois Frères","Les Trois Freres",official,-20.90802,55.597791,RE-000,,
-1331056,-1921852,hypsographic,"Piton de la Ligne","Piton de la Ligne",official,-21.360124,55.640717,RE-000,,
-1331308,14475634,administrative_region,Reunion,Reunion,colloquial,-21.1,55.6,RE-000,,
-1331225,-1922064,settlement,Pierrefonds,Pierrefonds,official,-21.301345,55.429733,RE-000,,
-1331161,-1921976,settlement,"Montvert-les Bas","Montvert-les Bas",variant,-21.332472,55.530328,RE-000,,
-1331240,-1922086,hydrographic,"Bras de la Plaine","Bras de la Plaine",official,-21.285117,55.45636,RE-000,,
-1331122,-1921927,hydrographic,"Bras Marron","Bras Marron",official,-21.053446,55.502387,RE-000,,
-1331036,-1922361,settlement,"Six Cents","Six Cents",variant,-21.266667,55.516667,RE-000,,
-1331427,-1922343,hydrographic,"Ravine Savane Cimetière","Ravine Savane Cimetiere",official,-21.17824,55.717631,RE-000,,
-1331185,-1922007,hypsographic,"Piton des Palmistes","Piton des Palmistes",official,-21.183333,55.366667,RE-000,,
-1331381,-1922280,hydrographic,"Rivière Sainte-Suzanne","Riviere Sainte-Suzanne",official,-20.908678,55.616937,RE-000,,
-1331351,-1922238,hypsographic,"Piton Rouge des Ramparts","Piton Rouge des Ramparts",official,-21.221532,55.63798,RE-000,,
-1331477,-1922410,hypsographic,"Piton Trésor","Piton Tresor",official,-20.897389,55.425114,RE-000,,
-1331284,-1921543,settlement,"Grande Ravine","Grande Ravine",variant,-20.895435,55.570731,RE-000,,
-1331397,-1922305,hydrographic,"Rivière Saint Jean","Riviere Saint Jean",variant,-20.910808,55.628605,RE-000,,
-1331308,-1921710,administrative_region,"La Réunion","La Reunion",official,-21.1,55.6,RE-000,,
-1331055,-1921851,hypsographic,Libéria,Liberia,official,-21.023222,55.64899,RE-000,,
-1331245,18891778,settlement,"Le Plate","Le Plate",official,-21.204478,55.333715,RE-000,,
-1331378,-1922275,settlement,Sainte-Suzanne,Sainte-Suzanne,official,-20.90616,55.607877,RE-000,,
-1331209,-1922434,settlement,"Village de la Petite Ile","Village de la Petite Ile",variant,-21.35327,55.564267,RE-000,,
-1331454,-1922381,hydrographic,"Ravine de Takamaka","Ravine de Takamaka",official,-21.320406,55.800127,RE-000,,
-1331058,-1921854,hypsographic,L’Îlet,L'Ilet,official,-21.193104,55.679827,RE-000,,
-1331110,-1921913,settlement,"Mare Longue","Mare Longue",official,-21.365052,55.751875,RE-000,,
-1331460,-1922389,settlement,"Terrain Élisa","Terrain Elisa",official,-20.925985,55.549156,RE-000,,
-1331308,-1922176,administrative_region,"Department of Reunion","Department of Reunion",variant,-21.1,55.6,RE-000,,
-1331133,-1921942,hydrographic,"Rivière du Mât","Riviere du Mat",official,-20.980514,55.700634,RE-000,,
-1331194,-1922020,hypsographic,"Morne des Patates à Durand","Morne des Patates a Durand",official,-20.946663,55.464613,RE-000,,
-1331410,-1922317,hydrographic,"Etang Saint Paul","Etang Saint Paul",variant,-20.987918,55.286004,RE-000,,
-1331328,-1922210,settlement,"Rivière du Rempart","Riviere du Rempart",official,-21.366667,55.616667,RE-000,,
-1331505,-1922449,hypsographic,"Plateau Wickers","Plateau Wickers",official,-21.0139,55.561421,RE-000,,
-1331216,-1922055,hypsographic,"Petit Matarum","Petit Matarum",official,-21.112399,55.484043,RE-000,,
-1331419,18875533,hypsographic,"Piton Sahales","Piton Sahales",official,-21.198343,55.561733,RE-000,,
-1331390,-1922291,hypsographic,"Mornes de Saint-François","Mornes de Saint-Francois",variant,-21.137184,55.649425,RE-000,,
-1331034,-1921823,settlement,"Les Quatre-Cents","Les Quatre-Cents",variant,-21.270682,55.4955,RE-000,,
-1331469,-1922400,settlement,"Terre Sainte","Terre Sainte",official,-21.348317,55.485209,RE-000,,
-1331399,-1922306,settlement,Saint-Joseph,Saint-Joseph,official,-21.377698,55.616905,RE-000,,
-1331305,-1922169,hydrographic,"Ravine Renone","Ravine Renone",official,-21.254808,55.352676,RE-000,,
-1331178,-1922124,hypsographic,"Ravine a Malheur","Ravine a Malheur",variant,-20.935768,55.381196,RE-000,,
-1331284,-1922142,settlement,"Ravine des Chèvres","Ravine des Chevres",variant,-20.895435,55.570731,RE-000,,
-1331049,-1921843,settlement,"Le Titan","Le Titan",official,-20.93958,55.283788,RE-000,,
-1331259,-1922113,hydrographic,"Ravine Poulailler","Ravine Poulailler",official,-21.2,55.483333,RE-000,,
-1331019,-1921805,settlement,L’Escalier,L'Escalier,official,-21.002225,55.573639,RE-000,,
-1331083,-1921882,settlement,Makes,Makes,variant,-21.207832,55.405478,RE-000,,
-1331204,-1922034,hydrographic,"Ravine Perote","Ravine Perote",variant,-21.365639,55.723941,RE-000,,
-1331453,-1922378,hypsographic,"Piton Takamaka","Piton Takamaka",variant,-21.307847,55.769554,RE-000,,
-1331038,-1921326,hypsographic,"Roches des Chameaux","Roches des Chameaux",variant,-21.074874,55.217808,RE-000,,
-1331129,-1921935,hydrographic,"Ruisseau Martin Flacourt","Ruisseau Martin Flacourt",official,-20.866667,55.566667,RE-000,,
-1331227,-1922067,park,Pindray,Pindray,official,-21.116667,55.766667,RE-000,,
-1331146,-1921957,hypsographic,"Cratère Mi-côte","Cratere Mi-cote",official,-21.216667,55.75,RE-000,,
-1331407,-1922314,hydrographic,"Baie de Saint-Paul","Baie de Saint-Paul",official,-20.992149,55.269603,RE-000,,
-1331234,-1922079,hydrographic,"Premier Bras Piton","Premier Bras Piton",official,-21.116667,55.633333,RE-000,,
-1331308,14475635,administrative_region,Réunion,Reunion,variant,-21.1,55.6,RE-000,,
-1331307,-1922174,settlement,Réunion,Reunion,official,-21.066667,55.266667,RE-000,,
-1331400,-1922307,hypsographic,"Pointe Saint-Joseph","Pointe Saint-Joseph",variant,-21.38653,55.609887,RE-000,,
-1331252,-1922101,hydrographic,"Ravine du Pont","Ravine du Pont",official,-21.365907,55.540875,RE-000,,
-1331179,-1921996,hypsographic,"Chaîne des Orangers","Chaine des Orangers",variant,-21.04909,55.393462,RE-000,,
-1331326,-1922207,settlement,"Rivière du Mât-les Bas","Riviere du Mat-les Bas",variant,-20.969804,55.689238,RE-000,,
-1331070,-1921869,hydrographic,"Bras Maho","Bras Maho",official,-20.966667,55.6,RE-000,,
-1331268,18891399,settlement,"La Ravine à Malheur","La Ravine a Malheur",official,-20.923021,55.366339,RE-000,,
-1331435,-1922352,hydrographic,"Ravine Sèche","Ravine Seche",official,-21.050233,55.73217,RE-000,,
-1331452,-1922377,hypsographic,"Brûlé de Takamaka","Brule de Takamaka",official,-21.325365,55.783019,RE-000,,
-1331220,-1922059,settlement,"Petit Serré","Petit Serre",variant,-21.214541,55.454691,RE-000,,
-1331195,-1922022,hydrographic,"Ravine des Patates à Durand","Ravine des Patates a Durand",official,-20.883508,55.467452,RE-000,,
-1331097,-1921897,hypsographic,"Piton Marabout","Piton Marabout",variant,-21.159095,55.576024,RE-000,,
-1331241,-1922087,hydrographic,"Ravine la Plaine","Ravine la Plaine",official,-20.98814,55.287399,RE-000,,
-1331258,-1922112,hypsographic,"Cap de la Possession","Cap de la Possession",official,-20.9,55.333333,RE-000,,
-1331251,-1922100,vegetation,"Bois de Pomme","Bois de Pomme",official,-21.01879,55.546323,RE-000,,
-1331135,18889337,hypsographic,"Le Mazerin","Le Mazerin",official,-21.072707,55.559096,RE-000,,
-1331367,-1922261,hydrographic,"Ravine Sainte Anne","Ravine Sainte Anne",variant,-21.077582,55.743737,RE-000,,
-1331090,-1921889,hydrographic,"Ravine Manapany","Ravine Manapany",official,-21.371429,55.584159,RE-000,,
-1331207,-1921784,hypsographic,"Le Petit Bénard","Le Petit Benard",variant,-21.144826,55.405422,RE-000,,
-1331484,-1922417,hydrographic,"Ravine des Trois Mares","Ravine des Trois Mares",official,-21.289851,55.458444,RE-000,,
-1331392,-1922295,hydrographic,"Ravine de Saint-François","Ravine de Saint-Francois",variant,-21.064373,55.731715,RE-000,,
-1331188,-1922012,hypsographic,"Piton Papangue","Piton Papangue",official,-21.361778,55.657102,RE-000,,
-1331233,-1922078,hypsographic,"Pointe du Piton","Pointe du Piton",variant,-21.145202,55.826108,RE-000,,
-1331361,-1922251,settlement,Saint-Bernard,Saint-Bernard,official,-20.910448,55.400909,RE-000,,
-1331112,18874087,hypsographic,"La Grande Pointe","La Grande Pointe",official,-21.367192,55.750712,RE-000,,
-1331033,-1921822,hypsographic,"Le Souffleur","Le Souffleur",variant,-21.2054,55.283121,RE-000,,
-1331247,-1922095,hypsographic,"Piton de Plate","Piton de Plate",official,-21.185317,55.342191,RE-000,,
-1331372,-1922271,hydrographic,"Rivière Sainte-Marie","Riviere Sainte-Marie",official,-20.895475,55.547906,RE-000,,
-1331159,-1921974,hydrographic,"Bras de Montvert","Bras de Montvert",variant,-21.324452,55.528586,RE-000,,
-1331412,-1922322,settlement,Saint-Pierre,Saint-Pierre,official,-21.339298,55.47811,RE-000,,
-1331042,-1921835,settlement,"Les Vacoas","Les Vacoas",official,-21.316667,55.8,RE-000,,
-1331289,18875143,settlement,"La Ravine du Pont","La Ravine du Pont",official,-21.339107,55.562053,RE-000,,
-1331010,-1921794,settlement,"Le Portail","Le Portail",official,-21.213196,55.300705,RE-000,,
-1331094,18875532,hypsographic,"Piton Manuel","Piton Manuel",official,-21.21544,55.574986,RE-000,,
-1331254,-1922103,hydrographic,"Bras de Ponteau","Bras de Ponteau",official,-21.183333,55.583333,RE-000,,
-1331494,-1922430,settlement,"Verger Hemery","Verger Hemery",variant,-21.364341,55.544899,RE-000,,
-1331041,-1922326,hypsographic,Salazes,Salazes,variant,-21.107014,55.442451,RE-000,,
-1331379,-1922277,hydrographic,"Bras Sainte-Suzanne","Bras Sainte-Suzanne",official,-21.001692,55.389299,RE-000,,
-1331115,-1921919,hypsographic,"Mare Sèche","Mare Seche",official,-21.147647,55.471398,RE-000,,
-1331203,-1922033,hydrographic,"Bras Payet","Bras Payet",official,-21.158641,55.610201,RE-000,,
-1331272,18891779,settlement,"La Ravine Blanche","La Ravine Blanche",official,-21.337066,55.460532,RE-000,,
-1331253,18875141,settlement,"Le Pont d’Yves","Le Pont d'Yves",official,-21.233968,55.505113,RE-000,,
-1331267,-1922123,hypsographic,"Piton Ravine à Jacques","Piton Ravine a Jacques",official,-20.916667,55.416667,RE-000,,
-1331189,-1922013,hydrographic,"Ravine Papaye","Ravine Papaye",official,-21.25,55.4,RE-000,,
-1331082,-1921881,settlement,"Maison Rouge","Maison Rouge",official,-21.266013,55.411889,RE-000,,
-1331266,-1922122,hypsographic,"Piton Ramond","Piton Ramond",official,-21.283333,55.7,RE-000,,
-1331494,18875146,settlement,"Le Verger Hémery","Le Verger Hemery",official,-21.364341,55.544899,RE-000,,
-1331318,-1922195,hypsographic,"Pointe de la Rivière des Galets","Pointe de la Riviere des Galets",official,-20.954831,55.277726,RE-000,,
-1331135,-1921949,hypsographic,Mazerin,Mazerin,variant,-21.072707,55.559096,RE-000,,
-1331389,-1922289,hypsographic,"Morne Saint-François","Morne Saint-Francois",variant,-20.937178,55.452494,RE-000,,
-1331292,-1922152,settlement,"Ravine Glissante","Ravine Glissante",variant,-21.138109,55.806629,RE-000,,
-1331310,-1922181,hypsographic,Reunion,Reunion,colloquial,-21.1,55.6,RE-000,,
-1331343,-1922228,hypsographic,"Piton du Rond Langevin","Piton du Rond Langevin",official,-21.25,55.666667,RE-000,,
-1331502,-1922445,hypsographic,"Pointe à Vincendo","Pointe a Vincendo",variant,-21.38354,55.67124,RE-000,,
-1331297,-1922159,hypsographic,"Pointe Ravine Sèche","Pointe Ravine Seche",variant,-21.049527,55.732012,RE-000,,
-1331431,-1922348,hydrographic,"Bras Sec","Bras Sec",official,-21.34967,55.65297,RE-000,,
-1331022,-1921808,hypsographic,"Les Cascades","Les Cascades",official,-21.183408,55.709224,RE-000,,
-1331111,-1921915,hypsographic,"Brûlé de la Mare Longue","Brule de la Mare Longue",official,-21.354934,55.75361,RE-000,,
-1331090,-1921890,hydrographic,"Ravine de Manapany","Ravine de Manapany",variant,-21.371429,55.584159,RE-000,,
-1331069,-1921868,hypsographic,"Piton Mahé de Labourdonnais","Piton Mahe de Labourdonnais",official,-21.179073,55.589406,RE-000,,
-1331404,-1922311,hypsographic,"Plaine Saint-Louis","Plaine Saint-Louis",official,-21.266667,55.433333,RE-000,,
-1331153,-1921965,settlement,"Mon Caprice","Mon Caprice",official,-21.303716,55.497785,RE-000,,
-1331060,-1921856,settlement,"L’Îlet aux Palmistes","L'Ilet aux Palmistes",variant,-21.335232,55.801641,RE-000,,
-1331158,-1921973,hydrographic,"Bras Montvert","Bras Montvert",official,-21.102418,55.277845,RE-000,,
-1331296,-1922158,settlement,"Ravine Sèche","Ravine Seche",official,-21.243368,55.354746,RE-000,,
-1331092,-1921892,settlement,"Manapany-les Hauts","Manapany-les Hauts",variant,-21.336855,55.577051,RE-000,,
-1331142,-1921953,hydrographic,"Lac des Merles","Lac des Merles",official,-21.05,55.466667,RE-000,,
-1331135,-1921944,hypsographic,Mazarin,Mazarin,variant,-21.072707,55.559096,RE-000,,
-1331441,-1922363,hydrographic,"Ravine la Sourdine","Ravine la Sourdine",official,-21.008007,55.700311,RE-000,,
-1331152,-1921964,hypsographic,"Piton Moka","Piton Moka",official,-21.187261,55.810353,RE-000,,
-1331370,-1922265,hydrographic,"Bras Sainte-Marguerite","Bras Sainte-Marguerite",variant,-21.073299,55.737435,RE-000,,
-1331313,-1922189,hypsographic,"Piton de la Rivière d’Abord","Piton de la Riviere d'Abord",official,-21.216667,55.583333,RE-000,,
-1331459,-1921299,hypsographic,"Piton des Treize Cantons","Piton des Treize Cantons",variant,-21.186643,55.653812,RE-000,,
-1331217,-1922056,settlement,"Petit Sable","Petit Sable",variant,-21.034888,55.535997,RE-000,,
-1331231,-1922077,hydrographic,"Petit Bras Piton","Petit Bras Piton",variant,-21.01607,55.613069,RE-000,,
-1331148,-1921960,hydrographic,"Ravine Mimi","Ravine Mimi",official,-21.166212,55.8325,RE-000,,
-1331184,-1922006,hydrographic,"Bras d’Oussy","Bras d'Oussy",official,-21.021523,55.403716,RE-000,,
-1331032,-1921821,settlement,"Les Orangers","Les Orangers",official,-21.112231,55.75121,RE-000,,
-1331288,-1922148,hypsographic,"Piton Ravine du Piton","Piton Ravine du Piton",official,-21.166667,55.783333,RE-000,,
-1331103,-1921905,hydrographic,"Ravine la Mare","Ravine la Mare",official,-21.233333,55.466667,RE-000,,
-1331372,-1922268,hydrographic,"Bras Sainte-Marie","Bras Sainte-Marie",variant,-20.895475,55.547906,RE-000,,
-1331305,-1922356,hydrographic,"Rivière Sèche","Riviere Seche",variant,-21.254808,55.352676,RE-000,,
-1331134,-1921943,settlement,Matouta,Matouta,official,-21.35873,55.69974,RE-000,,
-1331290,-1922150,settlement,"Ravine du Pont-les Bas","Ravine du Pont-les Bas",official,-21.35,55.566667,RE-000,,
-1331071,-1921866,hypsographic,"Pitons Mahaut","Pitons Mahaut",variant,-21.228135,55.588432,RE-000,,
-1331256,18891785,hypsographic,"Cap du Portail","Cap du Portail",official,-21.227091,55.29263,RE-000,,
-1331236,-1922081,hydrographic,"Ravine Piton","Ravine Piton",variant,-21.147868,55.826369,RE-000,,
-1331237,18897087,hypsographic,"Chaîne du Piton Papangue","Chaine du Piton Papangue",official,-21.061828,55.638281,RE-000,,
-1331021,-1921807,settlement,"Les Canots","Les Canots",official,-21.249674,55.363821,RE-000,,
-1331444,-1922366,settlement,Stella,Stella,official,-21.20201,55.295949,RE-000,,
-1331344,-1922229,hypsographic,"Piton Rose Île","Piton Rose Ile",official,-21.35,55.583333,RE-000,,
-1331269,-1922126,hypsographic,"Pointe de la Ravine à Malheur","Pointe de la Ravine a Malheur",official,-20.911662,55.352734,RE-000,,
-1331108,-1921910,hypsographic,"Piton Mare d’Arzule","Piton Mare d'Arzule",official,-21.337186,55.7646,RE-000,,
-1331050,-1921846,settlement,L’Hermitage,L'Hermitage,variant,-21.357952,55.577108,RE-000,,
-1331502,18874086,hypsographic,"Pointe Marcellin","Pointe Marcellin",official,-21.38354,55.67124,RE-000,,
-1331261,-1922116,hydrographic,"Ravine Premier Bras","Ravine Premier Bras",variant,-20.883251,55.497384,RE-000,,
-1331144,-1921955,hypsographic,"Plaine des Merles","Plaine des Merles",official,-21.166667,55.4,RE-000,,
-1331345,-1922230,hydrographic,"Bras Rouge","Bras Rouge",official,-21.172025,55.44522,RE-000,,
-1331417,-1922330,hypsographic,"Cirque de Salazie","Cirque de Salazie",official,-21.055139,55.486093,RE-000,,
-1331026,-1921812,settlement,"Les Deux Bras","Les Deux Bras",official,-21.001042,55.391333,RE-000,,
-1331384,-1922283,hydrographic,"Canal Saint-Étienne","Canal Saint-Etienne",official,-21.294156,55.439717,RE-000,,
-1331369,-1922264,settlement,Sainte-Clotilde,Sainte-Clotilde,official,-20.904291,55.478264,RE-000,,
-1331191,-1922015,hypsographic,"Piton de Partage","Piton de Partage",official,-21.218794,55.701968,RE-000,,
-1331278,-1922136,hypsographic,"Pointe de la Ravine d’Ango","Pointe de la Ravine d'Ango",variant,-21.349868,55.796705,RE-000,,
-1331481,18891403,hypsographic,"Pointe des Trois-Bassins","Pointe des Trois-Bassins",official,-21.112844,55.253722,RE-000,,
-1331424,-1922340,spot,"Caverne Sapent","Caverne Sapent",official,-20.987373,55.438569,RE-000,,
-1331302,-1922170,settlement,Repuissance,Repuissance,variant,-20.927239,55.60433,RE-000,,
-1331145,-1921956,hydrographic,"Bras Michel","Bras Michel",official,-21.116667,55.633333,RE-000,,
-1331131,-1921940,hydrographic,"Grand Bras Massard","Grand Bras Massard",variant,-21.053821,55.690304,RE-000,,
-1331416,-1922331,settlement,"Salazie Village","Salazie Village",variant,-21.027098,55.539502,RE-000,,
-1331112,-1921916,hypsographic,"Pointe de la Mare Longue","Pointe de la Mare Longue",variant,-21.367192,55.750712,RE-000,,
-1331051,18891139,settlement,"L’Ermitage les Bains","L'Ermitage les Bains",official,-21.081759,55.227801,RE-000,,
-1331336,-1922220,hypsographic,"Piton des Roches","Piton des Roches",official,-21.151765,55.627271,RE-000,,
-1331503,-1922446,hydrographic,"Ravine Vincendo","Ravine Vincendo",official,-21.37701,55.67682,RE-000,,
-1331339,18912097,hypsographic,"Piton des Roches Tendres","Piton des Roches Tendres",official,-21.203552,55.28781,RE-000,,
-1331379,-1922278,hydrographic,"Bras de Sainte Suzanne","Bras de Sainte Suzanne",variant,-21.001692,55.389299,RE-000,,
-1331491,-1922424,settlement,Union,Union,variant,-20.999681,55.67236,RE-000,,
-1331473,-1922406,settlement,Tremblet,Tremblet,variant,-21.304026,55.801199,RE-000,,
-1331074,-1921873,settlement,"Maison de l’Enfance","Maison de l'Enfance",official,-21.207008,55.572201,RE-000,,
-1331430,-1922347,hydrographic,"Bras Sec","Bras Sec",official,-21.184891,55.530617,RE-000,,
-1331131,18912406,hydrographic,"Grand Bras Mussard","Grand Bras Mussard",official,-21.053821,55.690304,RE-000,,
-1331262,-1922118,hypsographic,"Pointe du Quai la Rose","Pointe du Quai la Rose",official,-21.124709,55.793373,RE-000,,
-1331311,-1922183,settlement,Révolution,Revolution,variant,-20.916364,55.557573,RE-000,,
-1331449,-1922374,hypsographic,"Table Point","Table Point",variant,-21.331185,55.808122,RE-000,,
-1330439,-1921082,hydrographic,"Bras d’Amales","Bras d'Amales",official,-21.065853,55.516078,RE-000,,
-1330773,-1921508,hydrographic,"Ravine Goyaves","Ravine Goyaves",official,-21.15,55.466667,RE-000,,
-1330959,-1921732,settlement,"Le Bois de Nèfles","Le Bois de Nefles",variant,-21.108001,55.290701,RE-000,,
-1330987,-1921769,settlement,"Le Guillaume","Le Guillaume",official,-21.037857,55.298934,RE-000,,
-1330444,-1921090,settlement,Anse,Anse,official,-21.338144,55.548205,RE-000,,
-1330497,18889929,settlement,Bel-Air,Bel-Air,official,-20.905322,55.593043,RE-000,,
-1330591,-1921279,hydrographic,"Ravine des Cabrits","Ravine des Cabrits",variant,-21.327202,55.439825,RE-000,,
-1330611,-1921303,hydrographic,"Ruisseau Capot","Ruisseau Capot",official,-20.877862,55.411131,RE-000,,
-1330590,-1921276,hypsographic,"Pointe des Cabris","Pointe des Cabris",official,-21.316667,55.433333,RE-000,,
-1330556,-1921228,hypsographic,"Piton Bonnet de Prêtre","Piton Bonnet de Pretre",official,-21.009403,55.58569,RE-000,,
-1330612,-1921304,hydrographic,"Bras Caprice","Bras Caprice",official,-21.040523,55.632152,RE-000,,
-1330692,-1921408,hypsographic,Dimitile,Dimitile,variant,-21.190887,55.481702,RE-000,,
-1330836,-1921590,hypsographic,"Piton des Hauts","Piton des Hauts",official,-21.266667,55.683333,RE-000,,
-1330983,18891810,hydrographic,"Grand Bras","Grand Bras",official,-21.266303,55.35799,RE-000,,
-1330883,-1921643,settlement,"Jean Petit-les Bas","Jean Petit-les Bas",variant,-21.370454,55.623079,RE-000,,
-1330774,-1921509,hydrographic,"Ravine Goyaves","Ravine Goyaves",official,-21.239086,55.423946,RE-000,,
-1330922,-1921085,hydrographic,"Ravine de l’Angevin","Ravine de l'Angevin",variant,-21.3855,55.644,RE-000,,
-1330730,18893172,hypsographic,"Piton des Feux","Piton des Feux",official,-21.200576,55.650585,RE-000,,
-1330527,-1921190,hypsographic,Bernier,Bernier,official,-20.952183,55.44866,RE-000,,
-1330480,-1921135,hypsographic,"Rempart Basse Vallée","Rempart Basse Vallee",variant,-21.36795,55.699801,RE-000,,
-1330475,-1921125,hydrographic,"Ravine du Baril","Ravine du Baril",official,-21.368508,55.728628,RE-000,,
-1330523,-1921131,hypsographic,"Piton Basse Vallée","Piton Basse Vallee",variant,-21.359312,55.690378,RE-000,,
-1330809,-1921556,settlement,"Grand Fond","Grand Fond",official,-21.19547,55.301811,RE-000,,
-1330956,18874616,settlement,Bésave,Besave,official,-21.361894,55.606849,RE-000,,
-1330498,18891742,settlement,Bel-Air,Bel-Air,official,-21.293153,55.397485,RE-000,,
-1330564,-1921239,hydrographic,"Ravine des Boucs","Ravine des Boucs",official,-21.283333,55.8,RE-000,,
-1330826,-1921579,hypsographic,"Îlet du Gros Galet","Ilet du Gros Galet",official,-21.171588,55.486271,RE-000,,
-1330599,-1921288,hypsographic,"Piton du Calvaire","Piton du Calvaire",official,-21.357585,55.561836,RE-000,,
-1330932,-1921702,settlement,"La Pointe","La Pointe",official,-21.242968,55.492001,RE-000,,
-1330769,-1921758,settlement,"Le Gôl","Le Gol",variant,-21.251507,55.435213,RE-000,,
-1330940,-1921713,settlement,"La Rivière","La Riviere",official,-21.266087,55.440393,RE-000,,
-1330712,-1921431,settlement,Espérance,Esperance,variant,-20.947804,55.516804,RE-000,,
-1330680,-1921394,hydrographic,"Ravine Creuse","Ravine Creuse",official,-20.933333,55.683333,RE-000,,
-1330870,-1921629,hypsographic,"Piton Indivis","Piton Indivis",official,-21.19511,55.806428,RE-000,,
-1330905,-1921670,settlement,"La Goyave","La Goyave",variant,-21.370898,55.617307,RE-000,,
-1331005,-1921789,hydrographic,"Le Petit Saint-François","Le Petit Saint-Francois",official,-21.063835,55.731998,RE-000,,
-1330750,-1921482,settlement,"Franche Terre","Franche Terre",official,-20.903328,55.580537,RE-000,,
-1330900,-1921664,hypsographic,"La Fenêtre","La Fenetre",official,-21.059636,55.532957,RE-000,,
-1330794,-1921536,hypsographic,"Piton Grande Montée","Piton Grande Montee",variant,-21.173114,55.591213,RE-000,,
-1330849,-1921606,hypsographic,"Piton Hyacinthe","Piton Hyacinthe",official,-21.21714,55.538723,RE-000,,
-1330539,-1921205,hypsographic,"Pointe du Bois-Blanc","Pointe du Bois-Blanc",variant,-21.197918,55.824668,RE-000,,
-1330459,-1921106,hypsographic,"Piton d’Aurère","Piton d'Aurere",official,-21,55.416667,RE-000,,
-1330717,18888179,hypsographic,"Puy de l’Étang","Puy de l'Etang",official,-21.09401,55.648639,RE-000,,
-1330789,-1921530,hypsographic,"Piton Grande Chaloupe","Piton Grande Chaloupe",official,-20.955988,55.406895,RE-000,,
-1330860,18891772,settlement,"Peter Both","Peter Both",official,-21.172155,55.461003,RE-000,,
-1330963,-1921737,settlement,"Le Butor","Le Butor",official,-20.887362,55.470722,RE-000,,
-1330607,-1921296,hydrographic,"Bras Canal","Bras Canal",variant,-21.048546,55.708188,RE-000,,
-1330658,-1921362,hydrographic,"Fond de Cocâtre","Fond de Cocatre",official,-21.116667,55.266667,RE-000,,
-1330605,-1921294,settlement,"Camp Jacquot","Camp Jacquot",official,-20.991571,55.677702,RE-000,,
-1330596,-1921284,settlement,Cafrine,Cafrine,variant,-21.351011,55.511263,RE-000,,
-1330977,-1921752,settlement,"Le Cratère","Le Cratere",official,-21.050369,55.683009,RE-000,,
-1330978,18890192,settlement,Délices,Delices,official,-20.935198,55.6316,RE-000,,
-1330453,-1921100,hydrographic,"Ravine Athanase","Ravine Athanase",official,-21.013014,55.295032,RE-000,,
-1330778,18891114,hypsographic,"Le Grand Bénare","Le Grand Benare",official,-21.116614,55.422511,RE-000,,
-1330502,-1921159,hydrographic,"Ruisseau du Bel Air","Ruisseau du Bel Air",variant,-20.883333,55.6,RE-000,,
-1330446,-1921092,settlement,"Anse-les Bas","Anse-les Bas",variant,-21.36391,55.541285,RE-000,,
-1330945,-1921718,settlement,"La Saline-les Bas","La Saline-les Bas",variant,-21.093722,55.239135,RE-000,,
-1330880,-1921640,hydrographic,"Ravine Jean Louis","Ravine Jean Louis",official,-21.2,55.483333,RE-000,,
-1330998,-1921781,hypsographic,L’Éperon,L'Eperon,official,-21.176059,55.52167,RE-000,,
-1330758,-1921490,hydrographic,"Ravine Gaspard","Ravine Gaspard",official,-20.964637,55.362572,RE-000,,
-1330442,-1921087,hypsographic,"Piton d’Ango","Piton d'Ango",variant,-21.32182,55.760003,RE-000,,
-1330748,-1921480,hypsographic,"Volcan de la Fournaise","Volcan de la Fournaise",variant,-21.247411,55.712299,RE-000,,
-1330778,-1921513,hypsographic,"Grand Bénard","Grand Benard",variant,-21.116614,55.422511,RE-000,,
-1330662,-1921372,settlement,"Commune Bègue","Commune Begue",official,-20.953136,55.628294,RE-000,,
-1330853,-1921610,settlement,"Îlet à Malheur","Ilet a Malheur",official,-21.026663,55.428334,RE-000,,
-1330538,-1921204,vegetation,"Foret du Bois Blanc","Foret du Bois Blanc",variant,-21.20659,55.796232,RE-000,,
-1330770,-1921504,hypsographic,"Cap des Gouffres","Cap des Gouffres",variant,-20.882257,55.39557,RE-000,,
-1330852,-1921609,settlement,"Îlet à Guillaume","Ilet a Guillaume",official,-20.94941,55.411468,RE-000,,
-1330753,-1921485,hypsographic,"Piton Gabou","Piton Gabou",official,-21.035647,55.516191,RE-000,,
-1331009,-1921793,settlement,"Le Port","Le Port",official,-20.937522,55.294151,RE-000,,
-1330435,-1921078,hypsographic,"Plaine d’Affouches","Plaine d'Affouches",official,-20.971695,55.410283,RE-000,,
-1330584,-1921268,hypsographic,"Pointe du Brûlé de Baril","Pointe du Brule de Baril",variant,-21.37501,55.710821,RE-000,,
-1330970,-1921745,settlement,"Le Cazabois","Le Cazabois",variant,-21.037866,55.464373,RE-000,,
-1330722,-1921443,hydrographic,"Bras des Étangs","Bras des Etangs",official,-21.128726,55.456581,RE-000,,
-1330607,-1921298,hydrographic,"Bras Canot","Bras Canot",official,-21.048546,55.708188,RE-000,,
-1330521,-1921182,settlement,"Bérive-les Bas","Berive-les Bas",variant,-21.317193,55.528357,RE-000,,
-1330731,-1921455,settlement,Fiague,Fiague,official,-21.25,55.433333,RE-000,,
-1330931,18887607,settlement,"La Plaine-des-Palmistes","La Plaine-des-Palmistes",official,-21.134255,55.628193,RE-000,,
-1330594,-1921282,hydrographic,"Ravine des Cafres","Ravine des Cafres",official,-21.277551,55.383281,RE-000,,
-1330550,-1922248,hydrographic,"Etang de Saint André","Etang de Saint Andre",variant,-20.917401,55.649104,RE-000,,
-1330689,-1921405,settlement,Desbassyns,Desbassyns,official,-20.91733,55.509339,RE-000,,
-1330829,-1921583,hypsographic,"Piton Gueule Ronde","Piton Gueule Ronde",official,-21.300306,55.736834,RE-000,,
-1331009,-1921701,settlement,"La Point-aux-galets","La Point-aux-galets",variant,-20.937522,55.294151,RE-000,,
-1330473,18873829,settlement,"Le Baril","Le Baril",official,-21.367942,55.727789,RE-000,,
-1330763,-1921495,settlement,Gillot,Gillot,official,-20.903809,55.507675,RE-000,,
-1330536,18874286,settlement,"Bois Blanc","Bois Blanc",official,-21.198421,55.819523,RE-000,,
-1330494,-1921150,hypsographic,"Piton de Bebour","Piton de Bebour",variant,-21.127948,55.561952,RE-000,,
-1330576,-1921256,settlement,"Bras Magdeleine","Bras Magdeleine",variant,-21.056649,55.697633,RE-000,,
-1330475,-1921126,hydrographic,"Rivière du Baril","Riviere du Baril",variant,-21.368508,55.728628,RE-000,,
-1330881,18875250,hydrographic,"Ravine Jean Payet","Ravine Jean Payet",official,-21.300699,55.510832,RE-000,,
-1330622,-1921314,hypsographic,"Pointe des Cascades","Pointe des Cascades",official,-21.18276,55.836226,RE-000,,
-1330667,-1921377,hypsographic,"Piton Constantin","Piton Constantin",official,-21.166667,55.783333,RE-000,,
-1330847,-1921604,hypsographic,"Cap la Houssaye","Cap la Houssaye",official,-21.019137,55.235496,RE-000,,
-1330649,-1921348,hypsographic,"Cratère Chisny","Cratere Chisny",variant,-21.238825,55.666069,RE-000,,
-1330515,-1921174,hydrographic,"Bras Bénamal","Bras Benamal",official,-21.016667,55.4,RE-000,,
-1330544,-1921210,settlement,"Bois de Nèfles","Bois de Nefles",official,-20.916914,55.47491,RE-000,,
-1330696,-1921412,park,Dominique,Dominique,official,-21.116667,55.766667,RE-000,,
-1330497,-1921153,settlement,"Bel Air","Bel Air",variant,-20.905322,55.593043,RE-000,,
-1330912,-1921677,settlement,"La Mare","La Mare",official,-20.897804,55.532637,RE-000,,
-1330792,-1921534,hydrographic,"Grande Mare","Grande Mare",official,-21.05481,55.555283,RE-000,,
-1330672,18874283,hypsographic,"Nez Coupé de Sainte-Rose","Nez Coupe de Sainte-Rose",official,-21.207088,55.72378,RE-000,,
-1330436,-1921079,hypsographic,"Piton des Aigrettes","Piton des Aigrettes",official,-21.037456,55.231753,RE-000,,
-1330451,18888075,hypsographic,"Piton de Sainte-Anne","Piton de Sainte-Anne",variant,-21.109426,55.705619,RE-000,,
-1330579,-1921260,hydrographic,"Ravine du Bras Panon","Ravine du Bras Panon",variant,-21.002874,55.675003,RE-000,,
-1330732,-1921457,hydrographic,"Ravine des Figues","Ravine des Figues",official,-20.891157,55.534666,RE-000,,
-1330449,-1921095,hydrographic,"Bras d’Antoine","Bras d'Antoine",official,-21.295128,55.463404,RE-000,,
-1330720,-1921501,hydrographic,"Ravine du Gôl","Ravine du Gol",variant,-21.279357,55.407673,RE-000,,
-1330705,-1921421,hydrographic,"Fond de l’Élibat","Fond de l'Elibat",official,-20.866667,55.533333,RE-000,,
-1330673,-1921385,hypsographic,"Nez Coupé du Tremblet","Nez Coupe du Tremblet",official,-21.282294,55.739943,RE-000,,
-1330476,-1921127,hypsographic,"Piton Barolet","Piton Barolet",official,-21.184535,55.601339,RE-000,,
-1330449,-1921097,hydrographic,"Ravine Antoine","Ravine Antoine",variant,-21.295128,55.463404,RE-000,,
-1330846,-1921602,hypsographic,"Pointe des Homards","Pointe des Homards",variant,-21.032712,55.221937,RE-000,,
-1330719,18912101,hydrographic,"Ravine du Grand Étang","Ravine du Grand Etang",official,-21.169563,55.286409,RE-000,,
-1330899,-1921663,settlement,"La Découverte","La Decouverte",official,-20.900495,55.548579,RE-000,,
-1330856,-1921614,settlement,"Îlet Denise","Ilet Denise",official,-20.978694,55.363287,RE-000,,
-1330720,-1921441,hydrographic,"Ravine de l’Étang du Gôl","Ravine de l'Etang du Gol",official,-21.279357,55.407673,RE-000,,
-1330659,-1921365,hydrographic,"Ravine du Colimacon","Ravine du Colimacon",variant,-21.153265,55.28181,RE-000,,
-1330608,-1921300,hydrographic,"Ravine du Cap","Ravine du Cap",official,-21.184682,55.287137,RE-000,,
-1330813,18904070,hypsographic,"Roche Merveilleuse","Roche Merveilleuse",official,-21.122529,55.475063,RE-000,,
-1330516,-1921175,hypsographic,"Piton du Bénard","Piton du Benard",official,-21.083333,55.4,RE-000,,
-1330743,-1921473,hydrographic,"Ravine la Fontaine","Ravine la Fontaine",variant,-21.163167,55.287606,RE-000,,
-1330743,-1921471,hydrographic,"Ravine Fontaine","Ravine Fontaine",variant,-21.163167,55.287606,RE-000,,
-1330621,18875455,hypsographic,"Gros Piton","Gros Piton",official,-21.179283,55.829128,RE-000,,
-1330982,-1921757,settlement,"Le Fond de Maurice","Le Fond de Maurice",variant,-21.248914,55.350405,RE-000,,
-1330541,18874494,hydrographic,"Ravine de Bois Blanc","Ravine de Bois Blanc",official,-21.196597,55.824303,RE-000,,
-1330755,-1921487,hypsographic,"Pointe des Galets","Pointe des Galets",official,-20.923551,55.289239,RE-000,,
-1331000,-1921783,settlement,L’Éperon,L'Eperon,official,-21.247147,55.412909,RE-000,,
-1330571,-1921250,settlement,"Bras Canot","Bras Canot",official,-21.050055,55.701899,RE-000,,
-1330641,-1921340,hydrographic,"Ravine la Chauve Souris","Ravine la Chauve Souris",official,-21.120448,55.261232,RE-000,,
-1330467,-1921116,hypsographic,"Pointe des Bambous","Pointe des Bambous",official,-21.178252,55.83421,RE-000,,
-1330790,-1921529,hydrographic,"Grande Chaloupe","Grande Chaloupe",variant,-20.896082,55.375596,RE-000,,
-1330994,-1921777,settlement,"Le Ouaki","Le Ouaki",official,-21.274965,55.449102,RE-000,,
-1330595,-1921283,hydrographic,"Ravine des Cafres","Ravine des Cafres",official,-21.353409,55.506863,RE-000,,
-1330934,-1922111,settlement,Possession,Possession,variant,-20.929094,55.334802,RE-000,,
-1331004,-1921788,hydrographic,"Le Petit Maniron","Le Petit Maniron",official,-21.25,55.383333,RE-000,,
-1330952,-1922427,settlement,"Vallée Orré","Vallee Orre",variant,-21.303265,55.458502,RE-000,,
-1330486,-1921140,hydrographic,"Bras Bayonne","Bras Bayonne",official,-21.150773,55.591997,RE-000,,
-1330617,-1921309,park,"Carreau Morin","Carreau Morin",official,-20.997624,55.644647,RE-000,,
-1330447,18874609,settlement,"Anse les Hauts","Anse les Hauts",official,-21.337178,55.549387,RE-000,,
-1330495,-1921151,settlement,"Bé Cabot","Be Cabot",variant,-21.015518,55.505574,RE-000,,
-1330451,-1922258,hypsographic,"Morne Sainte Anne","Morne Sainte Anne",variant,-21.109426,55.705619,RE-000,,
-1330919,18875670,hypsographic,"Morne Langevin","Morne Langevin",official,-21.257862,55.657115,RE-000,,
-1330893,-1921655,settlement,"La Crête","La Crete",official,-21.335002,55.654949,RE-000,,
-1330650,-1921350,settlement,Cilaos,Cilaos,official,-21.136412,55.471871,RE-000,,
-1330665,-1921375,settlement,Confiance,Confiance,variant,-21.067377,55.702773,RE-000,,
-1330550,18889868,hydrographic,"Étang de Bois Rouge","Etang de Bois Rouge",official,-20.917401,55.649104,RE-000,,
-1330975,-1921750,settlement,"Le Colosse","Le Colosse",official,-20.935871,55.672385,RE-000,,
-1330437,18891089,hypsographic,"Cap des Aigrettes","Cap des Aigrettes",variant,-21.038144,55.217713,RE-000,,
-1330745,-1921475,hypsographic,"Plaine des Fougères","Plaine des Fougeres",official,-20.990495,55.520236,RE-000,,
-1330839,18889342,settlement,"Hell Bourg","Hell Bourg",official,-21.064933,55.519544,RE-000,,
-1330884,-1921646,hypsographic,Kerval,Kerval,variant,-21.097624,55.441476,RE-000,,
-1330447,-1921093,settlement,"Anse-les Hauts","Anse-les Hauts",variant,-21.337178,55.549387,RE-000,,
-1330952,-1921725,settlement,"La Vallée","La Vallee",official,-21.303265,55.458502,RE-000,,
-1330817,-1921568,hypsographic,"Piton du Grand Sable","Piton du Grand Sable",variant,-21.057687,55.473033,RE-000,,
-1330973,-1921748,hydrographic,"Bras Leclerc","Bras Leclerc",official,-21.298539,55.525796,RE-000,,
-1330750,-1922360,settlement,Semaines,Semaines,variant,-20.903328,55.580537,RE-000,,
-1330922,-1921690,hydrographic,"Rivière Langevin","Riviere Langevin",official,-21.3855,55.644,RE-000,,
-1330570,18889344,hydrographic,"Sources du Bras Cabot","Sources du Bras Cabot",official,-21.103742,55.598927,RE-000,,
-1330819,-1921570,settlement,"Grands Bois","Grands Bois",official,-21.359281,55.525573,RE-000,,
-1330921,-1921689,hypsographic,"Pointe de Langevin","Pointe de Langevin",official,-21.388248,55.646481,RE-000,,
-1330821,-1921572,park,"Grand Tampon","Grand Tampon",official,-21.285472,55.558709,RE-000,,
-1330683,-1921397,hydrographic,"Ravine Dalleau","Ravine Dalleau",official,-21.283333,55.8,RE-000,,
-1330778,-1921176,hypsographic,Bénards,Benards,variant,-21.116614,55.422511,RE-000,,
-1330626,-1921319,hydrographic,"Grand Bras de Caverne","Grand Bras de Caverne",variant,-21.00182,55.584335,RE-000,,
-1330541,-1921207,hydrographic,"Ravine du Bois-Blanc","Ravine du Bois-Blanc",variant,-21.196597,55.824303,RE-000,,
-1330499,18874610,settlement,Bel-Air,Bel-Air,official,-21.287695,55.512189,RE-000,,
-1330577,-1921257,settlement,Bras-Panon,Bras-Panon,official,-20.996674,55.678233,RE-000,,
-1330748,-1921478,hypsographic,Fournaise,Fournaise,variant,-21.247411,55.712299,RE-000,,
-1330615,-1921307,hydrographic,"Ravine Carosse","Ravine Carosse",official,-21.37758,55.597899,RE-000,,
-1330882,-1921642,settlement,"Jean Petit","Jean Petit",official,-21.338604,55.629029,RE-000,,
-1330914,-1921680,hypsographic,"La Marianne","La Marianne",official,-20.883333,55.6,RE-000,,
-1330669,18889933,settlement,"La Convenance","La Convenance",official,-20.894777,55.565224,RE-000,,
-1330909,-1921674,hydrographic,"Ravine Lahémol","Ravine Lahemol",official,-21.1,55.25,RE-000,,
-1330674,-1921386,hydrographic,"Bras Court","Bras Court",official,-21.216667,55.45,RE-000,,
-1330983,-1922355,hydrographic,"Ravine Sèche","Ravine Seche",variant,-21.266303,55.35799,RE-000,,
-1330455,18875534,settlement,"Îlet Aurélien Dijoux","Ilet Aurelien Dijoux",official,-21.207387,55.513518,RE-000,,
-1330501,18890214,hypsographic,"Pointe de Bel-Air","Pointe de Bel-Air",official,-20.899768,55.60025,RE-000,,
-1330587,18890570,hydrographic,"Ravine du Butor","Ravine du Butor",official,-20.89095,55.460743,RE-000,,
-1330589,-1921275,hypsographic,"Piton des Cabris","Piton des Cabris",official,-21.156416,55.650657,RE-000,,
-1330637,-1921333,hypsographic,"Piton Charpentier","Piton Charpentier",official,-20.972098,55.55065,RE-000,,
-1330800,-1921545,hydrographic,"Grande Ravine","Grande Ravine",official,-20.879935,55.404906,RE-000,,
-1330433,-1921075,hydrographic,"Rivière d’Abord","Riviere d'Abord",official,-21.343936,55.478678,RE-000,,
-1330488,-1921143,settlement,Beaufonds,Beaufonds,official,-21.046567,55.721343,RE-000,,
-1330483,-1921137,settlement,"Bassin Martin","Bassin Martin",official,-21.307134,55.518219,RE-000,,
-1330443,-1921088,hydrographic,"Ravine d’Ango","Ravine d'Ango",variant,-21.350982,55.794124,RE-000,,
-1330692,18891738,hypsographic,"Le Dimitile","Le Dimitile",official,-21.190887,55.481702,RE-000,,
-1330901,-1921665,settlement,"La Fontaine","La Fontaine",official,-21.157076,55.304254,RE-000,,
-1330532,-1921195,hydrographic,"Ravine Blanche","Ravine Blanche",official,-21.006222,55.583311,RE-000,,
-1330917,-1921968,settlement,Montagne,Montagne,variant,-20.888773,55.422672,RE-000,,
-1330725,-1921446,settlement,"Étang-Salé les Bains","Etang-Sale les Bains",variant,-21.270524,55.336332,RE-000,,
-1330818,-1921569,hydrographic,"Ravine Grand Sable","Ravine Grand Sable",official,-21.061126,55.471803,RE-000,,
-1330950,-1921723,hydrographic,"Bras Laurent","Bras Laurent",official,-20.981715,55.562331,RE-000,,
-1330858,-1921616,settlement,"Îlet de Roche Plate","Ilet de Roche Plate",variant,-21.248098,55.615494,RE-000,,
-1330858,-1922219,settlement,"Roche Plate","Roche Plate",official,-21.248098,55.615494,RE-000,,
-1330682,-1921396,hydrographic,"Ravine du Creux Saint-Paul","Ravine du Creux Saint-Paul",official,-20.983333,55.283333,RE-000,,
-1330895,-1921657,hydrographic,"Bras de Lacroix","Bras de Lacroix",official,-21.15,55.816667,RE-000,,
-1330661,-1921371,settlement,"Commune Ango","Commune Ango",official,-20.943489,55.619066,RE-000,,
-1330782,-1921564,hypsographic,"Grand Pays Brule","Grand Pays Brule",variant,-21.255777,55.78174,RE-000,,
-1330550,-1921219,hydrographic,"Étang du Bois-Rouge","Etang du Bois-Rouge",variant,-20.917401,55.649104,RE-000,,
-1330636,-1921332,hydrographic,"Bras Chansons","Bras Chansons",official,-21.066667,55.616667,RE-000,,
-1330669,-1921379,settlement,Convenance,Convenance,variant,-20.894777,55.565224,RE-000,,
-1330983,-1922184,hydrographic,"Ravine Rhénone","Ravine Rhenone",variant,-21.266303,55.35799,RE-000,,
-1330714,-1921433,hydrographic,"Rivière de l’Est","Riviere de l'Est",official,-21.104594,55.768898,RE-000,,
-1330706,-1921423,hypsographic,"Piton d’Enchein","Piton d'Enchein",variant,-21.045577,55.500772,RE-000,,
-1330524,18891404,hydrographic,"Ravine Bernica","Ravine Bernica",official,-21.016218,55.273601,RE-000,,
-1330738,-1921463,hydrographic,"Bras des Fleurs Jaunes","Bras des Fleurs Jaunes",variant,-21.015072,55.551391,RE-000,,
-1330960,-1921734,settlement,"Le Bras Creux","Le Bras Creux",official,-21.140709,55.611808,RE-000,,
-1330511,-1922226,hypsographic,"Piton Rond","Piton Rond",variant,-21.151478,55.824798,RE-000,,
-1330520,-1921181,settlement,Bérive,Berive,official,-21.307262,55.537022,RE-000,,
-1330702,-1921418,hydrographic,"Grand Fond Dussac","Grand Fond Dussac",official,-21.185225,55.297233,RE-000,,
-1330566,-1921241,hypsographic,"Pointe du Bourbier","Pointe du Bourbier",official,-21.019486,55.704531,RE-000,,
-1330999,-1921430,settlement,Éperon,Eperon,variant,-21.042665,55.254651,RE-000,,
-1330618,-1921310,settlement,Casabona,Casabona,official,-21.334702,55.46714,RE-000,,
-1330994,-1921844,settlement,"Le Waki","Le Waki",variant,-21.274965,55.449102,RE-000,,
-1330632,-1921327,hypsographic,"Cap Champagne","Cap Champagne",variant,-21.027022,55.226253,RE-000,,
-1330865,-1921624,settlement,"Îlet Payet","Ilet Payet",official,-21.003672,55.603368,RE-000,,
-1330876,-1921636,hypsographic,"Roche à Jacquot","Roche a Jacquot",official,-21.016889,55.46803,RE-000,,
-1330501,-1921157,hypsographic,"Pointe de Bel Air","Pointe de Bel Air",variant,-20.899768,55.60025,RE-000,,
-1330630,-1921324,hydrographic,"Ravine la Chaloupe","Ravine la Chaloupe",variant,-21.15939,55.286019,RE-000,,
-1330672,-1921384,hypsographic,"Nez Coupé","Nez Coupe",variant,-21.207088,55.72378,RE-000,,
-1330709,-1921990,settlement,Noël,Noel,variant,-21.227533,55.331755,RE-000,,
-1330478,-1921129,settlement,"Basse Vallée","Basse Vallee",official,-21.371163,55.711677,RE-000,,
-1330659,-1921368,hydrographic,"Ravine des Colimaçons","Ravine des Colimacons",official,-21.153265,55.28181,RE-000,,
-1330445,-1921091,hydrographic,"Ravine de l’Anse","Ravine de l'Anse",official,-21.362714,55.537132,RE-000,,
