wgdPlaceId,wgdId,type,name,fullName,nameType,latitude,longitude,administrationGroup,isHistorical,isCapital
-1143181,-1685212,settlement,Tuba,Tuba,official,15.85,-89.133333,GT-18,,
14073081,18102758,settlement,Anona,Anona,official,15.745723,-91.489196,GT-13,,
13994834,17970601,settlement,Pujná,Pujna,official,15.751599,-91.209122,GT-13,,
14977054,19739648,settlement,Belén,Belen,official,15.907594,-90.153592,GT-16,,
14688691,19142645,settlement,Sinaí,Sinai,official,14.953116,-91.673143,GT-12,,
14767204,19301099,settlement,Lapuc,Lapuc,official,15.311726,-90.769015,GT-14,,
14701183,19171291,settlement,Pacol,Pacol,official,14.992878,-91.431324,GT-08,,
14814514,19399562,settlement,Xejú,Xeju,official,15.590513,-90.113471,GT-16,,
14782820,19334075,settlement,Oxá,Oxa,official,14.836665,-89.359312,GT-20,,
14818943,19409880,settlement,Ostua,Ostua,official,15.558987,-90.349195,GT-16,,
14707922,19187440,settlement,Pumá,Puma,official,14.579236,-91.466554,GT-10,,
14735437,19241598,settlement,Ocaña,Ocana,official,14.723702,-90.690612,GT-01,,
14766181,19299654,settlement,Papay,Papay,official,15.079332,-90.46395,GT-15,,
-1707964,-2398099,settlement,Victoria,Victoria,official,14.9,-92.133333,GT-12,,
-1706432,17786949,hydrographic,"Laguna el Toro","Laguna el Toro",official,17.828909,-90.777197,S1-000,,
-1706432,-4851849,hydrographic,"Laguna El Toro","Laguna El Toro",official,17.828909,-90.777197,S1-000,,
-1703321,-4851863,hypsographic,"Sierra Madre","Sierra Madre",official,15.5,-92.583333,S1-000,,
-1703777,-2391968,hypsographic,"Volcán Tacaná","Volcan Tacana",official,15.132396,-92.108855,S1-000,,
-1703321,-2331084,hypsographic,"Cordillera de Chiapas","Cordillera de Chiapas",variant,15.5,-92.583333,S1-000,,
-1703321,17587082,hypsographic,"Madre de Chiapas","Madre de Chiapas",official,15.5,-92.583333,S1-000,,
-1703777,18324688,hypsographic,Tacaná,Tacana,official,15.132396,-92.108855,S1-000,,
-1703321,-2391262,hypsographic,"Sierra de Soconusco","Sierra de Soconusco",variant,15.5,-92.583333,S1-000,,
-1703777,-2391999,hypsographic,"Volcán Tacina","Volcan Tacina",variant,15.132396,-92.108855,S1-000,,
-1703321,-2362027,hypsographic,"Sierra Madre de Chiapas","Sierra Madre de Chiapas",variant,15.5,-92.583333,S1-000,,
-1703321,-2349670,hypsographic,"Sierra de Istatán","Sierra de Istatan",variant,15.5,-92.583333,S1-000,,
-1699762,17781985,hydrographic,"Arroyo San Pedro","Arroyo San Pedro",variant,17.760178,-91.424387,S1-000,,
-1699762,-2386630,hydrographic,"Río San Pedro","Rio San Pedro",official,17.760178,-91.424387,S1-000,,
-1699762,-2386580,hydrographic,"San Pedro","San Pedro",official,17.760178,-91.424387,S1-000,,
-1699762,-2386759,hydrographic,"Río San Pedro Mártir","Rio San Pedro Martir",variant,17.760178,-91.424387,S1-000,,
-1696854,-2382945,settlement,"San Isidro","San Isidro",official,14.883333,-92.133333,GT-12,,
-1695001,-2380629,settlement,"San Antonio","San Antonio",official,14.883333,-92.133333,GT-12,,
-1693638,-2378695,hydrographic,"Laguna el Repastito","Laguna el Repastito",variant,17.25069,-91.13086,S1-000,,
-1693638,-4851848,hydrographic,"Laguna el Repastito","Laguna el Repastito",official,17.25069,-91.13086,S1-000,,
-1689170,-2371980,hydrographic,"Río Pojom","Rio Pojom",variant,16.080144,-91.441228,S1-000,,
-1689170,-2371981,hydrographic,"Río Pojom","Rio Pojom",variant,16.080144,-91.441228,S1-000,,
-1689170,15127919,hydrographic,Pojom,Pojom,official,16.080144,-91.441228,S1-000,,
-1689170,15760793,hydrographic,"Río Seco","Rio Seco",official,16.080144,-91.441228,S1-000,,
-1686587,18395125,hydrographic,"El Pais Ban","El Pais Ban",official,17.819211,-90.118824,S1-000,,
-1686587,15199108,hydrographic,"Laguna el Pais Ban","Laguna el Pais Ban",variant,17.819211,-90.118824,S1-000,,
-1686587,15830902,hydrographic,"Laguna el Paisbán","Laguna el Paisban",official,17.819211,-90.118824,S1-000,,
-1671512,15127451,hydrographic,Ixcán,Ixcan,official,16.12339,-91.083085,S1-000,,
-1671512,-2349708,hydrographic,"Río Ixcán","Rio Ixcan",variant,16.12339,-91.083085,S1-000,,
-1670641,-2348408,hydrographic,"Río Hoja Blanca","Rio Hoja Blanca",variant,15.556805,-92.079688,S1-000,,
-1671512,-2349709,hydrographic,"Río Ixcán","Rio Ixcan",official,16.12339,-91.083085,S1-000,,
-1670641,15175830,hydrographic,"Hoja Blanca","Hoja Blanca",official,15.556805,-92.079688,S1-000,,
-1664665,-2365235,settlement,Moral,Moral,variant,14.866667,-92.15,GT-12,,
-1664665,-2340980,settlement,"El Moral","El Moral",official,14.866667,-92.15,GT-12,,
-1658199,-2320448,hydrographic,"Río Achute","Rio Achute",variant,14.799655,-92.507059,S1-000,,
-1658199,17580926,hydrographic,Coatán,Coatan,official,14.799655,-92.507059,S1-000,,
-1658199,-2332913,hydrographic,"Río Coatán","Rio Coatan",variant,14.799655,-92.507059,S1-000,,
-1658199,-2333967,hydrographic,"Río Comitan","Rio Comitan",variant,14.799655,-92.507059,S1-000,,
-1658199,-2332914,hydrographic,"Río Coatán","Rio Coatan",official,14.799655,-92.507059,S1-000,,
-1656548,-2391803,hydrographic,"Río Sulas","Rio Sulas",variant,16.099547,-90.958771,S1-000,,
-1656548,-2330506,hydrographic,"Río Xaclbal","Rio Xaclbal",variant,16.099547,-90.958771,S1-000,,
-1656548,-2398721,hydrographic,"Río Xacbal","Rio Xacbal",variant,16.099547,-90.958771,S1-000,,
-1655043,17787117,hydrographic,"Río Candelaria","Rio Candelaria",official,18.610083,-91.245946,S1-000,,
-1656548,-2381492,hydrographic,"Rio San Blas","Rio San Blas",variant,16.099547,-90.958771,S1-000,,
-1655043,-2328478,hydrographic,"Rio Candelarraa","Rio Candelarraa",variant,18.610083,-91.245946,S1-000,,
-1656548,-2398741,hydrographic,"Río Xalbal","Rio Xalbal",official,16.099547,-90.958771,S1-000,,
-1655043,-2386632,hydrographic,"Río San Pedro","Rio San Pedro",variant,18.610083,-91.245946,S1-000,,
-1655043,14929205,hydrographic,Candelaria,Candelaria,official,18.610083,-91.245946,S1-000,,
-1656548,-2330505,hydrographic,"Río Chajul","Rio Chajul",official,16.099547,-90.958771,S1-000,,
-1655043,-2328464,hydrographic,"Río Candelaria","Rio Candelaria",variant,18.610083,-91.245946,S1-000,,
-1651967,-2348449,hydrographic,"Río Hondo","Rio Hondo",variant,17.909256,-88.85418,S1-000,,
-1651967,-2388817,hydrographic,"Río Santa María","Rio Santa Maria",variant,17.909256,-88.85418,S1-000,,
-1651967,-2324352,hydrographic,"Blue Creek","Blue Creek",official,17.909256,-88.85418,S1-000,,
-1651967,-2324343,hydrographic,"Arroyo Azul","Arroyo Azul",variant,17.909256,-88.85418,S1-000,,
-1651967,-2325954,hydrographic,"Blue River","Blue River",variant,17.909256,-88.85418,S1-000,,
-1651967,-2324191,hydrographic,"Axal Creek","Axal Creek",variant,17.909256,-88.85418,S1-000,,
-1651967,-2324350,hydrographic,"Río Azul","Rio Azul",official,17.909256,-88.85418,S1-000,,
-1150357,-1696081,hydrographic,"Sarstoon River","Sarstoon River",official,15.898475,-88.91444,S1-000,,
-1150033,-1695695,hydrographic,"Poite River","Poite River",official,16.114615,-89.176568,S1-000,,
-1149711,-1695284,hydrographic,"Río Machaquilá","Rio Machaquila",official,16.246712,-89.952564,S1-000,,
-1148722,-1694024,settlement,Arenal,Arenal,variant,17.023507,-89.152516,S1-000,,
-1150357,-1696083,hydrographic,"Rio Sarstum","Rio Sarstum",variant,15.898475,-88.91444,S1-000,,
-1149762,-1695343,hypsographic,"Maya Mountains","Maya Mountains",official,16.637294,-88.800067,S1-000,,
-1150077,505107,hydrographic,Pusila,Pusila,variant,16.114051,-89.175749,S1-000,,
-1150033,-1695696,hydrographic,"Río Blanco","Rio Blanco",official,16.114615,-89.176568,S1-000,,
-1149762,-1695344,hypsographic,"Montañas Maya","Montanas Maya",variant,16.637294,-88.800067,S1-000,,
-1150033,505108,hydrographic,Poite,Poite,variant,16.114615,-89.176568,S1-000,,
-1150077,-1695757,hydrographic,Pusilha,Pusilha,variant,16.114051,-89.175749,S1-000,,
-1149762,-1695346,hypsographic,"Montañas Mayas","Montanas Mayas",official,16.637294,-88.800067,S1-000,,
-1150357,-1696082,hydrographic,"Río Sarstún","Rio Sarstun",official,15.898475,-88.91444,S1-000,,
-1150372,-1696104,hydrographic,"Savery Branch","Savery Branch",variant,15.902879,-89.19657,S1-000,,
-1150372,-1696105,hydrographic,"Río San Pedro","Rio San Pedro",official,15.902879,-89.19657,S1-000,,
-1149711,-1695283,hydrographic,"Rio Machiquila","Rio Machiquila",short,16.246712,-89.952564,S1-000,,
-1150077,-1696120,hydrographic,"Río Sepusilhá","Rio Sepusilha",variant,16.114051,-89.175749,S1-000,,
-1150357,-1696080,hydrographic,"Río Sarstoon","Rio Sarstoon",variant,15.898475,-88.91444,S1-000,,
-1148722,-1694776,settlement,"El Arenal","El Arenal",official,17.023507,-89.152516,S1-000,,
-1149762,-1694526,hypsographic,"Montañas de Cockscomb","Montanas de Cockscomb",variant,16.637294,-88.800067,S1-000,,
-1150357,20082474,hydrographic,Sarstoon,Sarstoon,official,15.898475,-88.91444,S1-000,,
-1150077,-1695755,hydrographic,"Río Pusilá","Rio Pusila",official,16.114051,-89.175749,S1-000,,
-1149762,-1694534,hypsographic,"Cockscomb Mountains","Cockscomb Mountains",variant,16.637294,-88.800067,S1-000,,
-1150077,-1695754,hydrographic,"Pusila River","Pusila River",official,16.114051,-89.175749,S1-000,,
-1149762,-1694537,hypsographic,"Cockscomb Range","Cockscomb Range",variant,16.637294,-88.800067,S1-000,,
-1143539,-1685668,settlement,Xacaxá,Xacaxa,official,14.816667,-90.983333,GT-04,,
-1139501,-1680506,settlement,Pal,Pal,official,15.517081,-90.931811,GT-14,,
-1134410,-1674339,settlement,"El Jobito","El Jobito",official,14,-90.4,GT-06,,
-1136229,-1676652,settlement,Joya,Joya,variant,14.807313,-89.979859,GT-02,,
-1139195,-1680116,settlement,Nochán,Nochan,official,14.666667,-89.383333,GT-20,,
-1132703,-1672232,park,Chicoc,Chicoc,official,15.466667,-90.15,GT-16,,
-1132094,-1671402,settlement,Calel,Calel,official,15.092456,-91.567835,GT-09,,
-1147316,-1691844,hydrographic,"Río Paz","Rio Paz",official,13.773141,-90.186341,GT-000,,
-1138812,-1679619,park,Minas,Minas,official,15.666667,-91.616667,GT-13,,
-1136042,-1676436,settlement,Ixloc,Ixloc,official,15.832307,-90.753351,GT-16,,
-1143634,-1685791,settlement,Xeputul,Xeputul,official,15.45,-91.05,GT-14,,
-1137095,-1677658,settlement,"La Paz","La Paz",official,14.587529,-91.834294,GT-09,,
-1135995,-1676366,park,Italia,Italia,official,16.566667,-90.616667,GT-17,,
-1137054,-1677613,settlement,"La Paja","La Paja",official,14.066667,-89.966667,GT-22,,
-1143633,205912,settlement,Xepón,Xepon,official,15.193812,-91.369316,GT-08,,
-1137142,-1681256,settlement,Pipa,Pipa,variant,14.45,-90.65,GT-05,,
-1140686,-1682065,settlement,Sacalá,Sacala,official,14.75,-91.25,GT-07,,
-1145811,-1689475,hydrographic,"Lake Guija","Lake Guija",variant,14.256649,-89.535331,S1-000,,
-1145811,-1689473,hydrographic,"Lago de Güija","Lago de Guija",official,14.256649,-89.535331,S1-000,,
-1145811,-1689474,hydrographic,"Laguna de Güija","Laguna de Guija",variant,14.256649,-89.535331,S1-000,,
-1146050,-1689961,hypsographic,"Cerro Junquillo","Cerro Junquillo",official,14.335564,-89.590234,S1-000,,
-1146050,-1689962,hypsographic,"Cerro El Junquillo","Cerro El Junquillo",official,14.335564,-89.590234,S1-000,,
-1145745,-1689344,hydrographic,"Zanjón del Guacuco","Zanjon del Guacuco",official,14.356077,-89.564302,S1-000,,
-1145790,-1689429,hydrographic,"Quebrada Guayabillas","Quebrada Guayabillas",variant,14.385444,-89.53653,S1-000,,
-1145745,-1689343,hydrographic,"Quebrada Guacuco","Quebrada Guacuco",official,14.356077,-89.564302,S1-000,,
-1145790,-1689430,hydrographic,"Quebrada de Guayabillas","Quebrada de Guayabillas",official,14.385444,-89.53653,S1-000,,
-1145811,-1689471,hydrographic,"Lago Güija","Lago Guija",variant,14.256649,-89.535331,S1-000,,
-1143201,-1685234,settlement,Tuipic,Tuipic,official,14.80542,-91.670648,GT-09,,
-1143883,-1686133,settlement,Zunil,Zunil,official,14.78463,-91.483446,GT-09,,
-1143373,-1685457,settlement,Valencia,Valencia,official,14.410103,-89.970502,GT-22,,
-1143721,-1685898,settlement,Yalambojoch,Yalambojoch,official,15.979822,-91.571651,GT-13,,
-1143063,-1685048,settlement,Tituque,Tituque,official,14.711268,-89.359774,GT-20,,
-1143128,-1685129,hydrographic,"Río de Toquelá","Rio de Toquela",official,15.810943,-89.029736,GT-18,,
-1143027,-1684871,settlement,Temax,Temax,variant,16.01203,-89.249342,GT-17,,
-1143378,-1685462,hypsographic,"Cerro Valentón","Cerro Valenton",official,14.888421,-90.325397,GT-15,,
-1143531,-1685655,settlement,"Vuelve Mujer","Vuelve Mujer",official,15.836391,-88.780062,GT-18,,
-1144186,-1691587,hydrographic,"Río Negro","Rio Negro",variant,14.43193,-89.407329,S1-000,,
-1142989,-1684951,settlement,"Tierra Blanca","Tierra Blanca",official,14.801752,-89.393136,GT-20,,
-1143784,-1671312,hypsographic,"Montaña Bulquén","Montana Bulquen",official,15.902265,-91.557703,GT-13,,
-1143754,-1685955,hydrographic,"Arroyo Yaxtunilá","Arroyo Yaxtunila",official,16.567844,-90.283116,GT-17,,
-1143463,-1685575,spot,"Finca Villa Alba","Finca Villa Alba",official,14.016667,-90.816667,GT-05,,
-1143353,-1685437,administrative_region,"Municipio de Uzumatlán","Municipio de Uzumatlan",variant,14.98905,-89.788307,GT-19,,
-1143018,-1684686,hydrographic,"Río Tahuit","Rio Tahuit",variant,15.216667,-91.416667,GT-13,,
-1143290,19538718,hydrographic,"Río Tzé","Rio Tze",official,15.281687,-89.537946,GT-18,,
-1143497,-1685616,spot,"Hacienda Virginia","Hacienda Virginia",official,14.695664,-91.997678,GT-09,,
-1143030,-1685002,settlement,Timushán,Timushan,official,14.721237,-89.178426,GT-20,,
-1143670,-1685832,settlement,Xinacatí,Xinacati,variant,15.224425,-90.652351,GT-15,,
-1143501,-1685621,settlement,"Vista Bella","Vista Bella",official,14.744893,-90.969573,GT-04,,
-1143253,-1685306,settlement,Tzajcab,Tzajcab,official,14.986395,-91.192674,GT-14,,
-1143810,-1686037,spot,Zacatal,Zacatal,variant,17.679617,-89.836399,GT-17,,
-1143011,-1684973,hydrographic,"Quebrada Tierra Colorada","Quebrada Tierra Colorada",official,14.604314,-89.46122,GT-20,,
-1143624,-1685780,settlement,Xeparquiy,Xeparquiy,official,14.595762,-90.843984,GT-04,,
-1143352,-1685424,settlement,Usumatlán,Usumatlan,official,14.94779,-89.777121,GT-19,,
-1143553,-1685691,hydrographic,"Arroyo Xan","Arroyo Xan",variant,17.528457,-90.46941,GT-17,,
-1142982,-1684944,settlement,"Tierra Blanca","Tierra Blanca",official,14.910469,-91.382549,GT-08,,
-1143546,-1671581,spot,Cangüinic,Canguinic,variant,15.716667,-90.516667,GT-16,,
-1143171,-1685195,settlement,"Tres Sabanas","Tres Sabanas",official,14.721543,-90.466178,GT-01,,
-1143592,19286338,hydrographic,"Quebrada de Xecocol","Quebrada de Xecocol",official,14.885615,-90.954505,GT-04,,
-1142979,-1684940,hypsographic,"Cerro Tichacté","Cerro Tichacte",official,14.822468,-89.350258,GT-20,,
-1143606,-1685757,spot,"Finca Xelajú","Finca Xelaju",official,14.651862,-91.837028,GT-09,,
-1143576,-1685723,settlement,Xecajá,Xecaja,official,14.993383,-91.286195,GT-08,,
-1143705,19140315,settlement,Xecuhué,Xecuhue,official,14.837021,-91.626698,GT-09,,
-1143835,-1686069,park,Zapote,Zapote,variant,13.946389,-90.064722,GT-22,,
-1143734,-1685919,park,Yalpina,Yalpina,official,17.14779,-90.803781,GT-17,,
-1143245,-1685292,hydrographic,"Río Tusamates","Rio Tusamates",official,14.221676,-89.552322,GT-22,,
-1143148,-1679205,settlement,"Los Trapichitos","Los Trapichitos",variant,14.576008,-89.718,GT-21,,
-1143739,-1685897,settlement,Yaki,Yaki,variant,15.290897,-88.987412,GT-18,,
-1143403,-1685494,spot,"Finca Variedades","Finca Variedades",official,14.414158,-91.268936,GT-10,,
-1143875,-1681207,hydrographic,"Río del Pilar","Rio del Pilar",variant,14.598848,-92.013521,GT-09,,
-1143567,-1685714,settlement,"Xeabaj Segundo","Xeabaj Segundo",variant,14.915418,-91.164421,GT-14,,
-1143803,-1686028,spot,"Finca Yuscarán","Finca Yuscaran",official,15.4,-89.5,GT-18,,
-1143390,-1685477,settlement,"Valle Nuevo","Valle Nuevo",official,14.290099,-89.708946,GT-22,,
-1143200,-1675739,spot,"Finca El Rosario Tininhuitz","Finca El Rosario Tininhuitz",official,14.744848,-91.693604,GT-09,,
-1143636,205913,settlement,Xequemeyá,Xequemeya,official,15.09512,-91.354382,GT-08,,
-1143614,-1685768,park,Xenimajuyú,Xenimajuyu,official,14.762351,-90.842749,GT-04,,
-1143754,-1676504,hydrographic,"Arroyo Ixtunclá","Arroyo Ixtuncla",variant,16.567844,-90.283116,GT-17,,
-1143770,-1685979,settlement,Yojoa,Yojoa,official,15.793463,-88.701317,GT-18,,
-1142954,-1684899,hydrographic,"Laguna Terranova","Laguna Terranova",official,14.3,-90.633333,GT-05,,
-1143442,-1685545,spot,"Finca Verapaz","Finca Verapaz",official,14.021081,-90.840674,GT-05,,
-1143776,19736618,settlement,"Santa María Yolhuitz","Santa Maria Yolhuitz",official,15.859272,-91.262596,GT-13,,
-1143864,-1686107,settlement,Zarzal,Zarzal,official,14.61406,-89.213147,GT-20,,
-1143555,-1685694,settlement,Xaquijyá,Xaquijya,official,14.822746,-91.189517,GT-07,,
-1143622,-1685778,settlement,Xepanil,Xepanil,variant,14.846268,-90.9695,GT-04,,
-1143225,-1685270,park,Tunal,Tunal,official,15.966667,-91.783333,GT-13,,
-1143623,-1685779,hydrographic,"Quebrada Xepanil","Quebrada Xepanil",official,14.872553,-90.956487,GT-04,,
-1143072,-1685043,settlement,Tisubin,Tisubin,variant,14.699467,-89.512154,GT-20,,
-1143385,19314775,settlement,"Valle Los Portillos","Valle Los Portillos",variant,14.608786,-89.487486,GT-20,,
-1143358,-1685435,hydrographic,"Río Uyús","Rio Uyus",official,14.942114,-89.831764,GT-000,,
-1143422,-1685520,settlement,Veguitas,Veguitas,official,14.77172,-90.282786,GT-02,,
-1143896,-1675305,hydrographic,"Río El Tambor","Rio El Tambor",official,14.932142,-89.818283,GT-000,,
-1143564,19350183,hydrographic,"Río Coyolate","Rio Coyolate",variant,14.455177,-91.096315,GT-04,,
-1143313,-1685374,settlement,Tzununá,Tzununa,official,14.733176,-91.247091,GT-07,,
-1143838,-1686078,hydrographic,"Quebrada Zapote","Quebrada Zapote",official,14.916971,-92.123365,GT-12,,
-1142915,-1684841,settlement,Tectitán,Tectitan,official,15.306299,-92.060514,GT-13,,
-1143327,-1685392,settlement,Ujuxte,Ujuxte,official,14.290978,-89.644842,GT-22,,
-1143360,-1685441,settlement,"Vado Ancho","Vado Ancho",official,14.709839,-92.025908,GT-09,,
-1143514,-1685635,spot,"Finca Vizcaya","Finca Vizcaya",official,14.753734,-91.778758,GT-09,,
-1143578,-1685725,settlement,Xecalibal,Xecalibal,official,14.864179,-91.097098,GT-14,,
-1143123,17851371,spot,"Sitio Arqueológico Topoxté","Sitio Arqueologico Topoxte",official,17.061248,-89.430307,GT-17,,
-1143038,-1685012,hydrographic,"Río Tinajas","Rio Tinajas",official,15.356582,-89.640865,GT-000,1,
-1143670,19415755,settlement,"Xinacatí II","Xinacati II",official,15.224425,-90.652351,GT-15,,
-1143429,-1685531,spot,"Finca Venecia","Finca Venecia",official,14.64048,-91.143754,GT-07,,
-1143042,-1685022,hydrographic,"Quebrada Tío Alejo","Quebrada Tio Alejo",official,14.769275,-90.127372,GT-02,,
-1143067,-1685053,settlement,Tixel,Tixel,official,15.433333,-91.766667,GT-13,,
-1143618,-1685773,hydrographic,"Riachuelo Xepac","Riachuelo Xepac",official,14.873034,-90.957718,GT-04,,
-1143186,19180791,administrative_region,Tucurú,Tucuru,official,15.300819,-90.072399,GT-16,,
-1143605,-1685756,spot,"Finca Xelajú","Finca Xelaju",official,14.083333,-91.5,GT-05,,
-1143138,-1685170,settlement,Trasbal,Trasbal,variant,15.533333,-89.8,GT-16,,
-1143811,-1686038,park,Zacatal,Zacatal,official,16.2,-90.216667,GT-17,,
-1143408,-1685499,spot,"Finca Varsovia","Finca Varsovia",official,14.722435,-91.844221,GT-12,,
-1143467,15589936,settlement,"Villa Angela","Villa Angela",variant,14.542811,-92.184567,GT-12,,
-1143268,-1685323,settlement,Tzanchaj,Tzanchaj,official,14.615436,-91.242793,GT-07,,
-1143695,-1685864,settlement,Xopacal,Xopacal,official,15.620767,-91.441911,GT-13,,
-1143065,-1685051,settlement,Tiúcal,Tiucal,official,14.284444,-89.724444,GT-22,,
-1143855,-1686096,hydrographic,"Riachuelo Zarco","Riachuelo Zarco",official,14.690303,-89.701007,GT-21,,
-1143726,-1685906,park,Yalcoc,Yalcoc,variant,15.782537,-90.260541,GT-16,,
-1143262,-1685317,hypsographic,"Cerro Tzampual","Cerro Tzampual",official,14.815539,-91.285673,GT-07,,
-1143296,-1685354,hypsographic,"Isla Tzilinabaj","Isla Tzilinabaj",variant,14.673344,-91.178277,GT-07,,
-1143692,205921,settlement,Xoncá,Xonca,official,15.453018,-91.109779,GT-14,,
-1142945,-1684887,hydrographic,"Río Teosinte","Rio Teosinte",variant,14.684124,-90.387875,GT-01,,
-1143129,-1685132,hydrographic,"Quebrada Torjá","Quebrada Torja",official,14.818893,-89.382041,GT-20,,
-1143272,-1685329,hypsographic,"Punta Tzancujil","Punta Tzancujil",variant,14.716667,-91.25,GT-07,,
-1143339,-1685408,hydrographic,"Río Urchilá","Rio Urchila",official,14.550793,-89.969995,GT-21,,
-1143197,-1685230,settlement,Tuinimá,Tuinima,official,15.118052,-91.882005,GT-12,,
-1143135,-1685141,spot,"Finca Totonicapán","Finca Totonicapan",official,14.219139,-91.413908,GT-05,,
-1143055,-1685038,settlement,Tishinté,Tishinte,official,14.824565,-89.270688,GT-20,,
-1143227,-1685273,settlement,Tunas,Tunas,official,14.300549,-89.91945,GT-22,,
-1143099,-1685096,settlement,"Tojquián Chico","Tojquian Chico",variant,15.058555,-91.952651,GT-12,,
-1143257,19151254,settlement,"Tzalambaj II","Tzalambaj II",official,14.968708,-91.068246,GT-14,,
-1143425,-1685525,spot,"Velásquez Viejo","Velasquez Viejo",variant,14.216667,-90.983333,GT-05,1,
-1143089,-1685087,hypsographic,"Cerro Tojchix","Cerro Tojchix",variant,15.180938,-92.021615,GT-12,,
-1143129,-1685133,hydrographic,"Río Torjá","Rio Torja",variant,14.818893,-89.382041,GT-20,,
-1143759,-1685960,settlement,Yerbabuena,Yerbabuena,official,14.420366,-89.967832,GT-22,,
-1143023,-1684930,hydrographic,"Arroyo Tical","Arroyo Tical",variant,17.708942,-89.323946,GT-17,,
-1143865,-1686108,settlement,Zarzal,Zarzal,official,14.717256,-89.232688,GT-20,,
-1143836,-1686075,hypsographic,"Cerro del Zapote","Cerro del Zapote",official,14.166667,-90.2,GT-06,,
-1143118,-1685117,settlement,Tontoles,Tontoles,official,14.61534,-89.279663,GT-20,,
-1143334,-1685402,settlement,Unión,Union,official,15.921764,-91.776471,GT-13,,
-1143423,-1685522,settlement,Velásquez,Velasquez,official,14.292813,-89.792333,GT-22,,
-1143503,-1685623,spot,"Finca Vista Bella","Finca Vista Bella",official,14.733333,-90.966667,GT-04,,
-1142930,19180788,administrative_region,Tejutla,Tejutla,official,15.156382,-91.824566,GT-12,,
-1143002,-1684964,settlement,"Tierra Colorada","Tierra Colorada",official,14.592042,-89.451335,GT-20,,
-1143420,-1685516,settlement,"Vegas de Santo Domingo","Vegas de Santo Domingo",variant,15.128733,-90.53587,GT-15,,
-1143751,-1685948,spot,Yaxha,Yaxha,variant,17.07571,-89.402374,GT-17,,
-1142956,-1684902,settlement,Terrerito,Terrerito,official,14.861666,-90.181066,GT-02,,
-1143617,-1685772,settlement,Xepac,Xepac,official,14.852943,-90.965406,GT-04,,
-1142992,-1684954,settlement,"Tierra Blanca","Tierra Blanca",official,14.87415,-89.426048,GT-20,,
-1143564,-1672120,hydrographic,"Río Chayá","Rio Chaya",variant,14.455177,-91.096315,GT-04,,
-1143572,-1685717,hydrographic,"Río Xeaj","Rio Xeaj",official,14.957112,-91.530378,GT-08,,
-1143206,-1685240,settlement,Tuitzisbil,Tuitzisbil,official,14.846244,-91.636091,GT-09,,
-1143212,-1685250,hydrographic,"Quebrada del Tule","Quebrada del Tule",official,14.870102,-89.437609,GT-20,,
-1143528,-1685652,settlement,"Vuelta Grande","Vuelta Grande",official,15.370641,-91.99759,GT-13,,
-1143246,-1685293,hydrographic,"Laguneta Tuspán","Laguneta Tuspan",official,17.238992,-90.632834,GT-17,,
-1143642,-1685800,settlement,Xesajbín,Xesajbin,official,14.781189,-90.966752,GT-04,,
-1143554,-1685693,hydrographic,"Río Xantún","Rio Xantun",official,14.907136,-91.372255,GT-08,,
-1143717,-1685892,settlement,Yabalquix,Yabalquix,official,15.782226,-90.708694,GT-16,,
-1143534,-1685660,hydrographic,"Río Warre Creek","Rio Warre Creek",official,15.899611,-89.140446,GT-18,,
-1143273,19186188,hypsographic,"Punta Tzanhuacal","Punta Tzanhuacal",official,14.664415,-91.150601,GT-07,,
-1143131,-1685135,spot,Torola,Torola,variant,14.273755,-90.752314,GT-05,,
-1143170,-1685194,hydrographic,"Río Tres Reyes Chiquito","Rio Tres Reyes Chiquito",official,14.699869,-91.641128,GT-09,,
-1143151,-1685169,settlement,"Trapichito Viejo","Trapichito Viejo",official,14.916667,-90.45,GT-15,,
-1143453,-1685557,park,Victoria,Victoria,official,16.35,-90.383333,GT-17,,
-1143054,-1685037,settlement,Tishical,Tishical,official,14.978536,-89.96149,GT-02,,
-1143783,15557025,hydrographic,"Laguna Brava","Laguna Brava",variant,16.055116,-91.570594,GT-13,,
-1143678,205917,settlement,Xixviac,Xixviac,official,15.344526,-91.233628,GT-13,,
-1142968,-1684926,park,Tiapac,Tiapac,official,15.916667,-91.683333,GT-13,,
-1143266,-1685321,hydrographic,"Río Tzancam","Rio Tzancam",official,14.956563,-91.294201,GT-08,,
-1143829,15611559,settlement,"Zanjón San Lorenzo Ayutla","Zanjon San Lorenzo Ayutla",official,14.778208,-92.102468,GT-12,,
-1142984,-1684946,settlement,"Tierra Blanca","Tierra Blanca",official,14.160397,-90.058241,GT-22,,
-1143694,-1685863,hydrographic,"Río Xonimabeyá","Rio Xonimabeya",official,14.910596,-91.20882,GT-08,,
-1143619,-1685775,settlement,Xepaché,Xepache,variant,14.789947,-91.549843,GT-09,,
-1143019,-1684987,spot,Tikal,Tikal,variant,17.222106,-89.62357,GT-17,,
-1143247,-1685296,settlement,Tuticopote,Tuticopote,official,14.711153,-89.343538,GT-20,,
-1142951,-1684892,settlement,Tepescuinte,Tepescuinte,variant,15.566744,-88.479554,GT-18,,
-1143861,-1686104,hydrographic,"Río Zarsaparrilla","Rio Zarsaparrilla",variant,15.253883,-89.649022,GT-16,,
-1143239,-1685286,hydrographic,"Río Turbalá","Rio Turbala",official,14.926341,-91.752437,GT-000,,
-1143436,-1685539,settlement,"Ventana Abaj","Ventana Abaj",official,14.821314,-91.254745,GT-07,,
-1143882,-1686131,settlement,Zorrillos,Zorrillos,variant,14.443109,-89.713977,GT-22,,
-1143233,-1685279,settlement,Tunucó,Tunuco,official,14.749943,-89.357467,GT-20,,
-1143328,-1685393,settlement,Ulpán,Ulpan,official,15.45,-90.083333,GT-16,,
-1143697,-1672634,settlement,Chororagua,Chororagua,variant,14.766462,-89.581145,GT-20,,
-1143312,-1685372,settlement,Tzuncal,Tzuncal,official,16.077821,-89.576371,GT-17,,
-1143604,-1685754,settlement,Xelacán,Xelacan,official,14.8,-91.666667,GT-09,,
-1143591,-1685672,settlement,Xacoxol,Xacoxol,variant,14.864234,-90.983243,GT-04,,
-1143603,19171145,settlement,Xejuyup,Xejuyup,official,14.887123,-91.488639,GT-08,,
-1143076,-1685066,hypsographic,"Cerro del Tobón","Cerro del Tobon",official,14.794706,-89.910203,GT-21,,
-1143668,-1685829,settlement,Xicacao,Xicacao,official,15.492443,-90.0823,GT-16,,
-1143783,-1685996,hydrographic,"Laguna Yolnajab","Laguna Yolnajab",official,16.055116,-91.570594,GT-13,,
-1143484,-1685597,hydrographic,"Río Villalobos","Rio Villalobos",official,14.478245,-90.574874,GT-01,,
-1142944,-1684885,hypsographic,"Cerro Teocinte","Cerro Teocinte",official,14.601742,-89.260602,GT-20,,
-1143320,-1685384,hydrographic,"Arroyo Ucanal","Arroyo Ucanal",variant,16.283333,-89.966667,GT-17,,
-1143781,-1685993,settlement,Yolicham,Yolicham,official,15.83288,-91.575955,GT-13,,
-1143142,-1685492,settlement,Vargas,Vargas,variant,14.338393,-89.639127,GT-22,,
-1143345,-1685411,hydrographic,"Quebrada Urpán","Quebrada Urpan",official,14.732812,-89.504276,GT-20,,
-1143046,-1675379,hypsographic,"El Tipón","El Tipon",variant,15.271079,-89.169857,GT-18,,
-1143399,-1685488,spot,"Hacienda Vaquilito","Hacienda Vaquilito",official,14.489487,-91.706808,GT-11,,
-1143753,-1685953,hydrographic,"Río Yaxjá","Rio Yaxja",official,17.15,-89.366667,GT-17,,
-1142911,-1684834,hypsographic,"Cerro Tecpam","Cerro Tecpam",variant,14.782534,-91.023205,GT-04,,
-1143353,19180793,administrative_region,Usumatlán,Usumatlan,official,14.98905,-89.788307,GT-19,,
-1143088,-1685082,settlement,Tojcheluc,Tojcheluc,variant,14.842946,-91.617959,GT-09,,
-1143337,-1685406,hydrographic,"Río Urayala","Rio Urayala",official,14.03711,-90.407161,GT-06,,
-1142921,19180457,administrative_region,Teculután,Teculutan,official,15.054222,-89.754746,GT-19,,
-1143235,-1685281,settlement,"Tunucó Abajo","Tunuco Abajo",official,14.769022,-89.366552,GT-20,,
-1144397,-1689871,hydrographic,"Río Jerez","Rio Jerez",variant,14.03578,-89.733647,S1-000,,
-1143098,205905,settlement,Tojquiá,Tojquia,official,15.563633,-91.657771,GT-13,,
-1143034,-1685008,settlement,Tinajab,Tinajab,variant,15.942357,-91.570443,GT-13,,
-1143243,-1685290,settlement,Tusam,Tusam,official,15.616667,-90.016667,GT-16,1,
-1143846,-1686086,settlement,"Zapote del Bálsamo","Zapote del Balsamo",official,15.157411,-89.105526,GT-18,,
-1143147,-1685164,hydrographic,"Río Trapichito","Rio Trapichito",official,14.9333,-90.269463,GT-02,,
-1143868,-1686113,hypsographic,"Cerro Zarzal","Cerro Zarzal",official,14.901728,-89.198135,S1-000,,
-1143131,-1685136,spot,"Finca Torolita","Finca Torolita",official,14.273755,-90.752314,GT-05,,
-1142937,-1684873,hydrographic,Tempiaque,Tempiaque,variant,14.266006,-90.027114,GT-22,,
-1143298,-1685356,settlement,Tzipoclaj,Tzipoclaj,official,15.496528,-91.602404,GT-13,,
-1143445,-1685548,spot,"Finca Verapaz","Finca Verapaz",official,14.796973,-91.898577,GT-12,,
-1143188,-1685219,settlement,Tuichán,Tuichan,official,15.074447,-91.853371,GT-12,,
-1143356,-1685409,hydrographic,"Río Urena","Rio Urena",variant,14.043837,-90.298281,GT-06,,
-1143160,-1685183,spot,"Hacienda Tres Islas","Hacienda Tres Islas",official,16.20379,-90.032622,GT-17,,
-1143559,-1685698,settlement,Xatinab,Xatinab,variant,15.003152,-91.152916,GT-14,,
-1143141,-1685154,hydrographic,"Quebrada Trapiches","Quebrada Trapiches",official,14.691632,-89.225426,GT-20,,
-1143019,-1684929,spot,Tical,Tical,variant,17.222106,-89.62357,GT-17,,
-1143062,-1685047,settlement,Tituque,Tituque,official,14.660198,-89.381799,GT-20,,
-1143646,-1685804,settlement,Xesaná,Xesana,official,14.995805,-91.374769,GT-08,,
-1143705,-1685877,settlement,Xucubué,Xucubue,variant,14.837021,-91.626698,GT-09,,
-1143728,-1685911,spot,"Hacienda Yalipur","Hacienda Yalipur",official,15.5,-90,GT-16,,
-1143460,-1685571,spot,"Finca Viena","Finca Viena",official,14.806933,-91.904031,GT-12,,
-1143737,-1685920,park,Yaltitú,Yaltitu,variant,16.833333,-89.466667,GT-17,,
-1143220,-1685260,settlement,Tulumajillo,Tulumajillo,official,14.926196,-90.047137,GT-02,,
-1143322,18008720,spot,"Finca Ucubujá","Finca Ucubuja",official,15.000344,-91.955106,GT-12,,
-1143507,-1685627,spot,"Finca Vista Hermosa","Finca Vista Hermosa",official,14.433372,-89.84408,GT-22,,
-1143659,-1685817,park,Xetonox,Xetonox,official,14.762152,-90.944131,GT-04,,
-1143321,-1685383,park,Ucanal,Ucanal,variant,16.466667,-90,GT-17,,
-1143285,-1685342,settlement,Tzantinamit,Tzantinamit,official,14.799915,-91.271826,GT-07,,
-1143851,-1686092,spot,"Hacienda Zaragoza","Hacienda Zaragoza",variant,14.48994,-91.97567,GT-11,,
-1143267,-1685322,hydrographic,"Río Tzancán","Rio Tzancan",official,14.744467,-90.981641,GT-04,,
-1143478,-1685591,spot,"Finca Villa Julia","Finca Villa Julia",official,14.02127,-90.791968,GT-05,,
-1143238,-1685285,settlement,Turbalá,Turbala,official,15.063253,-90.887541,GT-14,,
-1143278,205909,settlement,Tzanjón,Tzanjon,official,15.081667,-91.4975,GT-08,,
-1143880,-1686126,hydrographic,"Quebrada Zompopero","Quebrada Zompopero",official,15.963301,-89.909214,GT-17,,
-1143202,-1685235,settlement,Tuipox,Tuipox,official,14.852463,-91.608223,GT-09,,
-1143566,19183861,settlement,"Xeabaj I","Xeabaj I",official,14.810718,-91.391875,GT-07,,
-1143749,-1685935,park,Yastchilán,Yastchilan,variant,17.1,-90.783333,GT-17,,
-1143356,-1685430,hydrographic,"Río Utena","Rio Utena",official,14.043837,-90.298281,GT-06,,
-1143820,-1686049,spot,"Sitio Arqueológico Zaculeu","Sitio Arqueologico Zaculeu",official,15.333564,-91.492985,GT-13,,
-1143546,-1685755,spot,Xelajá,Xelaja,variant,15.716667,-90.516667,GT-16,,
-1143733,-1685918,settlement,Yalpemech,Yalpemech,official,15.943657,-90.128077,GT-16,,
-1143727,-1685908,settlement,Yalicar,Yalicar,variant,15.70743,-90.319985,GT-16,,
-1143521,-1685644,settlement,Voltario,Voltario,official,14.383333,-91.95,GT-11,,
-1143653,-1685811,settlement,Xetabal,Xetabal,official,15.266667,-91.133333,GT-14,,
-1143346,-1685417,settlement,Us,Us,official,14.95,-91.216667,GT-14,,
-1143024,-1684994,settlement,Tilapa,Tilapa,official,14.494591,-92.172554,GT-12,,
-1143106,-1685103,hypsographic,"Cerro de Temastepeque","Cerro de Temastepeque",official,14.630076,-90.358431,GT-01,,
-1143729,-1685913,settlement,Yalmoján,Yalmojan,official,16.983688,-89.983072,GT-17,,
-1143134,-1685140,administrative_region,"Departamento de Totonicapán","Departamento de Totonicapan",official,15,-91.333333,GT-08,,
-1143621,-1685777,settlement,Xepanil,Xepanil,official,14.845258,-90.958199,GT-04,,
-1143751,17851229,spot,"Sitio Arqueológico Yaxjá","Sitio Arqueologico Yaxja",official,17.07571,-89.402374,GT-17,,
-1143081,205904,settlement,Tocal,Tocal,official,15.588945,-91.439203,GT-13,,
-1143414,-1685506,settlement,"Vega de la Hamaca","Vega de la Hamaca",official,14.883333,-90.466667,GT-15,,
-1143589,-1685737,hypsographic,"Cerro Xecón","Cerro Xecon",official,14.387973,-89.950927,GT-22,,
-1143745,19752811,settlement,"El Calvario Yaxjá","El Calvario Yaxja",variant,15.8905,-89.7496,GT-16,,
-1143872,-1686117,park,Zayas,Zayas,official,17.3,-90.016667,GT-17,,
-1143616,-1685845,settlement,Xococ,Xococ,variant,15.15,-90.55,GT-15,,
-1143234,-1685280,hydrographic,"Quebrada de Tunucó","Quebrada de Tunuco",official,14.748018,-89.358587,GT-20,,
-1143597,-1685747,settlement,Xejolón,Xejolon,official,14.643417,-91.069769,GT-04,,
-1143732,-1685916,park,Yaloch,Yaloch,variant,17.388042,-89.243908,GT-17,,
-1143130,19273002,hypsographic,"Cerro El Toro","Cerro El Toro",official,14.526505,-90.305237,GT-01,,
-1143196,-1685229,settlement,Tuimuj,Tuimuj,official,14.915152,-91.709636,GT-09,,
-1143808,19180819,administrative_region,Zacapa,Zacapa,official,14.971375,-89.464753,GT-19,,
-1143800,-1685283,settlement,Tupiltepeque,Tupiltepeque,variant,14.197053,-89.792622,GT-22,,
-1143294,-1685352,settlement,Tziajá,Tziaja,variant,15.548412,-91.895342,GT-13,,
-1143229,-1685275,settlement,Tuncaj,Tuncaj,official,14.984154,-90.617823,GT-15,,
-1143143,-1685156,settlement,"Trapiche Viejo","Trapiche Viejo",official,14.967768,-90.486575,GT-15,,
-1143210,-1685246,settlement,Tular,Tular,official,14.807582,-89.273942,GT-20,,
-1143382,-1685467,settlement,"Valle Arriba","Valle Arriba",official,14.508874,-89.447139,GT-20,,
-1143664,19186184,settlement,Xetzisi,Xetzisi,official,14.629189,-91.04096,GT-04,,
-1143511,-1685631,settlement,Vivares,Vivares,official,14.501877,-89.717927,GT-21,,
-1143681,19182572,settlement,Coxom,Coxom,variant,14.809014,-91.221646,GT-07,,
-1143119,-1685118,settlement,Tontoles,Tontoles,official,14.782988,-89.280633,GT-20,,
-1143479,-1685592,spot,"Finca Villa Laura","Finca Villa Laura",official,14.173471,-90.927439,GT-05,,
-1143348,-1683264,settlement,"San Miguel Uspantán","San Miguel Uspantan",variant,15.346717,-90.870505,GT-14,,
-1143519,-1685642,settlement,Volcancitos,Volcancitos,official,14.469302,-89.403608,GT-20,,
-1143689,-1685858,settlement,Xolsacmaljá,Xolsacmalja,variant,14.879595,-91.385973,GT-08,,
-1143809,-1686036,hypsographic,"Cerro Zacarías","Cerro Zacarias",official,14.531262,-89.620904,GT-000,,
-1143833,-1686065,hydrographic,"Laguna Zapotal","Laguna Zapotal",variant,16.650585,-89.926459,GT-17,,
-1143066,19485721,settlement,"Tiúcal Arriba","Tiucal Arriba",official,14.275151,-89.746582,GT-22,,
-1143799,-1686024,hydrographic,"Río Yumar","Rio Yumar",official,14.673645,-90.587793,GT-01,,
-1142949,-1684891,settlement,Tepemechines,Tepemechines,official,15.280689,-88.967073,GT-18,,
-1143474,-1685587,spot,"Labor Villa Herminia","Labor Villa Herminia",official,14.469714,-90.624806,GT-01,,
-1143385,-1685470,settlement,"Valle de los Portillo","Valle de los Portillo",variant,14.608786,-89.487486,GT-20,,
-1143243,-1685304,settlement,Tuzán,Tuzan,variant,15.616667,-90.016667,GT-16,1,
-1144186,-1686590,hydrographic,"Río Brujo","Rio Brujo",official,14.43193,-89.407329,S1-000,,
-1143349,-1683265,administrative_region,"Municipio de San Miguel Uspantán","Municipio de San Miguel Uspantan",variant,15.443929,-90.843978,GT-14,,
-1143553,-1685664,hydrographic,"Arroyo Xaan","Arroyo Xaan",variant,17.528457,-90.46941,GT-17,,
-1143415,-1685509,spot,"Finca Vega del Chile","Finca Vega del Chile",official,14.889261,-90.657151,GT-14,,
-1143317,-1685379,spot,Uaxactún,Uaxactun,variant,17.395139,-89.638999,GT-17,,
-1143291,-1685348,hydrographic,"Río Tzeá","Rio Tzea",variant,15.95,-90.75,GT-14,,
-1143896,-2017522,hydrographic,"Río Jalapa","Rio Jalapa",variant,14.932142,-89.818283,GT-000,,
-1143807,14094765,administrative_region,Zacapa,Zacapa,official,15,-89.5,GT-19,,
-1143731,-1685915,spot,Yaloch,Yaloch,variant,17.319065,-89.173182,GT-17,,
-1143049,19180789,administrative_region,Tiquisate,Tiquisate,official,14.178723,-91.399729,GT-05,,
-1143432,-1685534,spot,"Finca Venecia","Finca Venecia",variant,13.975278,-90.728333,GT-05,,
-1143582,-1685729,settlement,Xecaracoj,Xecaracoj,official,14.803697,-91.55106,GT-09,,
-1143388,-1685475,park,"Valle El Platanar","Valle El Platanar",official,14.497963,-89.511779,GT-20,,
-1143368,-1685450,hydrographic,"Río Vado Hondo","Rio Vado Hondo",official,14.65,-90.216667,GT-01,,
-1143298,-1672422,settlement,Chipoclaj,Chipoclaj,variant,15.496528,-91.602404,GT-13,,
-1143195,19185161,settlement,Lublatzán,Lublatzan,official,14.815427,-91.642888,GT-09,,
-1143132,-1685138,hydrographic,"Lagunetas de Tortugas","Lagunetas de Tortugas",official,15.991807,-90.595425,GT-16,,
-1143818,-1686047,settlement,Zacuapa,Zacuapa,official,14.334624,-90.231078,GT-06,,
-1143290,-1685347,hydrographic,"Río Tze","Rio Tze",variant,15.281687,-89.537946,GT-18,,
-1143771,-1685980,spot,"Finca Yolanda","Finca Yolanda",official,13.981667,-90.892778,GT-05,,
-1143386,-1685464,spot,Valle,Valle,variant,14.543541,-91.293403,GT-10,,
-1143077,-1685067,hydrographic,"Quebrada de Tobón","Quebrada de Tobon",official,14.83364,-89.852614,GT-21,,
-1143090,-1685085,settlement,Tojchina,Tojchina,official,14.965729,-91.725267,GT-12,,
-1143237,-1685284,settlement,Tupulcán,Tupulcan,official,15.464419,-90.28174,GT-16,,
-1143547,-1685682,spot,Xalapán,Xalapan,official,14.616667,-89.983333,GT-21,,
-1143542,-1685674,settlement,Xajaxac,Xajaxac,official,14.829953,-91.174345,GT-07,,
-1143473,-1685586,spot,"Finca Villa Graciela","Finca Villa Graciela",official,14.90929,-92.012118,GT-12,,
-1144060,-1686352,hydrographic,"Río Angue","Rio Angue",official,14.290997,-89.517376,S1-000,,
-1143366,-1685448,settlement,"Vado Hondo","Vado Hondo",official,14.731145,-89.504861,GT-20,,
-1143810,-1686040,spot,"Sitio Arqueológico Zacatal","Sitio Arqueologico Zacatal",official,17.679617,-89.836399,GT-17,,
-1143758,19180816,administrative_region,Yepocapa,Yepocapa,official,14.467246,-90.974157,GT-04,,
-1143459,-1685570,spot,"Finca Viejo Quetzal","Finca Viejo Quetzal",official,14.743602,-91.729547,GT-09,,
-1143126,-1685127,settlement,Toquelá,Toquela,official,15.858581,-89.201721,GT-18,,
-1143640,-1685798,settlement,Xeraxaj,Xeraxaj,official,14.797461,-90.938609,GT-04,,
-1143411,19688614,spot,"Finca Vasconía","Finca Vasconia",official,14.15,-91,GT-05,,
-1143691,-1685849,settlement,Xolbeyá,Xolbeya,official,14.908554,-91.210059,GT-08,,
-1143645,-1685803,hydrographic,"Riachuelo Xesajcab","Riachuelo Xesajcab",official,14.813657,-90.94763,GT-04,,
-1143516,19354539,settlement,"El Volcán","El Volcan",variant,15.211454,-89.285254,GT-19,,
-1143425,-1685526,spot,"Finca Velasquitos","Finca Velasquitos",official,14.216667,-90.983333,GT-05,1,
-1143313,-1685373,settlement,Tzunumá,Tzunuma,variant,14.733176,-91.247091,GT-07,,
-1143792,205932,hypsographic,"Montaña Yulbatlac","Montana Yulbatlac",official,15.871848,-91.338089,GT-13,,
-1142967,-1684924,hypsographic,"Montaña Tialao","Montana Tialao",official,14.604693,-89.388092,GT-20,,
-1143787,-1686002,settlement,York,York,official,15.465554,-88.888505,GT-18,,
-1143720,18097975,settlement,"San Carlos Yajaucú","San Carlos Yajaucu",official,15.6067,-91.350949,GT-13,,
-1143104,-1685101,hypsographic,"Montaña Tolomac","Montana Tolomac",official,14.820924,-91.363397,GT-07,,
-1143816,19180820,administrative_region,Zacualpa,Zacualpa,official,15.089884,-90.881236,GT-14,,
-1143080,19137372,settlement,Tocaché,Tocache,official,14.959957,-91.960379,GT-12,,
-1143745,-1685938,settlement,Yaxá,Yaxa,variant,15.8905,-89.7496,GT-16,,
-1142923,-1673647,hypsographic,"Cerro El Baúl","Cerro El Baul",variant,14.829499,-91.495771,GT-09,,
-1143548,-1685685,settlement,Xalbaquiej,Xalbaquiej,official,14.963552,-91.154072,GT-14,,
-1143169,19736621,settlement,"Tres Ranchos","Tres Ranchos",official,15.84261879,-91.23054647,GT-13,,
-1143165,-1685188,settlement,"Tres Pinos","Tres Pinos",official,14.988785,-89.287235,GT-19,,
-1143711,-1685883,hydrographic,"Río Xulá","Rio Xula",official,14.804509,-92.068939,GT-12,,
-1143063,-1685046,settlement,Tituc,Tituc,variant,14.711268,-89.359774,GT-20,,
-1143412,-1685503,settlement,Vásquez,Vasquez,official,14.861805,-91.390956,GT-08,,
-1142957,19322602,settlement,Terrera,Terrera,official,14.839737,-89.470302,GT-20,,
-1143052,-1685035,settlement,Tisamarté,Tisamarte,official,14.914647,-89.226527,GT-20,,
-1143515,-1685636,spot,Volantún,Volantun,official,17.2,-89.6,GT-17,,
-1143727,-1685912,settlement,Yaliput,Yaliput,variant,15.70743,-90.319985,GT-16,,
-1143845,-1686085,hydrographic,"Río del Zapote","Rio del Zapote",official,14.5073,-90.315765,GT-01,,
-1144602,-1687726,hydrographic,"Río Cusmapa","Rio Cusmapa",official,14.226192,-89.522945,S1-000,,
-1143118,-1685116,settlement,Tontola,Tontola,variant,14.61534,-89.279663,GT-20,,
-1143108,-1685105,hydrographic,"Laguneta Tomatales","Laguneta Tomatales",official,14.514825,-91.935088,GT-11,,
-1143755,-1685956,hydrographic,"Laguna Yaxtunilá","Laguna Yaxtunila",variant,16.569626,-90.278099,GT-17,,
-1143438,-1685541,spot,"Estación Veracruz","Estacion Veracruz",official,15.633333,-88.533333,GT-18,,
-1143082,19390406,settlement,"Tonzul Ucalá","Tonzul Ucala",official,15.702314,-90.383361,GT-16,,
-1143840,-1686080,hydrographic,"Quebrada del Zapote","Quebrada del Zapote",official,14.686836,-89.824758,GT-21,,
-1143871,-1686116,settlement,Zarzona,Zarzona,official,14.676681,-89.621974,GT-20,,
-1143567,19155116,settlement,"Xeabaj I","Xeabaj I",official,14.915418,-91.164421,GT-14,,
-1143124,-1685125,park,Topoxte,Topoxte,official,17.083333,-89.483333,GT-17,,
-1143834,-1686067,hydrographic,"Quebrada del Zapotal","Quebrada del Zapotal",official,14.62357,-89.21545,GT-20,,
-1143719,-1685894,park,Yahuactal,Yahuactal,official,17.616667,-89.166667,GT-17,,
-1143411,-1685502,spot,"Finca Vasconia","Finca Vasconia",variant,14.15,-91,GT-05,,
-1143568,-1685710,settlement,Xeabaj,Xeabaj,official,15.019214,-90.453136,GT-15,,
-1143203,-1685236,settlement,Tuisachix,Tuisachix,official,15.266667,-92.116667,GT-12,,
-1143788,-1686003,settlement,Yoxaclá,Yoxacla,official,15.750763,-91.647299,GT-13,,
-1143243,-1685303,settlement,Tuzam,Tuzam,variant,15.616667,-90.016667,GT-16,1,
-1142956,-1675334,settlement,"El Terrerito","El Terrerito",variant,14.861666,-90.181066,GT-02,,
-1143063,-1685295,settlement,Tutico,Tutico,variant,14.711268,-89.359774,GT-20,,
-1143508,19687813,settlement,"Vista Hermosa","Vista Hermosa",official,14.112945,-90.161494,GT-06,,
-1143363,-1685445,settlement,"Vado de Don Juan","Vado de Don Juan",official,14.883333,-90.333333,GT-000,1,
-1143644,-1685802,hypsographic,"Cerro Xesajcab","Cerro Xesajcab",official,14.820166,-90.968304,GT-04,,
-1143409,-1685500,spot,"Hacienda Varsovia","Hacienda Varsovia",official,14.773028,-92.092698,GT-12,,
-1143490,-1685603,settlement,"Villa Nueva","Villa Nueva",official,14.525125,-90.585437,GT-01,,
-1143009,205903,settlement,"Tierra Colorada","Tierra Colorada",official,15.017222,-91.408056,GT-08,,
-1143055,-1685057,settlement,Tixinté,Tixinte,variant,14.824565,-89.270688,GT-20,,
-1143595,-1685743,settlement,Xejabí,Xejabi,official,14.745021,-91.059197,GT-04,,
-1143668,-1672178,settlement,Chicacao,Chicacao,variant,15.492443,-90.0823,GT-16,,
-1142945,-1684886,hydrographic,"Río Teocinte","Rio Teocinte",official,14.684124,-90.387875,GT-01,,
-1143754,-1676505,hydrographic,"Río Ixtunelá","Rio Ixtunela",variant,16.567844,-90.283116,GT-17,,
-1143896,-1672308,hydrographic,"Río Chimalapa","Rio Chimalapa",variant,14.932142,-89.818283,GT-000,,
-1143369,-1685453,settlement,Vainilla,Vainilla,official,15.145456,-89.284577,GT-19,,
-1143242,-1685289,hydrographic,"Río Turín","Rio Turin",official,14.09837,-90.585804,GT-06,,
-1143521,-1675474,settlement,"El Voltario","El Voltario",variant,14.383333,-91.95,GT-11,,
-1143842,-1686082,hydrographic,"Quebrada del Zapote","Quebrada del Zapote",official,14.774852,-89.297904,GT-20,,
-1143154,-1685175,settlement,"Tres Ceibas","Tres Ceibas",official,14.690596,-89.589053,GT-20,,
-1143036,19581874,spot,"Finca Tinajas","Finca Tinajas",official,15.314868,-89.662011,GT-16,,
-1143248,-1685297,hydrographic,"Laguna Tuticopote","Laguna Tuticopote",official,14.724622,-89.33227,GT-20,,
-1143026,-1684998,settlement,Timajté,Timajte,variant,15.816667,-91.5,GT-13,,
-1143331,-1685396,settlement,Ulutelac,Ulutelac,official,15.933333,-91.25,GT-13,,
-1143742,-1685931,settlement,Yascap,Yascap,official,14.993683,-90.498078,GT-15,,
-1143564,-1685706,hydrographic,"Río Xayá","Rio Xaya",official,14.455177,-91.096315,GT-04,,
-1143138,-1685146,settlement,Transvaal,Transvaal,official,15.533333,-89.8,GT-16,,
-1143376,-1685460,hydrographic,"Río Valencia","Rio Valencia",official,14.461731,-89.987127,GT-000,,
-1143146,-1685163,hydrographic,"Río Trapichito","Rio Trapichito",official,14.238256,-89.970712,GT-22,,
-1143350,-1685421,settlement,Uspetén,Uspeten,official,17.013741,-89.802127,GT-17,,
-1143750,-1685947,hydrographic,"Río Yaxchilán","Rio Yaxchilan",variant,16.851934,-90.930953,GT-17,,
-1143120,19314918,hypsographic,"Cerro Tontoles","Cerro Tontoles",official,14.791585,-89.290082,GT-20,,
-1143436,19191334,settlement,"Ventana Abaj 01","Ventana Abaj 01",variant,14.821314,-91.254745,GT-07,,
-1143300,-1685358,hydrographic,"Río Tzoc","Rio Tzoc",official,14.95692,-91.946462,GT-12,,
-1143557,-1685696,spot,"Finca Xatá","Finca Xata",official,14.35731,-91.060775,GT-05,,
-1143609,-1685760,settlement,Xémal,Xemal,variant,15.411412,-91.688333,GT-13,,
-1143613,-1685767,settlement,Xenimajuyú,Xenimajuyu,official,14.728113,-90.969827,GT-04,,
-1143778,-1686020,hydrographic,"Río Yulhuitz","Rio Yulhuitz",variant,15.862299,-91.265122,GT-13,,
-1142996,-1684958,settlement,"Tierra Blanca","Tierra Blanca",official,15.34495,-90.882692,GT-14,,
-1143405,-1685496,settlement,Varituc,Varituc,official,14.790839,-90.834575,GT-04,,
-1143577,-1685724,settlement,Xecalibal,Xecalibal,official,14.777159,-91.379978,GT-07,,
-1143688,-1684414,spot,Sholpacol,Sholpacol,variant,15.28332,-91.157148,GT-14,,
-1143313,-1685370,settlement,Tzumumá,Tzumuma,variant,14.733176,-91.247091,GT-07,,
-1143746,205924,settlement,Yaxanlac,Yaxanlac,official,15.689487,-91.405922,GT-13,,
-1143176,-1685202,hydrographic,"Quebrada Tripa de Gallina","Quebrada Tripa de Gallina",official,15.876356,-89.076662,GT-18,,
-1143532,-1685656,spot,"Finca Waldemar","Finca Waldemar",official,15.001126,-91.942608,GT-12,,
-1143402,-1685493,spot,"Finca Variedades","Finca Variedades",variant,14.014181,-90.503012,GT-06,,
-1142928,-1684860,hydrographic,"Río Tején","Rio Tejen",official,14.786615,-91.357558,GT-07,,
-1143542,-1685746,settlement,Xejaxac,Xejaxac,variant,14.829953,-91.174345,GT-07,,
-1143793,-1685903,hydrographic,"Río Yalcastán","Rio Yalcastan",official,16.045263,-91.580377,GT-13,,
-1143533,-1685658,settlement,Warey,Warey,variant,15.878138,-89.139861,GT-18,,
-1142953,-1684898,spot,"Finca Terranova","Finca Terranova",official,14.300619,-90.682843,GT-05,,
-1143518,-1685640,settlement,Volcán,Volcan,official,15.466667,-89.833333,GT-16,,
-1142991,-1684953,settlement,"Tierra Blanca","Tierra Blanca",official,14.857871,-90.101878,GT-02,,
-1143632,-1685789,settlement,Xepol,Xepol,official,14.883333,-91.083333,GT-14,,
-1143795,-1686016,hydrographic,"Laguneta Yulchén","Laguneta Yulchen",official,16.058771,-91.464538,GT-13,,
-1143628,-1685784,settlement,Xepec,Xepec,official,14.717899,-91.119366,GT-07,,
-1143568,-1684156,settlement,Seabaj,Seabaj,variant,15.019214,-90.453136,GT-15,,
-1143257,-1685310,settlement,Tzalamabaj,Tzalamabaj,variant,14.968708,-91.068246,GT-14,,
-1143542,-1685677,settlement,Xajxac,Xajxac,variant,14.829953,-91.174345,GT-07,,
-1142973,-1684934,settlement,Ticanlú,Ticanlu,official,14.737469,-89.466552,GT-20,,
-1143089,15552668,hypsographic,"Cerro Tojchis","Cerro Tojchis",official,15.180938,-92.021615,GT-12,,
-1143789,-1686006,settlement,Yucal,Yucal,variant,14.407045,-90.967619,GT-04,,
-1143023,-1684991,hydrographic,"Río Tikal","Rio Tikal",official,17.708942,-89.323946,GT-17,,
-1143857,-1686098,hydrographic,"Río Zarco","Rio Zarco",official,14.558181,-91.362756,GT-10,,
-1143302,-1685360,hydrographic,"Río Tzojomá","Rio Tzojoma",official,14.771516,-91.355413,GT-07,,
-1143738,-1685926,settlement,Yamoj,Yamoj,official,15.333536,-91.90836,GT-12,,
-1143872,-1684151,park,Sayas,Sayas,variant,17.3,-90.016667,GT-17,,
-1142935,-1684874,park,Tempiscón,Tempiscon,official,14.588415,-89.741498,GT-21,,
-1143716,-1685890,hydrographic,"Quebrada Xutapán","Quebrada Xutapan",official,14.983333,-89.5,GT-19,,
-1143137,-1678368,settlement,"Las Trancas","Las Trancas",variant,14.262362,-89.858032,GT-22,,
-1143341,-1685412,park,Uruguay,Uruguay,official,14.8763,-89.840167,GT-19,,
-1143083,-1685078,settlement,"Todos Santos Cuchumatanes","Todos Santos Cuchumatanes",variant,15.508462,-91.603819,GT-13,,
-1143185,-1685216,settlement,Tucurú,Tucuru,official,15.294021,-90.119161,GT-16,,
-1143336,-1685405,settlement,Upayón,Upayon,official,14.814412,-90.187821,GT-02,,
-1143630,-1685786,settlement,Xepocol,Xepocol,official,14.955157,-91.139224,GT-14,,
-1143734,-1685484,park,Valpino,Valpino,variant,17.14779,-90.803781,GT-17,,
-1143354,-1685426,hydrographic,"Río Utapa","Rio Utapa",official,14.23949,-90.325638,GT-06,,
-1143684,-1685848,settlement,Xolacoy,Xolacoy,official,15.109865,-90.594653,GT-15,,
-1143684,-1685851,settlement,Xolcoy,Xolcoy,variant,15.109865,-90.594653,GT-15,,
-1143013,-1684447,spot,"Sierra Mojada","Sierra Mojada",variant,16.532212,-90.104669,GT-17,,
-1143117,-1685115,spot,"Finca Tontol","Finca Tontol",official,14.747279,-89.649754,GT-20,,
-1143013,-1684446,spot,"Sierra Mejada","Sierra Mejada",variant,16.532212,-90.104669,GT-17,,
-1143401,-1675804,settlement,"Finca Varejones","Finca Varejones",variant,14.453847,-89.988464,GT-21,,
-1143553,20339148,hydrographic,"Río Xan","Rio Xan",official,17.528457,-90.46941,GT-17,,
-1143830,-1686061,settlement,"Hacienda Zanjón Seco","Hacienda Zanjon Seco",variant,14.677172,-92.047681,GT-09,,
-1143039,-1685013,hydrographic,"Laguna Tinta","Laguna Tinta",official,15.653315,-88.336548,GT-18,,
-1142916,18334388,administrative_region,Tectitán,Tectitan,official,15.31143,-92.048448,GT-13,,
-1143689,19171147,settlement,Xolsacmaliá,Xolsacmalia,official,14.879595,-91.385973,GT-08,,
-1143396,-1685483,settlement,"Hacienda Valparaíso","Hacienda Valparaiso",variant,14.568132,-91.876327,GT-09,,
-1143643,-1685801,settlement,Xesajcab,Xesajcab,official,14.815397,-90.956029,GT-04,,
-1143113,-1685110,settlement,Toncontín,Toncontin,official,14.333333,-91.9,GT-11,,
-1143829,-1686059,settlement,"Zanjón San Lorenzo","Zanjon San Lorenzo",variant,14.778208,-92.102468,GT-12,,
-1143560,19182569,settlement,Xeatzán,Xeatzan,official,14.677883,-91.055241,GT-04,,
-1142999,-1684961,park,"Tierra Colorada","Tierra Colorada",official,14.446958,-89.706362,GT-22,,
-1143035,-1685009,settlement,Tinajas,Tinajas,official,14.815288,-89.276834,GT-20,,
-1143709,-1685881,hydrographic,"Río Xulá","Rio Xula",official,14.501533,-91.698048,GT-11,,
-1143586,19285331,hydrographic,"Riachuelo Xecoli","Riachuelo Xecoli",official,14.754938,-90.974765,GT-04,,
-1143084,-1685077,administrative_region,"Todos Santos Cuchumatanes","Todos Santos Cuchumatanes",variant,15.526337,-91.605175,GT-13,,
-1143805,-1686030,settlement,Yuxquén,Yuxquen,variant,16.01317,-91.623279,GT-13,,
-1143870,-1686115,park,Zarzamora,Zarzamora,official,14.9,-89.433333,GT-20,,
-1143558,-1685697,hydrographic,"Río Xatá","Rio Xata",official,14.286201,-91.092125,GT-05,,
-1143185,-1683262,settlement,"San Miguel Tucurú","San Miguel Tucuru",variant,15.294021,-90.119161,GT-16,,
-1143156,-1685179,settlement,"Tres Cruces","Tres Cruces",official,14.948509,-89.524373,GT-19,,
-1143813,-1686041,spot,"Finca Zacateros","Finca Zacateros",official,14.383333,-89.583333,GT-22,,
-1143711,-1684589,hydrographic,"Río Sulá","Rio Sula",variant,14.804509,-92.068939,GT-12,,
-1142936,-1675325,settlement,"El Tempisque","El Tempisque",variant,14.491559,-89.629835,GT-22,,
-1143830,-1686060,settlement,"Zanjón Seca","Zanjon Seca",variant,14.677172,-92.047681,GT-09,,
-1143329,-1685394,hydrographic,"Riachuelo Uluma","Riachuelo Uluma",official,14.516667,-89.833333,GT-21,,
-1143250,-1685301,hydrographic,"Río Tutunico","Rio Tutunico",variant,14.622043,-89.450785,GT-20,,
-1143500,-1685620,spot,"Finca Vista al Mar","Finca Vista al Mar",official,14.168476,-90.492738,GT-06,,
-1143770,19453695,settlement,Yohoa,Yohoa,variant,15.793463,-88.701317,GT-18,,
-1142931,-1684863,hydrographic,"Quebrada Telcó","Quebrada Telco",official,15.752071,-89.545802,GT-16,,
-1143599,19182571,settlement,"Xejuyú I","Xejuyu I",official,14.740277,-91.124921,GT-07,,
-1143664,-1685823,settlement,Xetzitzí,Xetzitzi,variant,14.629189,-91.04096,GT-04,,
-1143789,-1686007,settlement,Yucales,Yucales,official,14.407045,-90.967619,GT-04,,
-1143261,-1685316,hydrographic,"Río Tzaljá","Rio Tzalja",official,14.712352,-90.500296,GT-01,,
-1143130,-1685134,hypsographic,"Cerro del Toro","Cerro del Toro",variant,14.526505,-90.305237,GT-01,,
-1143456,-1685565,spot,"Finca Victorias","Finca Victorias",official,14.133333,-91,GT-05,,
-1143192,-1685225,settlement,Tuijonoc,Tuijonoc,official,15.366667,-91.716667,GT-13,,
-1143552,-1672008,hydrographic,"Río Chalcayá","Rio Chalcaya",variant,14.724183,-90.757785,GT-000,,
-1143374,-1679107,settlement,"Los Pérez Mojon","Los Perez Mojon",variant,14.649122,-89.662652,GT-21,,
-1143018,-1684985,hydrographic,"Río Tihuitz","Rio Tihuitz",official,15.216667,-91.416667,GT-13,,
-1143533,-1685657,settlement,"Ware Creek","Ware Creek",variant,15.878138,-89.139861,GT-18,,
-1143767,-1685968,hydrographic,"Río Yerbabuena","Rio Yerbabuena",official,14.680765,-90.858654,GT-04,,
-1143070,19314684,hydrographic,"Quebrada Tisaquín","Quebrada Tisaquin",variant,14.553355,-89.355515,GT-20,,
-1143419,-1685508,settlement,"Vega del Chile","Vega del Chile",official,14.995846,-90.209911,GT-15,,
-1143449,-1685552,settlement,Versalles,Versalles,official,14.610838,-91.716374,GT-11,,
-1143353,-1685425,administrative_region,"Municipio de Usumatlán","Municipio de Usumatlan",official,14.98905,-89.788307,GT-19,,
-1143019,-1684992,spot,"Sitio Arqueológico Tikal","Sitio Arqueologico Tikal",official,17.222106,-89.62357,GT-17,,
-1143522,-1685646,settlement,"Vuelta del Guayacán","Vuelta del Guayacan",official,14.820606,-89.563686,GT-20,,
-1143072,-1685061,settlement,Tizubín,Tizubin,official,14.699467,-89.512154,GT-20,,
-1143083,-1685075,settlement,"Todos Santos Cuchumatán","Todos Santos Cuchumatan",official,15.508462,-91.603819,GT-13,,
-1143247,-1685298,settlement,"Tuticopote Abajo","Tuticopote Abajo",variant,14.711153,-89.343538,GT-20,,
-1143322,-1685387,spot,"Finca Ucubuja","Finca Ucubuja",variant,15.000344,-91.955106,GT-12,,
-1143768,19390413,settlement,"Yiquiche Canan","Yiquiche Canan",variant,15.75473,-90.498528,GT-16,,
-1143732,-1685917,park,"Yaloch Viejo","Yaloch Viejo",official,17.388042,-89.243908,GT-17,,
-1143835,520161,park,"El Zapote","El Zapote",official,13.946389,-90.064722,GT-22,,
-1143430,-1679712,spot,"Molino Venecia","Molino Venecia",variant,14.744611,-90.982176,GT-04,,
-1143471,-1685584,spot,"Finca Villa España","Finca Villa Espana",official,14.489593,-90.539706,GT-01,,
-1143134,14094764,administrative_region,Totonicapán,Totonicapan,official,15,-91.333333,GT-08,,
-1143671,-1685833,settlement,Xiprián,Xiprian,official,14.724879,-91.30865,GT-07,,
-1143538,-1685667,settlement,Xabiyaguach,Xabiyaguach,official,14.896959,-91.082079,GT-14,,
-1142985,-1684947,settlement,"Tierra Blanca","Tierra Blanca",official,14.245015,-89.79052,GT-22,,
-1143798,19376639,settlement,"Finca Yuma","Finca Yuma",official,15.309559,-88.973081,GT-18,,
-1143545,-1685678,park,"Xalabé Quixal","Xalabe Quixal",official,15.483333,-90.516667,GT-16,,
-1143197,-1686008,settlement,Yuinimá,Yuinima,variant,15.118052,-91.882005,GT-12,,
-1143888,19180824,administrative_region,Zunilito,Zunilito,official,14.627722,-91.498652,GT-10,,
-1143569,19295944,settlement,Xabaj,Xabaj,official,15.128604,-90.959406,GT-14,,
-1143167,-1685174,hypsographic,"Puntas de Tres","Puntas de Tres",variant,15.966667,-88.616667,GT-18,,
-1143205,-1685238,hypsographic,"Cerro Tuitzcanel","Cerro Tuitzcanel",variant,14.819597,-91.633386,GT-09,,
-1143666,205915,settlement,Xexocom,Xexocom,official,15.405331,-91.233293,GT-14,,
-1143851,-1686091,spot,"Finca Zaragoza","Finca Zaragoza",official,14.48994,-91.97567,GT-11,,
-1143601,-1685751,settlement,Xejuyub,Xejuyub,official,14.664419,-91.427105,GT-07,,
-1143509,-1685629,settlement,Vitzil,Vitzil,official,16.962087,-89.873856,GT-17,,
-1143434,-1685537,spot,"Finca Venezuela","Finca Venezuela",official,14.806127,-91.801987,GT-12,,
-1143588,-1685736,hydrographic,"Río Xecol","Rio Xecol",official,14.911769,-91.62137,GT-09,,
-1143440,-1685543,spot,"Hacienda Veracruz","Hacienda Veracruz",official,14.15,-91.533333,GT-10,,
-1143627,-1680916,spot,Patzac,Patzac,variant,15.216667,-90.883333,GT-14,,
-1143385,19314776,settlement,"Valle de Los Portillo","Valle de Los Portillo",official,14.608786,-89.487486,GT-20,,
-1142966,-1684920,settlement,Texolbé,Texolbe,official,14.880656,-91.628284,GT-09,,
-1143885,-1686135,administrative_region,"Municipio de Zunil","Municipio de Zunil",official,14.743618,-91.491522,GT-09,,
-1143447,-1685550,spot,"Hacienda Veremos","Hacienda Veremos",official,14.841646,-92.116351,GT-12,,
-1143167,-1679367,hypsographic,"Punta Manabique","Punta Manabique",variant,15.966667,-88.616667,GT-18,,
-1143467,-1685580,settlement,"Finca Villa Ángela","Finca Villa Angela",variant,14.542811,-92.184567,GT-12,,
-1142998,-1684974,settlement,"Tierra Colorado","Tierra Colorado",variant,14.425947,-89.769206,GT-22,,
-1143057,-1685040,settlement,Tisipe,Tisipe,official,14.822124,-89.336406,GT-20,,
-1143326,-1685391,hydrographic,"Quebrada Ujiapa","Quebrada Ujiapa",official,14.294158,-89.672137,GT-22,,
-1143625,-1685781,settlement,Xepatán,Xepatan,official,14.646337,-91.034294,GT-04,,
-1143467,18317251,settlement,"Villa Ángela","Villa Angela",official,14.542811,-92.184567,GT-12,,
-1143612,205911,settlement,Xenaxicul,Xenaxicul,official,15.365213,-91.205573,GT-13,,
-1143347,-1685418,hydrographic,"Río Ushuco","Rio Ushuco",official,14.550726,-89.983014,GT-21,,
-1143383,-1685468,settlement,"Valle de Dolores","Valle de Dolores",official,14.614037,-89.34054,GT-20,,
-1143082,19390407,settlement,"Tutzul Ocula","Tutzul Ocula",variant,15.702314,-90.383361,GT-16,,
-1143559,-1685699,settlement,Xatinap,Xatinap,official,15.003152,-91.152916,GT-14,,
-1143349,19180792,administrative_region,Uspantán,Uspantan,official,15.443929,-90.843978,GT-14,,
-1142986,-1684948,settlement,"Tierra Blanca","Tierra Blanca",official,14.723583,-89.556086,GT-20,,
-1143710,-1685882,hydrographic,"Río Xulá","Rio Xula",official,14.528456,-91.572523,GT-10,,
-1143756,-1685957,settlement,Yaxtunjá,Yaxtunja,official,15.616667,-89.966667,GT-16,,
-1142942,-1684883,settlement,Teninquín,Teninquin,variant,15.28847,-92.071402,GT-13,,
-1143086,17988807,settlement,Tojcaíl,Tojcail,official,15.332234,-91.642368,GT-13,,
-1143573,-1685718,settlement,Xebalamguac,Xebalamguac,official,15.047055,-90.698569,GT-15,,
-1143723,-1685900,settlement,Yalantán,Yalantan,official,15.873501,-91.530275,GT-13,,
-1142995,-1684943,settlement,Tierra,Tierra,variant,15.111316,-91.519183,GT-08,,
-1143091,-1685083,settlement,Tojchiguel,Tojchiguel,official,15.318208,-91.658215,GT-13,,
-1143648,205914,settlement,Xesibacbitz,Xesibacbitz,official,15.383698,-91.111338,GT-14,,
-1143260,-1685314,spot,Tzalcam,Tzalcam,official,15.083333,-90.266667,GT-15,,
-1143079,-1685069,settlement,Tocache,Tocache,official,14.745484,-91.117522,GT-07,,
-1143779,-1685991,hydrographic,"Río Yolhuitz","Rio Yolhuitz",official,16.072605,-91.379924,GT-13,,
-1144279,-1686927,hydrographic,"Quebrada de La Virgen","Quebrada de La Virgen",official,14.350993,-89.559209,S1-000,,
-1143167,-1684922,hypsographic,"Cape Three Points","Cape Three Points",variant,15.966667,-88.616667,GT-18,,
-1143597,19191758,settlement,Xejolóm,Xejolom,variant,14.643417,-91.069769,GT-04,,
-1143676,-1685838,settlement,"Xiquín Sanai","Xiquin Sanai",variant,14.731215,-90.84617,GT-04,,
-1143686,205920,settlement,Xoljuyub,Xoljuyub,variant,15.132824,-91.13725,GT-14,,
-1143193,-1685226,settlement,Tuilá,Tuila,official,15.943538,-89.639983,GT-16,,
-1142990,-1684952,settlement,"Tierra Blanca","Tierra Blanca",official,14.796494,-90.262292,GT-02,,
-1143265,-1685320,settlement,Tzanatzán,Tzanatzan,variant,14.703552,-91.317231,GT-07,,
-1143371,-1685455,hydrographic,"Quebrada Vainillas","Quebrada Vainillas",official,14.928603,-90.260058,GT-02,,
-1143205,19184770,hypsographic,"Cerro Tuitzacanel","Cerro Tuitzacanel",official,14.819597,-91.633386,GT-09,,
-1143867,-1686111,hypsographic,"Cerro Zarzal","Cerro Zarzal",official,14.693883,-89.454193,GT-20,,
-1143688,-1685855,spot,Xolpacol,Xolpacol,variant,15.28332,-91.157148,GT-14,,
-1142995,-1684957,settlement,"Tierra Blanca","Tierra Blanca",official,15.111316,-91.519183,GT-08,,
-1143200,-1685233,spot,Tuininhuitz,Tuininhuitz,variant,14.744848,-91.693604,GT-09,,
-1143071,-1685060,hydrographic,"Pampa Tizatal","Pampa Tizatal",official,14.597948,-92.081158,GT-12,,
-1143833,19309148,hydrographic,"Laguneta El Zapotal","Laguneta El Zapotal",official,16.650585,-89.926459,GT-17,,
-1143731,18373176,spot,"Sitio Arqueológico Yaloch","Sitio Arqueologico Yaloch",official,17.319065,-89.173182,GT-17,,
-1143118,-1685121,settlement,Tontolo,Tontolo,variant,14.61534,-89.279663,GT-20,,
-1143084,19180790,administrative_region,"Todos Santos Cuchumatán","Todos Santos Cuchumatan",official,15.526337,-91.605175,GT-13,,
-1143133,-1685139,settlement,Totonicapán,Totonicapan,official,14.911667,-91.361111,GT-08,,
-1143103,-1685100,park,Tolojate,Tolojate,official,15.45,-91.733333,GT-13,,
-1143307,-1685366,settlement,Tzulá,Tzula,official,15.731775,-91.589155,GT-13,,
-1143745,19752810,settlement,"El Calvario Yaxhá","El Calvario Yaxha",official,15.8905,-89.7496,GT-16,,
-1143549,-1685686,hydrographic,"Río Xalbaquiej","Rio Xalbaquiej",official,14.968363,-91.117566,GT-14,,
-1143817,-1686046,spot,"Finca Zacualpilla","Finca Zacualpilla",official,14.230919,-89.591702,GT-22,,
-1143543,-1685675,hydrographic,"Riachuelo de Xajaxac","Riachuelo de Xajaxac",official,14.799146,-91.146305,GT-07,,
-1143152,-1685171,settlement,"Trece Aguas","Trece Aguas",official,15.4,-89.75,GT-16,,
-1143020,-1684988,settlement,Tikal,Tikal,official,17.225,-89.613333,GT-17,,
-1142914,-1684839,administrative_region,"Municipio de Tecpán Guatemala","Municipio de Tecpan Guatemala",official,14.798603,-91.015149,GT-04,,
-1143793,-1685904,hydrographic,"Río Yalcastén","Rio Yalcasten",variant,16.045263,-91.580377,GT-13,,
-1143483,-1685596,spot,"Finca Villa Linda","Finca Villa Linda",official,14.749641,-91.91335,GT-12,,
-1143718,-1685893,hydrographic,"Río Yabalquix","Rio Yabalquix",official,15.786779,-90.701086,GT-16,,
-1143631,-1685787,hydrographic,"Quebrada de Xepocol","Quebrada de Xepocol",variant,14.968055,-91.116136,GT-14,,
-1143148,-1685165,settlement,Trapichitos,Trapichitos,official,14.576008,-89.718,GT-21,,
-1143715,-1685889,hydrographic,"Quebrada Xururuín","Quebrada Xururuin",official,14.973143,-89.23082,GT-19,,
-1143417,-1685511,settlement,"Vega del Limón","Vega del Limon",official,14.884356,-90.459113,GT-15,,
-1143273,-1685330,hypsographic,"Punta Tzanguacal","Punta Tzanguacal",variant,14.664415,-91.150601,GT-07,,
-1143109,-1685106,settlement,Tomtem,Tomtem,variant,15.514362,-90.189707,GT-16,,
-1143778,-1685990,hydrographic,"Río Yolhuitz","Rio Yolhuitz",official,15.862299,-91.265122,GT-13,,
-1143433,-1685536,spot,"Hacienda Venecia","Hacienda Venecia",official,14.488395,-92.010292,GT-11,,
-1143743,-1685936,settlement,Yat,Yat,official,14.968549,-91.202818,GT-14,,
-1143291,-1685349,hydrographic,"Río Tzehá","Rio Tzeha",variant,15.95,-90.75,GT-14,,
-1142936,-1684875,settlement,Tempisque,Tempisque,official,14.491559,-89.629835,GT-22,,
-1143461,-1685573,settlement,Vilil,Vilil,official,15.854871,-91.650113,GT-13,,
-1143682,-1672621,settlement,Cholá,Chola,variant,15.361547,-90.859571,GT-14,,
-1143495,-1685614,spot,"Finca Virginia","Finca Virginia",official,14.924733,-92.027471,GT-12,,
-1143598,-1685748,settlement,Xejul,Xejul,official,14.788355,-90.978123,GT-04,,
-1143323,-1685388,hydrographic,"Río Ugualchiyut","Rio Ugualchiyut",official,14.756197,-91.320826,GT-07,,
-1143823,-1686052,settlement,"Finca Zaculeu","Finca Zaculeu",official,15.341377,-88.889395,GT-18,,
-1143178,-1685208,settlement,"Tronco del Cedro","Tronco del Cedro",official,14.613807,-90.348344,GT-01,,
-1143256,-1685312,settlement,Tzalanabaj,Tzalanabaj,variant,14.581141,-91.146727,GT-07,,
-1143318,-1685380,settlement,Uaxactún,Uaxactun,official,17.393611,-89.633611,GT-17,,
-1144279,-1686928,hydrographic,"Quebrada de Capichul","Quebrada de Capichul",variant,14.350993,-89.559209,S1-000,,
-1143861,-1686103,hydrographic,"Río Zarsaparilla","Rio Zarsaparilla",variant,15.253883,-89.649022,GT-16,,
-1143102,-1685099,hypsographic,"Volcán Tolimán","Volcan Toliman",official,14.62033,-91.186246,GT-07,,
-1143693,-1685862,hydrographic,"Río Xoncol","Rio Xoncol",official,15.833333,-91.633333,GT-13,,
-1143773,-1685983,hydrographic,"Río Yoláquitac","Rio Yolaquitac",variant,15.846508,-91.564883,GT-13,,
-1142919,-1684847,hydrographic,"Río Teculcheyá","Rio Teculcheya",official,14.857597,-90.876756,GT-04,,
-1143084,-1685076,administrative_region,"Municipio de Todos Santos Cuchumatán","Municipio de Todos Santos Cuchumatan",official,15.526337,-91.605175,GT-13,,
-1143306,-1685365,settlement,Tzuján,Tzujan,official,15.64418,-91.608128,GT-13,,
-1143386,-1685471,spot,"Finca Valle de Oro","Finca Valle de Oro",official,14.543541,-91.293403,GT-10,,
-1143199,-1685232,hypsographic,"Cerro Tuinincantzé","Cerro Tuinincantze",official,14.869409,-91.720374,GT-09,,
-1143793,-1685902,hydrographic,"Río Yalcassen","Rio Yalcassen",variant,16.045263,-91.580377,GT-13,,
-1142994,-1684956,settlement,"Tierra Blanca","Tierra Blanca",official,14.924886,-90.178895,GT-02,,
-1143364,-1676193,settlement,"Hacienda Vado Hondo","Hacienda Vado Hondo",variant,14.283333,-91.533333,GT-10,,
-1143260,-1685315,spot,Tzalcán,Tzalcan,variant,15.083333,-90.266667,GT-15,,
-1143355,18075068,spot,"Ruinas de Utalán","Ruinas de Utalan",variant,15.023457,-91.171881,GT-14,,
-1143120,-1685119,hypsographic,"Cerro de Tontoles","Cerro de Tontoles",variant,14.791585,-89.290082,GT-20,,
-1143505,-1685625,settlement,"Vista Hermosa","Vista Hermosa",official,14.677043,-90.614881,GT-01,,
-1143801,-1686026,hypsographic,"Cerro Yupiltepeque","Cerro Yupiltepeque",official,14.212504,-89.810829,GT-22,,
-1143073,-1685062,settlement,Toacá,Toaca,official,15.207378,-92.011329,GT-12,,
-1143739,19376640,settlement,"Finca Yaqui","Finca Yaqui",official,15.290897,-88.987412,GT-18,,
-1143615,-1685770,settlement,Xenimaquín,Xenimaquin,official,14.758315,-90.917147,GT-04,,
-1143241,-1680838,hypsographic,"Cerro Pascualabaj","Cerro Pascualabaj",variant,14.933322,-91.117326,GT-14,,
-1143277,-1685334,hydrographic,"Río Tzanixnam","Rio Tzanixnam",variant,14.928699,-91.181706,GT-14,,
-1143446,-1685549,hydrographic,"Zanjón Verdún","Zanjon Verdun",official,13.976549,-90.325968,GT-06,,
-1143030,-1685007,settlement,Timuxán,Timuxan,variant,14.721237,-89.178426,GT-20,,
-1143424,-1685527,spot,Velázquez,Velazquez,variant,14.273524,-90.997425,GT-05,,
-1143397,-1685485,spot,"Finca Vaquil","Finca Vaquil",variant,14.459431,-91.717111,GT-11,,
-1143794,205933,park,Yulchén,Yulchen,official,15.878221,-91.44529,GT-13,,
-1143476,-1685589,settlement,"Villa Hermosa","Villa Hermosa",official,14.92044,-91.819235,GT-12,,
-1143232,-1685278,hydrographic,"Río Túnico","Rio Tunico",official,15.578918,-89.127017,GT-18,,
-1143650,-1685808,settlement,Xesuc,Xesuc,official,14.916275,-91.423986,GT-08,,
-1143515,-1685637,spot,"Sitio Arqueológico Volantún","Sitio Arqueologico Volantun",variant,17.2,-89.6,GT-17,,
-1143876,-1686122,settlement,Zompopero,Zompopero,official,14.418911,-91.705877,GT-11,,
-1143486,-1685599,spot,"Finca Villa Luz","Finca Villa Luz",official,14.554752,-90.496765,GT-01,,
-1143309,-1685368,hypsographic,"Cerro Tzuluj","Cerro Tzuluj",official,14.690845,-90.689565,GT-03,,
-1143881,-1686130,park,Zorrillo,Zorrillo,official,14.509986,-89.699545,GT-21,,
-1143454,-1685560,hydrographic,"Estero Victoria","Estero Victoria",official,14.091756,-91.601319,GT-10,,
-1143549,-1682087,hydrographic,"Río Sacmequená","Rio Sacmequena",variant,14.968363,-91.117566,GT-14,,
-1143153,-1685172,hydrographic,"Río Trece Aguas","Rio Trece Aguas",official,15.804018,-89.945035,GT-16,,
-1143852,-1686093,administrative_region,"Municipio de Zaragoza","Municipio de Zaragoza",official,14.679889,-90.882924,GT-04,,
-1142960,-1684911,spot,"Hacienda Tesalia","Hacienda Tesalia",official,14.24751,-91.098924,GT-05,,
-1143182,19413590,hydrographic,"Río Tubá Creek","Rio Tuba Creek",official,15.89781,-89.162378,GT-18,,
-1143526,-1685650,settlement,"Vuelta Grande","Vuelta Grande",official,14.812115,-90.53757,GT-01,,
-1143276,-1685333,settlement,Tzanixnam,Tzanixnam,official,14.918772,-91.202127,GT-08,,
-1143502,-1685622,spot,"Finca Vista Bella","Finca Vista Bella",official,14.011365,-90.892897,GT-05,,
-1143226,-1685272,spot,"Finca Tunalito El Espino","Finca Tunalito El Espino",official,15.99266781,-91.75617002,GT-13,,
-1143114,-1685111,settlement,Tonicoj,Tonicoj,official,15.67587,-90.085979,GT-16,,
-1143610,-1685761,settlement,Xémal,Xemal,official,15.486923,-90.966639,GT-14,,
-1143080,-1685070,settlement,Tocache,Tocache,variant,14.959957,-91.960379,GT-12,,
-1143191,-1685222,settlement,Tuicoch,Tuicoch,variant,15.349231,-92.116213,GT-12,,
-1143101,-1685098,spot,"Finca Tolimán","Finca Toliman",official,14.116352,-91.485403,GT-05,,
-1143142,-1685155,settlement,"Trapiche Vargas","Trapiche Vargas",official,14.338393,-89.639127,GT-22,,
-1143269,-1685324,hypsographic,"Punta Tzanchalí","Punta Tzanchali",official,14.675411,-91.166258,GT-07,,
-1143107,-1685104,spot,"Hacienda Tomatales","Hacienda Tomatales",official,14.5,-91.916667,GT-11,,
-1143244,19523538,spot,"Finca Tusamates","Finca Tusamates",official,14.220892,-89.570348,GT-22,,
-1143516,-1685638,settlement,Volcán,Volcan,official,15.211454,-89.285254,GT-19,,
-1143115,-1685112,settlement,Tonquín,Tonquin,variant,14.508559,-91.41335,GT-10,,
-1143251,19140295,settlement,Tuichpech,Tuichpech,official,14.854523,-91.632552,GT-09,,
-1142950,-1684893,spot,"Hacienda Tepeyac","Hacienda Tepeyac",variant,14.137199,-90.658696,GT-05,,
-1143164,-1685187,settlement,"Tres Pinos","Tres Pinos",official,14.925788,-89.66023,GT-19,,
-1143744,-1685937,hydrographic,"Río Yatzá","Rio Yatza",official,14.636023,-91.389312,GT-000,,
-1143677,205916,settlement,Xix,Xix,official,15.472168,-91.095649,GT-14,,
-1142971,-1684932,hypsographic,"Cerro Ticanchán","Cerro Ticanchan",official,14.861562,-89.429939,GT-20,,
-1143082,-1685072,settlement,Tocolá,Tocola,variant,15.702314,-90.383361,GT-16,,
-1143775,-1685985,hypsographic,"Cerro Yolcultac","Cerro Yolcultac",variant,15.860852,-91.507228,GT-13,,
-1143708,-1684415,settlement,Shulá,Shula,variant,14.826255,-92.07138,GT-12,,
-1143714,-1685888,settlement,Xulú,Xulu,official,15.259302,-92.09896,GT-12,,
-1143850,-1686090,settlement,Zaragoza,Zaragoza,official,14.649684,-90.890343,GT-04,,
-1143622,19286895,settlement,Paxepanil,Paxepanil,official,14.846268,-90.9695,GT-04,,
-1143824,-1686053,hydrographic,"Quebrada de Zaculeu","Quebrada de Zaculeu",official,14.850308,-91.01747,GT-04,,
-1143317,-1685381,spot,"Sitio Arqueológico Uaxactún","Sitio Arqueologico Uaxactun",official,17.395139,-89.638999,GT-17,,
-1143599,-1685749,settlement,Xejuyú,Xejuyu,variant,14.740277,-91.124921,GT-07,,
-1143797,17972445,settlement,Altamira,Altamira,official,15.863056,-91.165278,GT-13,,
-1143172,-1685196,hydrographic,"Zanjón Tres Vueltas","Zanjon Tres Vueltas",official,14.166667,-90.983333,GT-05,1,
-1142933,-1684865,settlement,Telená,Telena,official,14.843803,-91.609476,GT-09,,
-1143286,-1685343,spot,"Finca Tzantziapa","Finca Tzantziapa",official,14.676607,-91.246931,GT-07,,
-1143085,-1685079,settlement,Tojalic,Tojalic,official,14.839739,-91.654335,GT-09,,
-1143398,-1685487,settlement,Vaquilito,Vaquilito,official,14.4781,-91.708775,GT-11,,
-1143754,-1676503,hydrographic,"Arroyo Ixtuncía","Arroyo Ixtuncia",variant,16.567844,-90.283116,GT-17,,
-1143877,-1686123,settlement,Zompopero,Zompopero,official,14.987175,-89.402505,GT-19,,
-1143359,-4851854,hypsographic,"Vaca Plateau","Vaca Plateau",official,16.676944,-89.0925,GT-000,,
-1143488,-1685601,spot,"Finca Villa Mélida","Finca Villa Melida",official,14.034681,-90.809936,GT-05,,
-1143591,-1685739,settlement,Xecoxol,Xecoxol,official,14.864234,-90.983243,GT-04,,
-1143186,-1685217,administrative_region,"Municipio de Tucurú","Municipio de Tucuru",official,15.300819,-90.072399,GT-16,,
-1143762,-1676212,settlement,"Hierba Buena","Hierba Buena",variant,14.646135,-90.111135,GT-01,,
-1144602,-1687706,hydrographic,"Rio Cumapa","Rio Cumapa",variant,14.226192,-89.522945,S1-000,,
-1143472,-1685585,spot,"Hacienda Villa Gloria","Hacienda Villa Gloria",official,13.923889,-90.874444,GT-05,,
-1143265,19183860,settlement,Montecristo,Montecristo,official,14.703552,-91.317231,GT-07,,
-1143277,19155115,hydrographic,"Río de Tzanixam","Rio de Tzanixam",official,14.928699,-91.181706,GT-14,,
-1143686,18068854,settlement,Xoliuyub,Xoliuyub,official,15.132824,-91.13725,GT-14,,
-1143688,-1685857,spot,"Sitio Arqueológico Xolpocol","Sitio Arqueologico Xolpocol",official,15.28332,-91.157148,GT-14,,
-1143338,-1685407,settlement,Urbina,Urbina,official,14.855273,-91.459894,GT-09,,
-1143888,-1686138,administrative_region,"Municipio de Zunilito","Municipio de Zunilito",official,14.627722,-91.498652,GT-10,,
-1143780,205930,settlement,"Yolhuitz Grande","Yolhuitz Grande",official,15.92251,-91.319167,GT-13,,
-1143236,-1685282,hydrographic,"Río Tupilaj","Rio Tupilaj",official,14.858558,-90.862538,GT-04,,
-1143218,-1685258,settlement,Tulumaje,Tulumaje,official,14.926623,-90.032649,GT-02,,
-1143886,-1686136,hypsographic,"Volcán Zunil","Volcan Zunil",variant,14.739959,-91.450011,GT-000,,
-1143058,-1685041,hydrographic,"Quebrada de Tisipe","Quebrada de Tisipe",official,14.816667,-89.35,GT-20,,
-1143701,-1685871,settlement,Xoxtac,Xoxtac,official,15.83692,-91.663344,GT-13,,
-1143220,-1685256,settlement,Tulumagillo,Tulumagillo,variant,14.926196,-90.047137,GT-02,,
-1143158,-1685181,spot,"Tres Islas","Tres Islas",official,16.2,-90.05,GT-17,,
-1143480,-1685593,spot,"Finca Villa Laura","Finca Villa Laura",official,14.408928,-90.698769,GT-05,,
-1142977,-1684938,spot,"Finca Ticantó Orellana","Finca Ticanto Orellana",official,14.814985,-89.52092,GT-20,,
-1143216,-1685254,spot,"Finca Tululá","Finca Tulula",official,14.504614,-91.58407,GT-11,,
-1142920,-1684848,settlement,Teculután,Teculutan,official,14.989011,-89.719362,GT-19,,
-1143779,-1685907,hydrographic,"Río Yalhuitz","Rio Yalhuitz",variant,16.072605,-91.379924,GT-13,,
-1143162,-1685185,settlement,"Tres Naciones","Tres Naciones",official,16.974571,-89.753948,GT-17,,
-1143580,-1685727,settlement,Xecanchavox,Xecanchavox,official,14.908704,-91.436758,GT-08,,
-1143862,-1686105,hydrographic,"Río Zarza","Rio Zarza",official,14.545631,-91.459918,GT-10,,
-1143083,-1673292,settlement,Cuchumatan,Cuchumatan,variant,15.508462,-91.603819,GT-13,,
-1143584,-1685731,settlement,Xecohíl,Xecohil,variant,14.777949,-90.949628,GT-04,,
-1143330,-1685395,hydrographic,"Quebrada Uluminas","Quebrada Uluminas",official,14.506799,-89.521784,GT-20,,
-1143426,-1685528,settlement,Venecia,Venecia,official,14.804813,-89.777707,GT-19,,
-1143530,-1685654,hydrographic,"Pampa Vueltas de San Juan","Pampa Vueltas de San Juan",official,14.592738,-92.057912,GT-09,,
-1143251,-1685302,settlement,Tuxipech,Tuxipech,variant,14.854523,-91.632552,GT-09,,
-1143105,-1685102,settlement,"Toma de Agua","Toma de Agua",official,14.874433,-89.280928,GT-20,,
-1143772,-1685982,settlement,Yoláquitac,Yolaquitac,official,15.831245,-91.547898,GT-13,,
-1143228,-1685263,settlement,Tumayac,Tumayac,variant,15.04701,-91.445761,GT-08,,
-1143816,-1686045,administrative_region,"Municipio de Zacualpa","Municipio de Zacualpa",official,15.089884,-90.881236,GT-14,,
-1143785,-1686000,park,Yolsinís,Yolsinis,variant,15.852945,-91.530539,GT-13,,
-1143747,-1685943,spot,"Finca Yaxcabnal","Finca Yaxcabnal",variant,15.716667,-90.483333,GT-16,,
-1143763,-1685964,settlement,Yerbabuena,Yerbabuena,official,14.738097,-89.916472,GT-21,,
-1143037,-1685011,hydrographic,"Río Tinajas","Rio Tinajas",official,14.40454,-92.026911,GT-11,,
-1143513,-1685634,settlement,Vixbén,Vixben,variant,15.034883,-91.65514,GT-09,,
-1143885,19180823,administrative_region,Zunil,Zunil,official,14.743618,-91.491522,GT-09,,
-1143017,-1684984,hydrographic,"Río Tigre","Rio Tigre",official,14.561305,-91.362281,GT-10,,
-1143096,-1685093,settlement,"Toj Guavil","Toj Guavil",variant,14.908085,-91.706815,GT-09,,
-1143737,-1685925,park,Yaltutú,Yaltutu,official,16.833333,-89.466667,GT-17,,
-1143513,17998299,settlement,Vixben,Vixben,official,15.034883,-91.65514,GT-09,,
-1143419,-1685515,settlement,"Vegas del Chile","Vegas del Chile",variant,14.995846,-90.209911,GT-15,,
-1143470,-1685583,administrative_region,"Municipio de Villa Canales","Municipio de Villa Canales",official,14.386298,-90.51409,GT-01,,
-1143078,-1685068,hydrographic,"Zanjón Tocá","Zanjon Toca",official,14.761561,-92.129668,GT-12,,
-1143477,-1685590,spot,"Finca Villa Hermosa","Finca Villa Hermosa",official,14.773321,-91.826977,GT-12,,
-1143064,-1685049,hydrographic,"Quebrada Tituque","Quebrada Tituque",official,14.731265,-89.286234,GT-20,,
-1143249,-1685300,hydrographic,"Tu-Tu Creek","Tu-Tu Creek",official,17.328766,-89.134409,S1-000,,
-1143301,-1685359,hydrographic,"Quebrada Tzocomá","Quebrada Tzocoma",official,14.966667,-91.133333,GT-14,,
-1143007,-1684969,settlement,"Tierra Colorada","Tierra Colorada",official,14.989757,-89.5087,GT-19,,
-1143296,19181908,hypsographic,"Islote Tzilinabaj","Islote Tzilinabaj",official,14.673344,-91.178277,GT-07,,
-1143027,-1684999,settlement,Timax,Timax,official,16.01203,-89.249342,GT-17,,
-1143581,-1685728,settlement,Xecaquixcán,Xecaquixcan,official,14.817569,-91.372334,GT-07,,
-1143655,19140314,settlement,Xetabiljoj,Xetabiljoj,official,14.929777,-91.594984,GT-09,,
-1143537,-1685666,hydrographic,"Río Xab","Rio Xab",official,14.51913,-91.788044,GT-11,,
-1143182,-1685213,hydrographic,"Río Tuba Creek","Rio Tuba Creek",variant,15.89781,-89.162378,GT-18,,
-1143491,-1685604,administrative_region,"Municipio de Villa Nueva","Municipio de Villa Nueva",official,14.536081,-90.603366,GT-01,,
-1143362,-1685444,spot,"Estación Vado Ancho","Estacion Vado Ancho",official,14.713472,-92.025425,GT-09,,
-1143344,-1685415,hydrographic,"Quebrada Uruguay","Quebrada Uruguay",official,14.895179,-89.818974,GT-19,,
-1143087,-1685081,settlement,Tojcham,Tojcham,official,14.847882,-91.638495,GT-09,,
-1143843,-1686083,hydrographic,"Río Zapote","Rio Zapote",official,14.684446,-90.510535,GT-01,,
-1143579,-1685726,settlement,Xecam,Xecam,official,14.810831,-91.429499,GT-09,,
-1143651,-1685809,settlement,Xesuj,Xesuj,official,14.764269,-90.792297,GT-04,,
-1143600,-1685750,settlement,Xejuyú,Xejuyu,official,14.790359,-90.774314,GT-04,,
-1142983,-1684945,settlement,"Tierra Blanca","Tierra Blanca",official,13.993231,-90.10393,GT-22,,
-1143319,-1685382,spot,Ucanal,Ucanal,variant,16.847003,-89.357982,GT-17,,
-1143819,-1686043,settlement,Zacualpa,Zacualpa,variant,14.40188,-89.729728,GT-22,,
-1143538,-1685721,settlement,Xebillaguach,Xebillaguach,variant,14.896959,-91.082079,GT-14,,
-1142964,-1684918,park,Texcoco,Texcoco,official,17.133333,-91.183333,GT-17,,
-1142925,-1684854,hydrographic,"Quebrada Tecusiate","Quebrada Tecusiate",official,14.432619,-89.519844,GT-22,,
-1143790,-1686010,settlement,Yulachequé,Yulacheque,official,15.8,-91.383333,GT-13,,
-1144279,-1690834,hydrographic,"Río La Virgen","Rio La Virgen",variant,14.350993,-89.559209,S1-000,,
-1143698,-1685868,park,Xoxit,Xoxit,official,15.516667,-91.216667,GT-14,,
-1143796,-1686018,hydrographic,"Río Yulconob","Rio Yulconob",official,15.75,-91.25,GT-13,,
-1143724,-1685901,settlement,Yalcachimbá,Yalcachimba,official,16.542478,-90.223596,GT-17,,
-1143875,510967,hydrographic,Zin,Zin,variant,14.598848,-92.013521,GT-09,,
-1143592,-1685740,hydrographic,"Quebrada de Xecoxol","Quebrada de Xecoxol",variant,14.885615,-90.954505,GT-04,,
-1143839,-1686079,hydrographic,"Quebrada del Zapote","Quebrada del Zapote",official,14.602115,-89.339139,GT-20,,
-1143625,19186183,settlement,"San José Xepatán","San Jose Xepatan",variant,14.646337,-91.034294,GT-04,,
-1142938,-1684879,settlement,Temux,Temux,official,15.755241,-91.515867,GT-13,,
-1143629,19183862,settlement,Xepiacual,Xepiacual,variant,14.81263,-91.364468,GT-07,,
-1143209,-1685243,hydrographic,"Laguneta del Tul","Laguneta del Tul",official,14.822794,-90.723647,GT-04,,
-1143562,-1685703,settlement,Xayá,Xaya,official,14.25,-91.133333,GT-05,,
-1142587,-1684384,park,Setok,Setok,official,16.316667,-90.233333,GT-17,,
-1143282,-1685339,settlement,Tzanmucubal,Tzanmucubal,official,14.766667,-91.483333,GT-09,,
-1143702,-1671983,settlement,Chajaneb,Chajaneb,variant,15.4,-90.216667,GT-16,,
-1143177,-1685207,hydrographic,"Río Trompillo","Rio Trompillo",official,14.65,-92.016667,GT-09,,
-1143541,-1685673,park,Xailac,Xailac,official,15.95,-91.316667,GT-13,,
-1143112,-1685109,hydrographic,"Río Tonajuyú","Rio Tonajuyu",official,14.741318,-90.799323,GT-04,,
-1143311,-1685371,settlement,Tzuná,Tzuna,official,15.648235,-91.655004,GT-13,,
-1143431,-1685533,spot,"Finca Venecia","Finca Venecia",official,14.797316,-91.862522,GT-12,,
-1143448,-1685551,hydrographic,"Río Veremos","Rio Veremos",official,14.762879,-91.913803,GT-12,,
-1143293,-1685351,hydrographic,"Río Tzequisá","Rio Tzequisa",official,14.499015,-91.484843,GT-10,,
-1143873,-1686118,settlement,Zelandia,Zelandia,official,14.939155,-92.01322,GT-12,,
-1143861,19538069,hydrographic,"Río Zarzaparilla","Rio Zarzaparilla",official,15.253883,-89.649022,GT-16,,
-1143863,-1686106,hydrographic,"Río Zarza","Rio Zarza",official,14.316667,-90.95,GT-05,1,
-1143089,-1685084,hypsographic,"Cerro Tojchij","Cerro Tojchij",variant,15.180938,-92.021615,GT-12,,
-1143489,-1674489,settlement,"El Matilisguate Segundo","El Matilisguate Segundo",variant,14.345238,-89.788854,GT-22,,
-1143096,-1685092,settlement,"Toj Guabil","Toj Guabil",official,14.908085,-91.706815,GT-09,,
-1143379,-1685463,settlement,Valeriano,Valeriano,official,14.412243,-89.506888,GT-20,,
-1143837,19137362,spot,"Finca El Zapote","Finca El Zapote",official,14.926965,-91.911112,GT-12,,
-1143853,-1686094,hydrographic,"Río Zarbabal","Rio Zarbabal",official,14.796512,-91.221857,GT-07,,
-1143343,-1685414,hydrographic,"Quebrada Uruguay","Quebrada Uruguay",official,14.9,-89.75,GT-19,,
-1143416,-1685513,settlement,"Vega del Volcán","Vega del Volcan",variant,14.965418,-89.710675,GT-19,,
-1143814,-1686042,hydrographic,"Quebrada Zacateros","Quebrada Zacateros",official,14.382974,-89.592673,GT-22,,
-1143357,-1685434,hypsographic,"Cerro de Uyús","Cerro de Uyus",variant,14.945391,-89.8279,GT-02,,
-1143295,-1685353,hypsographic,"Cerro Tzijbachaj","Cerro Tzijbachaj",official,14.796245,-91.358547,GT-07,,
-1143572,-1685716,hydrographic,"Riachuelo Xeaj","Riachuelo Xeaj",variant,14.957112,-91.530378,GT-08,,
-1142926,-1684855,settlement,Tehuana,Tehuana,official,15.252538,-89.028941,GT-18,,
-1143822,-1686051,settlement,Zaculeu,Zaculeu,official,15.326677,-91.496101,GT-13,,
-1143708,-1685880,settlement,Xulá,Xula,official,14.826255,-92.07138,GT-12,,
-1143186,-1683263,administrative_region,"Municipio de San Miguel Tucurú","Municipio de San Miguel Tucuru",variant,15.300819,-90.072399,GT-16,,
-1142930,-1684862,administrative_region,"Municipio de Tejutla","Municipio de Tejutla",official,15.156382,-91.824566,GT-12,,
-1143289,-1685346,spot,"Finca Tzarayá","Finca Tzaraya",variant,14.749498,-91.124252,GT-07,,
-1143821,-1686050,settlement,Zaculeu,Zaculeu,official,14.838182,-91.0301,GT-04,,
-1143720,205923,settlement,Yajaucú,Yajaucu,variant,15.6067,-91.350949,GT-13,,
-1143383,-1673452,settlement,Dolores,Dolores,variant,14.614037,-89.34054,GT-20,,
-1143157,-1685180,settlement,"Tres Cruces","Tres Cruces",official,15.008573,-90.685312,GT-14,,
-1143504,-1685624,spot,"Granja Vista Bella","Granja Vista Bella",official,14.68197,-90.688302,GT-03,,
-1143493,19577015,hydrographic,"Río de La Virgen","Rio de La Virgen",official,14.283114,-89.855659,GT-22,,
-1143673,-1685835,hypsographic,"Cerro Xiquichó","Cerro Xiquicho",official,14.711177,-91.329191,GT-07,,
-1143735,-1685923,settlement,Yaltoyas,Yaltoyas,official,16.031198,-91.598355,GT-13,,
-1143657,-1685815,settlement,Xetinamit,Xetinamit,official,14.786462,-91.372193,GT-07,,
-1143450,-1685553,spot,"Finca Versalles","Finca Versalles",official,14.15,-90.883333,GT-05,,
-1143703,-1685875,hypsographic,"Sierra Xucaneb","Sierra Xucaneb",variant,15.366667,-90.233333,GT-16,,
-1143319,19310896,spot,"Sitio Arqueológico Ucanal Uno","Sitio Arqueologico Ucanal Uno",official,16.847003,-89.357982,GT-17,,
-1142915,-1684843,settlement,Tectitlan,Tectitlan,variant,15.306299,-92.060514,GT-13,,
-1143783,-1685995,hydrographic,"Laguna Yolnabaj","Laguna Yolnabaj",variant,16.055116,-91.570594,GT-13,,
-1142975,-1684936,hypsographic,"Cerro Ticanor","Cerro Ticanor",official,14.708798,-89.369568,GT-20,,
-1143706,-1685878,settlement,Xujchay,Xujchay,official,15.216667,-92.033333,GT-12,,
-1143626,-1685782,settlement,Xepatuj,Xepatuj,official,14.847299,-91.318588,GT-07,,
-1143496,-1685615,spot,"Hacienda Virginia","Hacienda Virginia",official,14.15,-90.65,GT-05,,
-1143333,-1685398,hydrographic,"Río Umay","Rio Umay",official,14.409063,-91.459322,GT-10,,
-1143536,-1685665,settlement,Xab,Xab,official,14.583824,-91.775228,GT-11,,
-1143517,-1685639,settlement,Volcán,Volcan,variant,14.885516,-89.344177,GT-20,,
-1143819,-1686048,settlement,Zacuapa,Zacuapa,official,14.40188,-89.729728,GT-22,,
-1143848,-1686088,administrative_region,"Municipio de Zapotitlán","Municipio de Zapotitlan",official,14.111224,-89.817365,GT-22,,
-1142958,-1684908,settlement,Terrero,Terrero,official,15.000628,-89.499038,GT-19,,
-1143031,-1685003,settlement,Timushán,Timushan,official,14.920542,-89.329538,GT-19,,
-1143506,-1685626,settlement,"Vista Hermosa","Vista Hermosa",official,14.95,-90.216667,GT-02,,
-1143436,19191313,settlement,"Ventana Abaj Uno","Ventana Abaj Uno",variant,14.821314,-91.254745,GT-07,,
-1142939,-1684880,settlement,Tenedores,Tenedores,official,15.558882,-88.627456,GT-18,,
-1143252,-1685305,settlement,Tzábal,Tzabal,official,15.418695,-91.540366,GT-13,,
-1143762,19287157,settlement,Hierbabuena,Hierbabuena,variant,14.646135,-90.111135,GT-01,,
-1143297,19295943,settlement,Tzumalzatz,Tzumalzatz,variant,15.072364,-90.917152,GT-14,,
-1143341,-1675452,park,"El Uruguay","El Uruguay",variant,14.8763,-89.840167,GT-19,,
-1143796,-1686017,hydrographic,"Río Yulcono","Rio Yulcono",variant,15.75,-91.25,GT-13,,
-1143786,-1686001,settlement,Yoltenam,Yoltenam,official,15.788622,-91.527384,GT-13,,
-1143012,-1684975,spot,"Hacienda Tierra Fría","Hacienda Tierra Fria",official,13.975278,-90.513333,GT-06,,
-1143752,-1685940,hydrographic,"Lago Yaxá","Lago Yaxa",variant,17.066499,-89.409081,GT-17,,
-1142993,-1684955,settlement,"Tierra Blanca","Tierra Blanca",official,14.886072,-89.258686,GT-20,,
-1143570,19171140,settlement,"Xeabaj II","Xeabaj II",official,14.915684,-91.178052,GT-14,,
-1143735,-1685922,settlement,Yaltoyá,Yaltoya,variant,16.031198,-91.598355,GT-13,,
-1142586,-1684383,settlement,Setoc,Setoc,official,15.725329,-90.112287,GT-16,,
-1143325,-1685390,hydrographic,"Río Ugualxucubé","Rio Ugualxucube",official,14.801212,-91.320896,GT-07,,
-1143281,-1685338,settlement,Tzanjuyub,Tzanjuyub,official,14.760549,-91.428959,GT-07,,
-1143663,-1685821,settlement,Xetzampual,Xetzampual,official,14.814778,-91.274138,GT-07,,
-1143005,-1684967,settlement,"Tierra Colorada","Tierra Colorada",official,14.796929,-91.558215,GT-09,,
-1142913,-1684835,settlement,Tecpán,Tecpan,variant,14.761809,-90.992474,GT-04,,
-1143041,-1685019,hydrographic,"Río Tinto","Rio Tinto",official,15.670325,-88.321921,S1-000,,
-1143404,-1685495,hydrographic,"Quebrada del Varillo","Quebrada del Varillo",official,14.638751,-89.667799,GT-20,,
-1144279,-1693876,hydrographic,"Quebrada de la Virgen","Quebrada de la Virgen",variant,14.350993,-89.559209,S1-000,,
-1143097,-1685094,settlement,Tojmech,Tojmech,official,14.81188,-91.649247,GT-09,,
-1143211,-1675436,settlement,"El Tulate","El Tulate",official,14.158017,-91.713438,GT-11,,
-1143230,-1685276,hypsographic,"Cerro Tuncaj","Cerro Tuncaj",official,14.960837,-90.583106,GT-15,,
-1143216,-1682423,spot,"Finca San Antonio Tululá","Finca San Antonio Tulula",variant,14.504614,-91.58407,GT-11,,
-1143394,519542,spot,"Hacienda Valparaíso","Hacienda Valparaiso",official,13.9055,-90.235653,GT-06,,
-1143812,-1686039,hypsographic,"Punta Zacatal","Punta Zacatal",official,15.861045,-88.865178,GT-18,,
-1143611,-1685762,settlement,Xenacoch,Xenacoch,official,14.669607,-90.634869,GT-01,,
-1143110,-1685107,hydrographic,"Río Toná","Rio Tona",official,14.606794,-91.654695,GT-000,,
-1143713,-1685887,spot,"Sitio Arqueológico Xultún","Sitio Arqueologico Xultun",variant,17.5,-89.4,GT-17,,
-1143798,-1686023,settlement,Yuma,Yuma,variant,15.309559,-88.973081,GT-18,,
-1143866,-1686109,settlement,Zarzal,Zarzal,variant,14.781179,-89.43227,GT-20,,
-1142965,-1684919,settlement,Texcuaco,Texcuaco,official,14.073847,-91.224588,GT-05,,
-1142972,-1684933,settlement,Ticanlú,Ticanlu,official,14.716667,-89.466667,GT-20,,
-1143175,-1685201,settlement,"Tripa de Gallina","Tripa de Gallina",official,15.866667,-89.066667,GT-18,,
-1143187,-1685218,hypsographic,"Cerro Tuicacaix","Cerro Tuicacaix",official,14.852357,-91.662708,GT-09,,
-1143652,-1685810,hydrographic,"Río Xesuj","Rio Xesuj",official,14.730356,-91.231313,GT-07,,
-1143236,19286375,hydrographic,"Río Tupitaj","Rio Tupitaj",variant,14.858558,-90.862538,GT-04,,
-1142957,-1684906,settlement,Terrero,Terrero,variant,14.839737,-89.470302,GT-20,,
-1143284,-1685341,hypsographic,"Punta Tzansuj","Punta Tzansuj",official,14.724041,-91.243202,GT-07,,
-1143797,205934,settlement,Yulmacap,Yulmacap,variant,15.863056,-91.165278,GT-13,,
-1143551,-1685688,hydrographic,"Río Xalihá","Rio Xaliha",variant,15.516667,-90.083333,GT-16,1,
-1143023,-1684931,hydrographic,"Río Tical","Rio Tical",variant,17.708942,-89.323946,GT-17,,
-1143848,19180821,administrative_region,Zapotitlán,Zapotitlan,official,14.111224,-89.817365,GT-22,,
-1143647,19288718,settlement,Xesara,Xesara,official,14.821915,-90.944893,GT-04,,
-1143259,205907,settlement,Tzalbal,Tzalbal,official,15.450478,-91.210113,GT-14,,
-1143245,-1685294,hydrographic,"Río Tusumates","Rio Tusumates",variant,14.221676,-89.552322,GT-22,,
-1143222,-1685262,hydrographic,"Río Tumalá","Rio Tumala",official,14.912304,-91.62043,GT-09,,
-1143056,-1685039,park,Tisicaba,Tisicaba,official,14.666667,-91.416667,GT-10,,
-1143707,-1685879,settlement,Xulá,Xula,official,14.5,-91.65,GT-11,,
-1143149,-1685160,settlement,Trapichito,Trapichito,official,14.766868,-89.271233,GT-20,,
-1143320,-1684565,hydrographic,"Arroyo Sucanal","Arroyo Sucanal",variant,16.283333,-89.966667,GT-17,,
-1143492,19423244,settlement,Vinarios,Vinarios,official,15.309518,-90.063047,GT-16,,
-1143665,-1685825,settlement,Xexac,Xexac,official,14.655602,-91.411065,GT-07,,
-1142980,18025634,settlement,Ticultáj,Ticultaj,official,15.676049,-91.566222,GT-13,,
-1142924,-1684853,settlement,Tecusiate,Tecusiate,official,14.44203,-89.544085,GT-22,,
-1143094,-1685090,settlement,Tojcomán,Tojcoman,official,14.813401,-91.66598,GT-09,,
-1143401,-1685491,settlement,Varejones,Varejones,official,14.453847,-89.988464,GT-21,,
-1143204,-1685237,settlement,Tuispic,Tuispic,official,15.512282,-91.590596,GT-13,,
-1143184,-1685215,settlement,Tucunel,Tucunel,official,15.20721,-90.917795,GT-14,,
-1143111,-1685108,settlement,Tonajuyú,Tonajuyu,official,14.733404,-90.818586,GT-04,,
-1142961,-1675351,settlement,"El Tesoro","El Tesoro",variant,14.775234,-89.401924,GT-20,,
-1143214,-1685252,hypsographic,"Cerro Tultepeque","Cerro Tultepeque",official,14.324411,-89.720097,GT-22,,
-1143374,-1685458,settlement,Valencia,Valencia,official,14.649122,-89.662652,GT-21,,
-1142927,-1684857,spot,"Hacienda Teja del Toro","Hacienda Teja del Toro",official,13.991667,-90.565556,GT-06,,
-1143407,19688634,spot,"Hacienda Varsovia","Hacienda Varsovia",official,14.029317,-90.912441,GT-05,,
-1143075,-1685064,settlement,Tobar,Tobar,official,14.721562,-89.656536,GT-20,,
-1143359,-1685438,hypsographic,"Vaca Plateau","Vaca Plateau",official,16.676944,-89.0925,GT-000,,
-1143661,-1685819,settlement,Xetzac,Xetzac,official,14.784377,-90.98212,GT-04,,
-1143832,-1686064,settlement,Zapotal,Zapotal,official,14.985993,-89.206629,GT-19,,
-1143271,-1685328,hypsographic,"Cerro Tzancujil","Cerro Tzancujil",variant,14.728673,-91.249681,GT-07,,
-1143702,-1685873,settlement,Xucaneb,Xucaneb,official,15.4,-90.216667,GT-16,,
-1143163,-1685186,spot,"Finca Tres Piedras","Finca Tres Piedras",official,14.954612,-91.970912,GT-12,,
-1143032,-1685004,hydrographic,"Quebrada Timushán","Quebrada Timushan",variant,14.935197,-89.324667,GT-19,,
-1143731,-1685927,spot,Yaoch,Yaoch,variant,17.319065,-89.173182,GT-17,,
-1143053,-1685036,hydrographic,"Quebrada Tisamarté","Quebrada Tisamarte",official,14.917327,-89.244233,GT-20,,
-1143395,-1685482,spot,"Finca Valparaíso","Finca Valparaiso",official,14.4771,-91.360053,GT-10,,
-1144279,-1686926,hydrographic,"Quebrada Capichul","Quebrada Capichul",official,14.350993,-89.559209,S1-000,,
-1143355,18075375,spot,"Sitio Arqueológico Utatlan Gumarcaj","Sitio Arqueologico Utatlan Gumarcaj",official,15.023457,-91.171881,GT-14,,
-1143656,-1685814,hydrographic,"Río Xetená","Rio Xetena",variant,14.994022,-91.550173,GT-09,,
-1143391,-1685478,settlement,"Valle Nuevo","Valle Nuevo",official,14.67937,-89.290139,GT-20,,
-1143616,-1685771,settlement,Xeococ,Xeococ,official,15.15,-90.55,GT-15,,
-1143523,-1685647,settlement,"Vuelta El Roble","Vuelta El Roble",official,14.745836,-89.443222,GT-20,,
-1143656,19140322,hydrographic,"Río Xetaná","Rio Xetana",official,14.994022,-91.550173,GT-09,,
-1143587,-1685735,settlement,Xecol,Xecol,official,14.918431,-91.620262,GT-09,,
-1143200,-1675113,spot,"El Rosario","El Rosario",variant,14.744848,-91.693604,GT-09,,
-1143287,-1685344,hydrographic,"Río Tzaragmacá","Rio Tzaragmaca",official,14.744121,-91.508872,GT-09,,
-1142923,19183399,hypsographic,"Cerro Tecún Uman","Cerro Tecun Uman",variant,14.829499,-91.495771,GT-09,,
-1143499,-1685618,hydrographic,"Río de Virginia","Rio de Virginia",official,14.675722,-91.745853,GT-09,,
-1143032,-1685005,hydrographic,"Río Timushán","Rio Timushan",official,14.935197,-89.324667,GT-19,,
-1143533,-1685659,settlement,"Warre Creek","Warre Creek",official,15.878138,-89.139861,GT-18,,
-1143357,19642373,hypsographic,"Cerro Uyús","Cerro Uyus",official,14.945391,-89.8279,GT-02,,
-1143567,-1685709,settlement,Xeabaj,Xeabaj,variant,14.915418,-91.164421,GT-14,,
-1143091,-1685086,settlement,Tojchiquel,Tojchiquel,variant,15.318208,-91.658215,GT-13,,
-1143536,-1675475,settlement,"El Xab","El Xab",variant,14.583824,-91.775228,GT-11,,
-1143100,-1685131,settlement,"Toquián Grande","Toquian Grande",official,15.046373,-92.036558,GT-12,,
-1143569,-1685711,settlement,Xeabaj,Xeabaj,variant,15.128604,-90.959406,GT-14,,
-1143370,-1685454,settlement,Vainillas,Vainillas,official,14.939863,-90.263051,GT-02,,
-1143859,-1686100,hydrographic,"Río Zarco","Rio Zarco",official,14.825386,-92.048839,GT-12,,
-1142940,-1684881,hydrographic,"Río Tenedores","Rio Tenedores",official,15.554143,-88.628427,GT-18,,
-1142978,-1684939,settlement,Tichac,Tichac,official,14.705187,-89.23294,GT-20,,
-1143875,-1686120,hydrographic,"Río Zin","Rio Zin",official,14.598848,-92.013521,GT-09,,
-1143129,-1685137,hydrographic,"Río Toroljá","Rio Torolja",variant,14.818893,-89.382041,GT-20,,
-1143703,-1685874,hypsographic,"Cerro Xucaneb","Cerro Xucaneb",official,15.366667,-90.233333,GT-16,,
-1143556,-1685695,hydrographic,"Río de Xaquijyá","Rio de Xaquijya",official,14.80168,-91.201027,GT-07,,
-1143013,-1684976,spot,"Tierra Mojada","Tierra Mojada",variant,16.532212,-90.104669,GT-17,,
-1143291,19736894,hydrographic,"Río Tzejá","Rio Tzeja",official,15.95,-90.75,GT-14,,
-1143699,205922,settlement,Xoxlac,Xoxlac,official,15.993162,-91.353735,GT-13,,
-1143026,-1684997,settlement,Timacté,Timacte,official,15.816667,-91.5,GT-13,,
-1143544,-1685676,hypsographic,"Cerro Xajil","Cerro Xajil",official,14.812494,-91.33198,GT-07,,
-1142950,19311386,spot,"Finca Tepeyac","Finca Tepeyac",official,14.137199,-90.658696,GT-05,,
-1143355,-1685427,spot,Utatlán,Utatlan,variant,15.023457,-91.171881,GT-14,,
-1143215,-1685253,hydrographic,"Río Tulujá","Rio Tuluja",official,14.483333,-90.533333,GT-01,,
-1142946,-1684888,settlement,Tepeaco,Tepeaco,official,14.131684,-90.555385,GT-06,,
-1143552,-1672014,hydrographic,"Río Chaltayá","Rio Chaltaya",variant,14.724183,-90.757785,GT-000,,
-1143470,19180814,administrative_region,"Villa Canales","Villa Canales",official,14.386298,-90.51409,GT-01,,
-1143380,-1685465,settlement,"Valle Abajo","Valle Abajo",official,14.358829,-89.836962,GT-22,,
-1143713,-1685886,spot,Xultún,Xultun,official,17.5,-89.4,GT-17,,
-1143635,-1685792,settlement,Xequel,Xequel,official,14.806962,-91.229238,GT-07,,
-1143335,-1685404,park,Uolantún,Uolantun,official,17.183333,-89.666667,GT-17,,
-1143421,-1685519,settlement,Veguitas,Veguitas,official,14.748277,-89.457237,GT-20,,
-1143461,-1671096,settlement,Bilil,Bilil,variant,15.854871,-91.650113,GT-13,,
-1143125,-1685126,settlement,Toquelá,Toquela,official,15.816667,-89.133333,GT-18,,
-1143491,19180815,administrative_region,"Villa Nueva","Villa Nueva",official,14.536081,-90.603366,GT-01,,
-1143492,-1685607,settlement,Vinaros,Vinaros,variant,15.309518,-90.063047,GT-16,,
-1143025,-1684996,hydrographic,"Río Tilapa","Rio Tilapa",official,14.539753,-91.973253,GT-09,,
-1143414,-1685507,settlement,"Vega del Almendro","Vega del Almendro",variant,14.883333,-90.466667,GT-15,,
-1143462,-1685574,spot,"Finca Villa Adriana","Finca Villa Adriana",official,14.586648,-89.928794,GT-21,,
-1143700,-1685870,hydrographic,"Río Xoxlac","Rio Xoxlac",official,16.040609,-91.340726,GT-13,,
-1143719,-1676528,park,Jahuactal,Jahuactal,variant,17.616667,-89.166667,GT-17,,
-1143086,-1685080,settlement,Tojcail,Tojcail,variant,15.332234,-91.642368,GT-13,,
-1143297,-1685355,settlement,Tzimatzatz,Tzimatzatz,official,15.072364,-90.917152,GT-14,,
-1143465,19137361,spot,"Finca Villa Alicía","Finca Villa Alicia",official,14.934931,-91.907941,GT-12,,
-1143549,19150823,hydrographic,"Río Sepelá","Rio Sepela",variant,14.968363,-91.117566,GT-14,,
-1143270,-1685325,hypsographic,"Punta Tzanchixot","Punta Tzanchixot",official,14.739396,-91.19381,GT-07,,
-1143223,-1685266,park,Tumbo,Tumbo,official,17.616667,-90.15,GT-17,,
-1143790,-1672143,settlement,Chequé,Cheque,variant,15.8,-91.383333,GT-13,,
-1143482,-1685595,spot,"Finca Villa Linda","Finca Villa Linda",official,14.413011,-89.870531,GT-22,,
-1143464,-1685576,settlement,"Villa Alicia","Villa Alicia",official,15.55763,-91.647197,GT-13,,
-1143854,-1686095,hydrographic,"Quebrada Zarca","Quebrada Zarca",official,14.248346,-90.891207,GT-05,,
-1143040,-1685015,settlement,Tintaché,Tintache,variant,15.451862,-90.464703,GT-16,,
-1143283,-1685340,spot,"Finca Tzanpetey","Finca Tzanpetey",official,14.651113,-91.13437,GT-07,,
-1143342,-1685413,settlement,Uruguay,Uruguay,official,14.928633,-90.165877,GT-02,,
