wgdPlaceId,wgdId,type,name,fullName,nameType,latitude,longitude,administrationGroup,isHistorical,isCapital
6340705,6558695,settlement,Hukol,Hukol,official,38.76172897,127.47655917,KP-07,,
6340146,6556881,settlement,Chŏn-gol,Chon-gol,variant,39.4784992,126.51577419,KP-02,,
6340776,6558974,settlement,Kudŏgi,Kudogi,official,39.69012854,127.0422502,KP-08,,
6340259,6557267,hypsographic,오장산,오장산,unknown,38.60483,126.84937,KP-07,,
6340482,6558161,settlement,재궁동,재궁동,unknown,39.438056,127.168807,KP-08,,
6340703,6558692,settlement,하정신리,하정신리,unknown,38.78261688,127.42200683,KP-07,,
6340664,6558614,settlement,삼거리,삼거리,unknown,38.87906729,127.34523079,KP-07,,
6340660,6558606,spot,보문암,보문암,unknown,38.99005076,127.37119409,KP-07,,
6339956,6556376,settlement,서재동,서재동,unknown,38.531389,126.331111,KP-06,,
6340490,6558176,settlement,Ch’imabau,Ch'imabau,official,39.271667,127.185556,KP-07,,
6340375,6557753,hypsographic,마유령,마유령,unknown,38.96886167,126.60402992,KP-000,,
6340744,6558911,settlement,공굴,공굴,unknown,39.54666059,126.94612534,KP-08,,
6340309,6557480,hypsographic,덕련산,덕련산,unknown,39.11329532,126.388162,KP-02,,
6340855,6559328,settlement,소양,소양,unknown,39.1717167,126.90581226,KP-02,,
6340409,6557821,hypsographic,당고개,당고개,unknown,38.796111,126.614722,KP-06,,
6340508,6558212,settlement,Hu-dong,Hu-dong,official,39.45806299,127.03440155,KP-08,,
6340377,6557757,hypsographic,넓은고개,넓은고개,unknown,38.94827897,126.74439542,KP-06,,
6340064,6556717,settlement,Pŏlmal,Polmal,official,39.461111,126.438611,KP-02,,
6340860,6559338,settlement,각정동,각정동,unknown,39.1385444,126.9645367,KP-02,,
6340041,6556546,settlement,구룡동,구룡동,unknown,38.723611,126.5725,KP-06,,
6340918,6559453,spot,Mujik-sa,Mujik-sa,official,39.081389,126.968333,KP-02,,
6340859,6559335,settlement,Okkye-dong,Okkye-dong,official,39.13012894,126.94188174,KP-02,,
6340040,6556543,settlement,Saet’ŏ,Saet'o,official,38.701389,126.574167,KP-06,,
6340065,6556719,settlement,Hamjŏng-gol,Hamjong-gol,variant,39.45290755,126.42002606,KP-02,,
6340474,6557951,settlement,덕골,덕골,unknown,38.958611,126.8525,KP-06,,
6340083,6556755,settlement,Sat’aeul,Sat'aeul,official,39.35306193,126.33751012,KP-02,,
6340545,6558286,spot,Panghwa-yŏk,Panghwa-yok,official,39.43582053,127.14588522,KP-08,,
6340133,6556856,hypsographic,고성산,고성산,unknown,39.41044403,126.56841985,KP-02,,
6340264,6557276,hypsographic,Naenggol-gogae,Naenggol-gogae,official,38.63,126.763889,KP-07,,
6340116,6556821,settlement,Ch’ang-ni,Ch'ang-ni,official,39.37637766,126.54015412,KP-02,,
6340043,6556550,settlement,갈우물동,갈우물동,unknown,38.734167,126.597222,KP-06,,
6340424,6557851,settlement,양지동,양지동,unknown,38.77002403,126.69007244,KP-06,,
6340772,6558966,settlement,Hwajusŏngji,Hwajusongji,official,39.65824353,127.09331263,KP-08,,
6340364,6557590,settlement,화락리,화락리,unknown,39.23056203,126.50390899,KP-02,,
6340328,6557518,settlement,소거리,소거리,unknown,39.09613403,126.30293748,KP-02,,
6340186,6557114,settlement,Kumi,Kumi,official,38.639722,126.729167,KP-07,,
6339959,6556381,settlement,Hoe-dong,Hoe-dong,official,38.516944,126.3,KP-06,,
6339976,6556415,settlement,Pakkegodŭn-gol,Pakkegodun-gol,official,38.506944,126.590556,KP-06,,
6340055,6556573,settlement,Koch’on,Koch'on,official,38.678889,126.590278,KP-06,,
6340483,6558162,settlement,Ch’a-gol,Ch'a-gol,variant,39.40965986,127.10924638,KP-08,,
6340444,6557890,settlement,Kwit’o-dong,Kwit'o-dong,official,38.787222,126.829722,KP-06,,
6340007,6556478,settlement,천곡동,천곡동,unknown,38.610833,126.519722,KP-06,,
6340250,6557249,hypsographic,염대골고개,염대골고개,unknown,38.571111,126.848611,KP-07,,
6340737,6558896,settlement,Sŭngdang-dong,Sungdang-dong,official,39.571944,127.004722,KP-08,,
6340498,6558193,settlement,하촌,하촌,unknown,39.43900223,127.09268597,KP-08,,
6340813,6559048,settlement,Namsŏngmal,Namsongmal,official,39.528333,127.179722,KP-08,,
6340689,6558664,settlement,장평리,장평리,unknown,38.92187478,127.45881942,KP-07,,
6340063,6556716,settlement,도장골,도장골,unknown,39.461944,126.428333,KP-02,,
6340922,6559462,hypsographic,들메골,들메골,unknown,39.203333,126.971389,KP-02,,
6340859,6559336,settlement,옥계동,옥계동,unknown,39.13012894,126.94188174,KP-02,,
6339973,6556409,settlement,Hoedong-ni,Hoedong-ni,official,38.504722,126.558333,KP-06,,
6340383,6557769,settlement,소로골,소로골,unknown,38.90339764,126.69748919,KP-06,,
6340134,6556857,settlement,Anmal,Anmal,official,39.41743863,126.53847566,KP-02,,
6340434,6557870,park,Yaksu-dong,Yaksu-dong,official,38.768056,126.710278,KP-06,,
6340097,6556783,hypsographic,Wŏllak-san,Wollak-san,official,39.281389,126.383611,KP-02,,
6340432,6557867,settlement,동산동,동산동,unknown,38.76623715,126.69336687,KP-06,,
6340277,6557302,settlement,Tongp’o-ri,Tongp'o-ri,official,38.738889,126.762222,KP-06,,
6340587,6558372,settlement,영춘동,영춘동,unknown,39.44431905,127.18254253,KP-08,,
6339995,6556453,settlement,Kaejŏng-dong,Kaejong-dong,official,38.586667,126.560278,KP-06,,
6340872,6559361,settlement,Changp’ae-dong,Changp'ae-dong,official,39.09298305,126.93523004,KP-02,,
6340204,6557150,settlement,Tŏk-tong,Tok-tong,official,38.60166,126.739657,KP-07,,
6340921,6559459,hypsographic,Koch’ik-kol,Koch'ik-kol,official,39.220833,126.994722,KP-08,,
6340730,6558883,park,천화동,천화동,unknown,39.6075,126.99,KP-08,,
6340475,6557953,settlement,생금촌,생금촌,unknown,38.957222,126.773056,KP-06,,
6340382,6557767,settlement,음지동,음지동,unknown,38.9056784,126.63206292,KP-06,,
6340674,6558633,administrative_region,Sŏngp’yŏng-ni,Songp'yong-ni,official,38.77034232,127.30020893,KP-07,,
6340391,6557785,settlement,도원동,도원동,unknown,38.89613863,126.62030463,KP-06,,
6340857,6559331,settlement,Suju-ri,Suju-ri,official,39.157222,126.948611,KP-02,,
6340134,6556858,settlement,안말,안말,unknown,39.41743863,126.53847566,KP-02,,
6340800,6559023,settlement,모래골,모래골,unknown,39.56029268,127.14057241,KP-08,,
6340185,6557112,settlement,Chosanmal,Chosanmal,official,38.630833,126.729722,KP-07,,
6340717,6558856,settlement,Insang-ni,Insang-ni,official,39.67180305,126.93722779,KP-08,,
6340363,6557588,hypsographic,홍군령,홍군령,unknown,39.16761386,126.43059302,KP-02,,
6340188,6557118,settlement,Chungp’o,Chungp'o,official,38.635966,126.704439,KP-07,,
6339947,6556357,hypsographic,Sŭng-san,Sung-san,official,38.586111,126.458611,KP-06,,
6340850,6559318,hypsographic,다대령,다대령,unknown,39.10988396,127.05584124,KP-07,,
6340232,6557210,hypsographic,삼무산,삼무산,unknown,38.51,126.802222,KP-07,,
6340412,6557827,settlement,부평리,부평리,unknown,38.78926355,126.6739341,KP-06,,
6340368,6557598,settlement,회목동,회목동,unknown,39.16035748,126.3621517,KP-02,,
6340481,6558159,park,아직가리,아직가리,unknown,39.298056,127.02,KP-08,,
6340808,6559038,settlement,Sangsal-li,Sangsal-li,official,39.54409816,127.18289152,KP-08,,
6340762,6558947,settlement,방랑동,방랑동,unknown,39.577778,127.038333,KP-000,1,
6340442,6557887,settlement,원포동,원포동,unknown,38.78629644,126.74660945,KP-06,,
6340365,6557591,settlement,Hwail-li,Hwail-li,official,39.24017149,126.5028124,KP-02,,
6340337,6557536,settlement,엽소동,엽소동,unknown,39.0975,126.443889,KP-02,,
6340296,6557453,settlement,Kŭmch’on-dong,Kumch'on-dong,official,39.17395263,126.35444522,KP-02,,
6340715,6558853,park,외동,외동,unknown,39.705833,126.913611,KP-08,,
6340714,6558850,settlement,Sant’aegae,Sant'aegae,official,39.751667,126.964167,KP-08,,
6340645,6558576,hypsographic,광암산,광암산,unknown,38.971944,127.319722,KP-07,,
6340842,6559302,hypsographic,이화대산,이화대산,unknown,39.223611,127.058333,KP-07,,
6340906,6559429,park,Honggŏsagol,Honggosagol,official,39.232778,127.187222,KP-07,,
6340324,6557509,settlement,Samil-li,Samil-li,official,39.1643156,126.44388717,KP-02,,
6340025,6556514,settlement,사이골,사이골,unknown,38.665833,126.486389,KP-06,,
6340344,6557549,settlement,Imun-dong,Imun-dong,official,39.18179236,126.32682289,KP-02,,
6340418,6557839,settlement,황토동,황토동,unknown,38.77259544,126.73189601,KP-06,,
6340825,6559073,settlement,하동,하동,unknown,39.66466809,127.04648263,KP-08,,
6340330,6557522,settlement,송둔동,송둔동,unknown,39.19340208,126.33798692,KP-02,,
6340092,6556774,park,기사동,기사동,unknown,39.278333,126.315833,KP-02,,
6340112,6556813,settlement,Tandunji,Tandunji,official,39.36993287,126.57912395,KP-02,,
6340136,6556862,settlement,쌍용리,쌍용리,unknown,39.42828566,126.57940637,KP-02,,
6340206,6557155,settlement,Sae-mal,Sae-mal,official,38.597381,126.713488,KP-07,,
6340640,6558565,settlement,Kamabau,Kamabau,official,38.96600044,127.43371278,KP-07,,
6340212,6557170,park,입암리,입암리,unknown,38.5925,126.649167,KP-06,,
6340077,6556744,settlement,츨개,츨개,unknown,39.39887393,126.41182176,KP-02,,
6340838,6559294,settlement,응봉리,응봉리,unknown,39.24658746,127.17574638,KP-07,,
6340491,6558178,park,Chŏkkasil-li,Chokkasil-li,official,39.473611,126.951667,KP-08,,
6340299,6557460,settlement,기안,기안,unknown,39.12593503,126.33940955,KP-02,,
6340186,6557115,settlement,구미,구미,unknown,38.639722,126.729167,KP-07,,
6340103,6556796,settlement,구단,구단,unknown,39.264183,126.544719,KP-02,,
6340867,6559352,settlement,서재동,서재동,unknown,39.10792363,126.93546646,KP-02,,
6340812,6559047,settlement,신남리,신남리,unknown,39.534167,127.197222,KP-08,,
6339952,6556367,park,Samham-ni,Samham-ni,official,38.5525,126.390556,KP-06,,
6340660,6558605,spot,Pomun-am,Pomun-am,official,38.99005076,127.37119409,KP-07,,
6340696,6558677,settlement,T’apsŏng-ni,T'apsong-ni,official,38.99345762,127.40766749,KP-07,,
6340583,6558364,settlement,원거로동자구,원거로동자구,unknown,39.4100784,127.00438965,KP-000,1,
6340183,6557109,hypsographic,간칠봉,간칠봉,unknown,38.656111,126.739444,KP-06,,
6340728,6558878,settlement,Ibang-dong,Ibang-dong,official,39.6509712,127.00099446,KP-08,,
6340731,6558884,settlement,Ch’omak-tong,Ch'omak-tong,official,39.60945096,126.97182024,KP-08,,
6340417,6557836,settlement,Ch’ŏngnyong-dong,Ch'ongnyong-dong,official,38.80351619,126.72194817,KP-06,,
6340835,6559288,park,내백일리,내백일리,unknown,39.0475,127.068333,KP-07,,
6340201,6557145,settlement,직동,직동,unknown,38.617185,126.72754,KP-07,,
6340698,6558681,settlement,Habup’yŏng-ni,Habup'yong-ni,official,38.89536616,127.46341377,KP-07,,
6340728,6558879,settlement,입앙동,입앙동,unknown,39.6509712,127.00099446,KP-08,,
6340890,6559397,settlement,Saemal,Saemal,variant,39.01952821,127.12419811,KP-07,,
6340280,6557308,hypsographic,Sindŏng-nyŏng,Sindong-nyong,official,38.745833,126.823889,KP-06,,
6340870,6559358,settlement,공진리,공진리,unknown,39.12340178,126.90916666,KP-02,,
6340298,6557457,settlement,Kisaeul,Kisaeul,official,39.10123339,126.32985167,KP-02,,
6340283,6557428,hypsographic,각흘산,각흘산,unknown,39.058304,126.308034,KP-000,,
6340201,6557144,settlement,Chik-tong,Chik-tong,official,38.617185,126.72754,KP-07,,
6340385,6557773,settlement,창평,창평,unknown,38.89520519,126.743056,KP-06,,
6340345,6557551,settlement,Ihwa-dong,Ihwa-dong,official,39.02875942,126.44418233,KP-02,,
6340746,6558915,settlement,고만동,고만동,unknown,39.53267011,126.91027665,KP-08,,
6340294,6557449,settlement,Kwiil-li,Kwiil-li,official,39.10960699,126.45668617,KP-02,,
6339977,6556418,settlement,직동리,직동리,unknown,38.513611,126.592778,KP-06,,
6340832,6559281,park,Inhŭng-ni,Inhung-ni,official,39.112778,126.945556,KP-02,,
6339958,6556380,settlement,백화리,백화리,unknown,38.510556,126.333889,KP-06,,
6340166,6557075,settlement,평원리,평원리,unknown,38.735,126.687778,KP-06,,
6340711,6558845,park,대포동,대포동,unknown,39.7375,126.908611,KP-08,,
6340204,6557151,settlement,덕동,덕동,unknown,38.60166,126.739657,KP-07,,
6340676,6558638,settlement,송촌리,송촌리,unknown,38.94558182,127.42511891,KP-07,,
6340823,6559069,hypsographic,국태산,국태산,unknown,39.510278,127.167222,KP-08,,
6340281,6557310,hypsographic,Yu-ryŏng,Yu-ryong,official,38.696944,126.81,KP-06,,
6340239,6557223,spot,Ich’ŏn-yŏk,Ich'on-yok,official,38.529167,126.872778,KP-07,,
6340919,6559455,spot,Kyŏnsŏng-am,Kyonsong-am,official,39.193889,127.089444,KP-07,,
6340808,6559039,settlement,상산리,상산리,unknown,39.54409816,127.18289152,KP-08,,
6340085,6556759,settlement,Chungmal,Chungmal,official,39.34811393,126.4408906,KP-02,,
6340531,6558259,hypsographic,마유령,마유령,unknown,39.44725743,127.16082621,KP-08,,
6340384,6557770,settlement,Imok-tong,Imok-tong,official,38.905,126.711667,KP-06,,
6340557,6558312,hypsographic,소동령,소동령,unknown,39.50282044,127.08026773,KP-08,,
6340692,6558669,hypsographic,Ch’ŏnjae-ryŏng,Ch'onjae-ryong,official,38.829722,127.199722,KP-07,,
6339953,6556370,settlement,이정골,이정골,unknown,38.546389,126.372778,KP-06,,
6340244,6557237,spot,Songjŏng,Songjong,variant,38.548333,126.8275,KP-07,,
6340646,6558577,park,Kwangp’yŏng-dong,Kwangp'yong-dong,official,38.774722,127.436944,KP-07,,
6340578,6558353,settlement,Twisulmak,Twisulmak,official,39.354444,127.193056,KP-07,,
6340787,6558996,hypsographic,Pultang-gol,Pultang-gol,official,39.620278,127.101111,KP-08,,
6340698,6558682,settlement,하부평리,하부평리,unknown,38.89536616,127.46341377,KP-07,,
6340301,6557463,settlement,Nae-dong,Nae-dong,official,39.10142453,126.31004703,KP-02,,
6340719,6558861,park,이화동,이화동,unknown,39.651389,126.906111,KP-08,,
6340868,6559354,settlement,안가동,안가동,unknown,39.10557344,126.9281758,KP-02,,
6340520,6558236,settlement,Kip’un-gol,Kip'un-gol,variant,39.45873201,126.97885775,KP-08,,
6340229,6557203,settlement,Soram,Soram,official,38.526667,126.612222,KP-06,,
6340235,6557216,settlement,개하리,개하리,unknown,38.506667,126.865556,KP-07,,
6340408,6557818,hypsographic,Minŭl-lyŏng,Minul-lyong,official,38.80027257,126.59841537,KP-06,,
6340840,6559298,hypsographic,천을봉,천을봉,unknown,39.038056,126.9825,KP-000,,
6339974,6556412,settlement,부흥동,부흥동,unknown,38.509722,126.561944,KP-06,,
6340586,6558370,park,영암리,영암리,unknown,39.333889,127.077222,KP-08,,
6340051,6556566,settlement,미산동,미산동,unknown,38.540278,126.403056,KP-06,,
6340912,6559442,settlement,수주리,수주리,unknown,39.19550999,126.98135738,KP-02,,
6340398,6557799,settlement,관문동,관문동,unknown,38.85974041,126.73605373,KP-06,,
6340271,6557291,hypsographic,명지덕산,명지덕산,unknown,38.686389,126.8125,KP-07,,
6340777,6558977,settlement,회동,회동,unknown,39.70424552,127.07273751,KP-08,,
6340097,6556784,hypsographic,월락산,월락산,unknown,39.281389,126.383611,KP-02,,
6339957,6556378,settlement,서봉리,서봉리,unknown,38.523333,126.336111,KP-06,,
6340539,6558275,settlement,늡밭치,늡밭치,unknown,39.370278,126.979167,KP-08,,
6340313,6557487,hypsographic,Mansal-lyŏng,Mansal-lyong,official,39.234167,126.438889,KP-02,,
6340397,6557796,settlement,Munsŏngjang,Munsongjang,official,38.86687557,126.71756665,KP-06,,
6340479,6557961,settlement,풀목동,풀목동,unknown,38.988333,126.812778,KP-06,,
6340316,6557494,hypsographic,물왕고개,물왕고개,unknown,39.25211029,126.32922303,KP-02,,
6340263,6557274,settlement,Yok-kol,Yok-kol,official,38.637222,126.824444,KP-07,,
6340569,6558335,settlement,Tok-kol,Tok-kol,official,39.406994,127.154025,KP-08,,
6340784,6558991,settlement,밤나무벌,밤나무벌,unknown,39.66278706,127.1012772,KP-08,,
6340245,6557239,hypsographic,장미재,장미재,unknown,38.550127,126.878601,KP-07,,
6340326,6557513,settlement,Sangbugŭn,Sangbugun,official,39.18611334,126.47159619,KP-02,,
6340236,6557217,settlement,Kaejung-ni,Kaejung-ni,official,38.516944,126.870278,KP-07,,
6340788,6558999,settlement,까치골,까치골,unknown,39.60528245,127.18741027,KP-08,,
6340138,6556866,hypsographic,가라지령,가라지령,unknown,39.440462,126.49738429,KP-02,,
6340649,6558583,settlement,Tŏng-ni,Tong-ni,official,38.77223929,127.25014028,KP-07,,
6340894,6559406,settlement,새말,새말,unknown,39.050556,127.116667,KP-07,,
6340522,6558240,settlement,Kŏnch’ŏl-li,Konch'ol-li,official,39.355833,126.911111,KP-08,,
6340900,6559417,settlement,Kuhwa-dong,Kuhwa-dong,official,39.15583607,127.12951924,KP-07,,
6340700,6558685,settlement,Hasep’o-ri,Hasep'o-ri,official,38.85148368,127.42429827,KP-07,,
6340355,18288553,settlement,Jungchon,Jungchon,variant,39.03175533,126.31028607,KP-01,,
6340332,6557526,settlement,신언리,신언리,unknown,39.07651011,126.54783451,KP-02,,
6340076,6556741,hypsographic,Siru-bong,Siru-bong,official,39.399722,126.385556,KP-02,,
6340558,6558313,hypsographic,Sŏk-chae,Sok-chae,official,39.47570733,127.16535645,KP-08,,
6340336,6557534,settlement,연동,연동,unknown,39.06343008,126.38096201,KP-02,,
6340289,6557439,settlement,Koik-tong,Koik-tong,official,39.16685775,126.34671094,KP-02,,
6340240,6557227,hypsographic,봉화산,봉화산,unknown,38.528889,126.854167,KP-07,,
6340270,6557289,hypsographic,태산고개,태산고개,unknown,38.660556,126.753333,KP-07,,
6340833,6559284,park,백암리,백암리,unknown,39.00863468,127.03155131,KP-07,,
6340694,6558674,settlement,청석골,청석골,unknown,38.77382319,127.29279685,KP-07,,
6340251,6557251,hypsographic,한지막고개,한지막고개,unknown,38.591667,126.849167,KP-07,,
6340643,6558572,hypsographic,고직령,고직령,unknown,38.801245,127.451909,KP-07,,
6340509,6558215,settlement,흑동,흑동,unknown,39.4739371,127.12638754,KP-08,,
6340417,6557837,settlement,청룡동,청룡동,unknown,38.80351619,126.72194817,KP-06,,
6340248,6557245,settlement,인신동,인신동,unknown,38.576667,126.879722,KP-07,,
6340533,6558262,park,Mŏk-kol,Mok-kol,variant,39.380556,126.972222,KP-08,,
6340711,6558844,park,Taep’o-dong,Taep'o-dong,official,39.7375,126.908611,KP-08,,
6340181,6557105,settlement,새터,새터,unknown,38.656389,126.6275,KP-06,,
6340407,6557816,settlement,Kamidae,Kamidae,official,38.80085165,126.67030302,KP-06,,
6340673,6558631,settlement,Sŏngnam-ni,Songnam-ni,official,38.87177063,127.44797157,KP-07,,
6340924,6559465,hypsographic,Pori-gol,Pori-gol,official,39.246944,127.161944,KP-07,,
6339951,6556366,settlement,원암동,원암동,unknown,38.555556,126.398333,KP-06,,
6340765,6558953,settlement,이골,이골,unknown,39.613889,127.042778,KP-08,,
6340401,6557804,hypsographic,Yongdŭl-gogae,Yongdul-gogae,official,38.83378661,126.60696395,KP-06,,
6340291,6557444,hypsographic,광대산,광대산,unknown,39.07423755,126.34264653,KP-02,,
6340255,6557259,hypsographic,봉화산,봉화산,unknown,38.593333,126.854444,KP-07,,
6340750,6558923,settlement,음달말,음달말,unknown,39.508611,126.939444,KP-08,,
6340515,6558227,settlement,강촌,강촌,unknown,39.4447669,127.02965466,KP-08,,
6340893,6559404,settlement,두가래,두가래,unknown,39.043333,127.111667,KP-07,,
6340875,6559367,settlement,Ŏŭn-dong,Oun-dong,official,39.066667,126.918056,KP-02,,
6340572,6558341,settlement,Tŏksa,Toksa,official,39.351667,127.03,KP-08,,
6340457,6557917,park,절골,절골,unknown,38.883333,126.862778,KP-06,,
6340435,6557872,settlement,Kanch’on-dong,Kanch'on-dong,official,38.76844304,126.71688615,KP-06,,
6340140,6556870,hypsographic,독점골산,독점골산,unknown,39.48307469,126.47246024,KP-02,,
6340025,6556513,settlement,Sai-gol,Sai-gol,official,38.665833,126.486389,KP-06,,
6340225,6557196,park,천개동,천개동,unknown,38.549167,126.673889,KP-06,,
6340699,6558683,settlement,Hasahyŏl-li,Hasahyol-li,official,38.94499219,127.46143357,KP-07,,
6340425,6557852,settlement,Sinch’on,Sinch'on,variant,38.77359742,126.69337955,KP-06,,
6340433,6557869,settlement,구석동,구석동,unknown,38.77130719,126.704722,KP-06,,
6340659,6558603,spot,Paengnyŏn-am,Paengnyon-am,official,38.99130646,127.38029049,KP-07,,
6340105,6556800,settlement,사기점,사기점,unknown,39.29489856,126.59028597,KP-02,,
6340260,6557268,settlement,Sandugae,Sandugae,official,38.616308,126.892445,KP-07,,
6340329,6557520,settlement,소사동,소사동,unknown,39.22801393,126.41037281,KP-02,,
6340733,6558888,settlement,Sŏch’ul-tong,Soch'ul-tong,official,39.59118106,126.9234982,KP-08,,
6340712,6558847,settlement,사수골,사수골,unknown,39.7205321,126.89907078,KP-08,,
6340747,6558917,settlement,담동,담동,unknown,39.52407286,126.90549387,KP-08,,
6340165,6557073,settlement,신촌동,신촌동,unknown,38.735278,126.717222,KP-06,,
6340217,6557180,hypsographic,약물산,약물산,unknown,38.575,126.681944,KP-06,,
6340274,6557296,settlement,Nop’ŭndol-gol,Nop'undol-gol,official,38.713056,126.798333,KP-06,,
6339963,6556390,settlement,막탄동,막탄동,unknown,38.515278,126.383611,KP-06,,
6340227,6557200,settlement,어운동,어운동,unknown,38.537222,126.618056,KP-06,,
6340587,6558371,settlement,Yŏngch’un-dong,Yongch'un-dong,official,39.44431905,127.18254253,KP-08,,
6340163,6557068,settlement,Yongho-dong,Yongho-dong,official,38.74,126.725556,KP-06,,
6340251,6557250,hypsographic,Hanjimak-kogae,Hanjimak-kogae,official,38.591667,126.849167,KP-07,,
6340272,6557293,park,월랫골,월랫골,unknown,38.701111,126.807222,KP-06,,
6340252,6557253,hypsographic,성낙산,성낙산,unknown,38.588611,126.794444,KP-07,,
6339973,6556410,settlement,회동리,회동리,unknown,38.504722,126.558333,KP-06,,
6340750,6558922,settlement,ŭmdalmal,umdalmal,variant,39.508611,126.939444,KP-08,,
6340334,6557530,administrative_region,신작로동자구,신작로동자구,unknown,39.09688666,126.46397433,KP-02,,
6340180,6557102,settlement,Hwanggyŏnggae,Hwanggyonggae,official,38.681944,126.605278,KP-06,,
6339995,6556454,settlement,개정동,개정동,unknown,38.586667,126.560278,KP-06,,
6340510,6558217,settlement,후평,후평,unknown,39.47322585,127.1849537,KP-08,,
6340026,6556516,settlement,막실동,막실동,unknown,38.688333,126.465278,KP-06,,
6340676,6558637,settlement,Songch’ol-li,Songch'ol-li,official,38.94558182,127.42511891,KP-07,,
6340882,6559382,settlement,추동,추동,unknown,39.01317288,126.92439656,KP-06,,
6340560,6558318,settlement,석전포,석전포,unknown,39.44215,127.047695,KP-08,,
6340149,6556888,settlement,언담골,언담골,unknown,39.45455169,126.57616286,KP-02,,
6340191,6557124,settlement,Kungch’on-dong,Kungch'on-dong,official,38.645556,126.6825,KP-07,,
6339972,6556408,settlement,세돌골,세돌골,unknown,38.507778,126.556389,KP-06,,
6340542,6558281,settlement,밤가시,밤가시,unknown,39.3082657,126.95804987,KP-08,,
6340420,6557843,settlement,용후동,용후동,unknown,38.77589114,126.70351088,KP-06,,
6340168,6557079,settlement,수입동,수입동,unknown,38.728889,126.689167,KP-06,,
6340283,18288550,hypsographic,Gakheulsan,Gakheulsan,variant,39.058304,126.308034,KP-000,,
6340322,6557505,settlement,Sama-dong,Sama-dong,official,39.13627479,126.44263262,KP-02,,
6339991,6556445,park,Simch’ŏn,Simch'on,official,38.564722,126.500833,KP-06,,
6340665,6558615,hydrographic,Sambang-p’okp’o,Sambang-p'okp'o,official,38.765278,127.366389,KP-07,,
6340006,6556475,hypsographic,Kamjŏk-san,Kamjok-san,official,38.605278,126.507222,KP-06,,
6340518,6558233,settlement,길재,길재,unknown,39.36097876,126.91531042,KP-08,,
6340268,6557284,hypsographic,Yangji-gogae,Yangji-gogae,official,38.655813,126.802377,KP-07,,
6340055,6556574,settlement,고촌,고촌,unknown,38.678889,126.590278,KP-06,,
6340082,6556754,settlement,소내골,소내골,unknown,39.38135637,126.37283153,KP-02,,
6340128,6556846,settlement,창고개말,창고개말,unknown,39.38392379,126.53835275,KP-02,,
6340354,6557570,settlement,중부근,중부근,unknown,39.2100126,126.4733584,KP-02,,
6340389,6557781,hypsographic,성고개,성고개,unknown,38.87706221,126.72640069,KP-06,,
6340761,6558944,settlement,Paemyŏng-dong,Paemyong-dong,official,39.58225097,127.07106153,KP-08,,
6340466,6557935,settlement,묘미촌,묘미촌,unknown,38.92,126.776389,KP-06,,
6340249,6557247,settlement,염대골,염대골,unknown,38.571944,126.876111,KP-07,,
6340448,6557898,settlement,Pae-gol,Pae-gol,official,38.833611,126.767778,KP-06,,
6340388,6557779,settlement,원당,원당,unknown,38.88032321,126.73929757,KP-06,,
6340554,6558305,hypsographic,Sinhŭng-gogae,Sinhung-gogae,official,39.310833,126.982222,KP-08,,
6340892,6559402,settlement,지와터,지와터,unknown,39.031379,127.10770493,KP-07,,
6340002,6556467,settlement,Kurwŏl-li,Kurwol-li,official,38.593056,126.507778,KP-06,,
6340042,6556547,settlement,Kip’ŭnchŏn,Kip'unchon,official,38.725833,126.589722,KP-06,,
6339950,6556363,settlement,Majŏl-li,Majol-li,official,38.563889,126.425833,KP-06,,
6340515,6558226,settlement,Kangch’on,Kangch'on,official,39.4447669,127.02965466,KP-08,,
6340522,6558241,settlement,건천리,건천리,unknown,39.355833,126.911111,KP-08,,
6340009,6556481,hypsographic,Posŏp-san,Posop-san,official,38.615833,126.588333,KP-06,,
6340737,6558897,settlement,승당동,승당동,unknown,39.571944,127.004722,KP-08,,
6340889,6559395,settlement,Yangmal,Yangmal,official,39.02067423,127.10685212,KP-07,,
6340855,6559327,settlement,Soyang,Soyang,official,39.1717167,126.90581226,KP-02,,
6340678,6558641,settlement,Sinjŏm-ni,Sinjom-ni,official,38.84204318,127.4270541,KP-07,,
6340291,6557443,hypsographic,Kwangdae-san,Kwangdae-san,official,39.07423755,126.34264653,KP-02,,
6340680,6558645,settlement,Okchŏng-ni,Okchong-ni,official,38.93322465,127.41977468,KP-07,,
6340465,6557932,settlement,Munam-ni,Munam-ni,official,38.901111,126.751667,KP-06,,
6340319,6557500,hypsographic,복두고개,복두고개,unknown,39.23219637,126.33948314,KP-02,,
6339970,6556404,spot,월은사,월은사,unknown,38.510278,126.449167,KP-06,,
6340124,6556838,settlement,폭포,폭포,unknown,39.40619661,126.50402443,KP-02,,
6340293,6557448,settlement,구창동,구창동,unknown,39.11992278,126.46249442,KP-02,,
6340866,6559349,settlement,Such’im-dong,Such'im-dong,official,39.118333,126.943889,KP-02,,
6340333,6557527,settlement,Sinjagae,Sinjagae,official,39.0916333,126.47386918,KP-02,,
6340532,6558261,settlement,머덱이,머덱이,unknown,39.26760622,126.97937473,KP-08,,
6340179,6557101,settlement,률리,률리,unknown,38.670278,126.645278,KP-06,,
6340768,6558959,settlement,종률골,종률골,unknown,39.62465699,127.04596038,KP-08,,
6340078,6556745,hypsographic,Kŭmsŏng-nyŏng,Kumsong-nyong,official,39.40953666,126.4095817,KP-02,,
6340790,6559003,settlement,용골,용골,unknown,39.596667,127.109722,KP-000,1,
6340380,6557762,hypsographic,Kŏyu-hyŏn,Koyu-hyon,official,38.91413511,126.65008061,KP-06,,
6339996,6556456,settlement,논들거리,논들거리,unknown,38.564444,126.58,KP-06,,
6340845,6559307,hypsographic,Konnŏm-nyŏng,Konnom-nyong,official,39.21450527,126.98532571,KP-000,,
6340153,6556896,settlement,창덕,창덕,unknown,39.47762119,126.55118562,KP-02,,
6340013,6556490,hydrographic,산북저수지,산북저수지,unknown,38.650556,126.553611,KP-06,,
6340878,6559374,settlement,연저동,연저동,unknown,39.023333,126.905833,KP-06,,
6340200,6557143,settlement,가막골,가막골,unknown,38.620278,126.742778,KP-07,,
6340252,6557252,hypsographic,Sŏngnak-san,Songnak-san,official,38.588611,126.794444,KP-07,,
6340847,6559312,hypsographic,가산령,가산령,unknown,39.049444,126.969444,KP-000,,
6340651,6558587,hypsographic,Tŏk-chae,Tok-chae,official,38.79078373,127.25290868,KP-07,,
6340880,6559378,park,재궁동,재궁동,unknown,39.04,126.940278,KP-06,,
6340818,6559059,settlement,이촌,이촌,unknown,39.51330065,127.15621076,KP-08,,
6340436,6557874,settlement,Mundam-dong,Mundam-dong,official,38.76677567,126.72451906,KP-06,,
6340883,6559384,settlement,고래매기,고래매기,unknown,39.01133947,126.94936731,KP-06,,
6340786,6558995,hypsographic,만풍산,만풍산,unknown,39.648611,127.183056,KP-08,,
6340206,6557156,settlement,새말,새말,unknown,38.597381,126.713488,KP-07,,
6340040,6556544,settlement,새터,새터,unknown,38.701389,126.574167,KP-06,,
6339996,6556455,settlement,Nondŭlgŏri,Nondulgori,official,38.564444,126.58,KP-06,,
6340068,6556726,settlement,소하리,소하리,unknown,39.44395027,126.40360771,KP-02,,
6340741,6558904,park,Nŏlmegi,Nolmegi,official,39.570278,126.919167,KP-08,,
6340658,6558602,park,문바우,문바우,unknown,38.794167,127.305556,KP-07,,
6339978,6556420,settlement,우릉동,우릉동,unknown,38.523333,126.563333,KP-06,,
6340117,6556824,settlement,양변,양변,unknown,39.37363639,126.51728224,KP-02,,
6340284,6557429,settlement,Kalbak-kol,Kalbak-kol,variant,39.15622789,126.47286775,KP-02,,
6340026,6556515,settlement,Maksil-tong,Maksil-tong,official,38.688333,126.465278,KP-06,,
6340559,6558316,settlement,석촌,석촌,unknown,39.4511472,127.15412131,KP-08,,
6340196,6557135,settlement,신곡원,신곡원,unknown,38.629722,126.612778,KP-06,,
6340276,6557300,settlement,Kal-gol,Kal-gol,official,38.73,126.793333,KP-06,,
6340110,6556809,settlement,Kusŏngmal,Kusongmal,official,39.34751217,126.48480479,KP-02,,
6340323,6557507,hypsographic,Samgak-san,Samgak-san,official,39.03267204,126.40403452,KP-02,,
6340589,6558376,settlement,영파,영파,unknown,39.284722,126.948889,KP-08,,
6340017,6556498,settlement,산본동,산본동,unknown,38.658611,126.594167,KP-06,,
6340576,6558349,settlement,Tuŭptŏgi,Tuuptogi,official,39.426389,126.978611,KP-08,,
6340295,6557451,settlement,Kŭmji-dong,Kumji-dong,variant,39.1792653,126.35337536,KP-02,,
6340891,6559400,settlement,용우골,용우골,unknown,39.04580388,127.14391812,KP-07,,
6340742,6558907,settlement,덕상,덕상,unknown,39.56231866,126.90111568,KP-08,,
6340456,6557914,park,Samgak-tong,Samgak-tong,official,38.891389,126.873889,KP-06,,
6340002,6556468,settlement,굴원리,굴원리,unknown,38.593056,126.507778,KP-06,,
6340507,6558211,settlement,회동어구,회동어구,unknown,39.31799842,126.96673307,KP-08,,
6340838,6559293,settlement,Ŭngbong-ni,Ungbong-ni,official,39.24658746,127.17574638,KP-07,,
6340557,6558311,hypsographic,Sodong-nyŏng,Sodong-nyong,official,39.50282044,127.08026773,KP-08,,
6340795,6559013,settlement,일응골,일응골,unknown,39.556111,127.073611,KP-000,1,
6340356,6557574,settlement,칠고개동,칠고개동,unknown,39.20929103,126.33513075,KP-02,,
6340120,6556830,settlement,강동말,강동말,unknown,39.39352574,126.46338746,KP-02,,
6340789,6559001,settlement,쇠골,쇠골,unknown,39.59496749,127.18495267,KP-08,,
6340895,6559407,settlement,Saebattun,Saebattun,official,39.05987561,127.11082173,KP-07,,
6340273,6557294,settlement,Madŭng-gol,Madung-gol,official,38.706667,126.795833,KP-06,,
6340173,6557088,settlement,Hwajŏn-gol,Hwajon-gol,official,38.702778,126.682222,KP-06,,
6340687,6558660,hypsographic,을목령,을목령,unknown,38.874167,127.208889,KP-07,,
6339960,6556383,hypsographic,Ch’un’gwang-san,Ch'un'gwang-san,official,38.510833,126.363889,KP-06,,
6340740,6558902,hypsographic,Changgyŏng-san,Changgyong-san,official,39.55031829,126.9818802,KP-08,,
6340079,6556747,settlement,Kŭmsŏng-dong,Kumsong-dong,variant,39.40452152,126.42715487,KP-02,,
6340176,6557094,hypsographic,No-hyŏn,No-hyon,official,38.658889,126.725,KP-06,,
6340072,6556734,settlement,칠리,칠리,unknown,39.418611,126.391944,KP-02,,
6340505,6558206,settlement,Hayang,Hayang,official,39.365659,127.130875,KP-07,,
6340205,6557154,spot,Chisangni,Chisangni,variant,38.597222,126.717778,KP-07,,
6340778,6558978,settlement,Mukhŭng-dong,Mukhung-dong,official,39.71274082,127.0349914,KP-08,,
6340901,6559420,park,감산리,감산리,unknown,39.172778,127.141389,KP-07,,
6340815,6559053,settlement,둔동,둔동,unknown,39.524167,127.176667,KP-08,,
6340253,6557255,settlement,궐동,궐동,unknown,38.595278,126.749167,KP-07,,
6340050,6556564,settlement,안골,안골,unknown,38.595556,126.310278,KP-06,,
6340095,6556779,hypsographic,Sojo-san,Sojo-san,official,39.26403516,126.33104363,KP-02,,
6340574,6558345,settlement,Tŭl-gol,Tul-gol,variant,39.30412434,126.94906704,KP-08,,
6340256,6557260,settlement,Yongdam-ni,Yongdam-ni,official,38.596111,126.889167,KP-07,,
6339999,6556461,settlement,Susutt’ŏ,Susutt'o,official,38.590833,126.576667,KP-06,,
6340567,6558332,hypsographic,대상골령,대상골령,unknown,39.34928508,126.9283276,KP-08,,
6339975,6556413,settlement,Hwongt’ogogae,Hwongt'ogogae,official,38.512778,126.564722,KP-06,,
6340536,6558268,settlement,Nodubong,Nodubong,official,39.44698565,127.0755691,KP-08,,
6340177,6557097,settlement,궁암리,궁암리,unknown,38.669722,126.684444,KP-06,,
6340358,6557577,settlement,T’apkol,T'apkol,official,39.06051518,126.31793775,KP-02,,
6340208,6557161,spot,Chihari,Chihari,variant,38.616944,126.697222,KP-07,,
6340167,6557076,settlement,Hyŏnam-ni,Hyonam-ni,official,38.7225,126.650833,KP-06,,
6340084,6556758,settlement,창동,창동,unknown,39.35642138,126.39986194,KP-02,,
6340499,6558194,settlement,Haesam,Haesam,official,39.402582,127.148054,KP-08,,
6340047,6556557,hypsographic,Tanmok-san,Tanmok-san,official,38.728611,126.556111,KP-06,,
6340550,6558297,park,Saesulmak,Saesulmak,variant,39.399928,127.176639,KP-08,,
6340473,6557949,hypsographic,남문현,남문현,unknown,38.967778,126.886944,KP-06,,
6340665,6558616,hydrographic,삼방폭포,삼방폭포,unknown,38.765278,127.366389,KP-07,,
6340073,6556735,settlement,Sanyang-gol,Sanyang-gol,variant,39.4163319,126.31719285,KP-02,,
6340683,6558651,settlement,Oep'yŏng-ni,Oep'yong-ni,official,38.87457307,127.40861215,KP-07,,
6340284,6557430,settlement,갈밭골,갈밭골,unknown,39.15622789,126.47286775,KP-02,,
6340360,6557582,settlement,포내동,포내동,unknown,39.24799309,126.56949916,KP-02,,
6340496,6558188,settlement,Ch’ŏndong-ni,Ch'ondong-ni,official,39.490829,127.124752,KP-08,,
6340228,6557202,settlement,화천리,화천리,unknown,38.529722,126.625,KP-06,,
6340035,6556533,settlement,Kodae-dong,Kodae-dong,official,38.740556,126.476389,KP-06,,
6339986,6556435,settlement,Sa-dong,Sa-dong,official,38.537778,126.501111,KP-06,,
6340726,6558875,settlement,갈골,갈골,unknown,39.665,126.995556,KP-08,,
6340222,6557189,settlement,Kujŏm-dong,Kujom-dong,official,38.574167,126.629167,KP-06,,
6340727,6558877,settlement,노동,노동,unknown,39.663611,127.001389,KP-08,,
6340704,6558693,park,Hongnang-dong,Hongnang-dong,official,38.7925,127.321944,KP-07,,
6340112,6556814,settlement,단둔지,단둔지,unknown,39.36993287,126.57912395,KP-02,,
6340108,6556805,settlement,Talbatch’i,Talbatch'i,official,39.33733672,126.45683767,KP-02,,
6340822,6559066,settlement,Namdan,Namdan,official,39.50420123,127.19406693,KP-08,,
6339944,6556352,settlement,하대정,하대정,unknown,38.561389,126.388889,KP-06,,
6340099,6556787,settlement,Sŏgu-ri,Sogu-ri,official,39.2740201,126.39329025,KP-02,,
6340591,6558380,settlement,연화골,연화골,unknown,39.3025,127.0025,KP-08,,
6340545,6558288,spot,Panghwa,Panghwa,official,39.43582053,127.14588522,KP-08,,
6340563,6558323,park,Songhyŏl-li,Songhyol-li,official,39.39472968,127.17179866,KP-08,,
6340742,6558906,settlement,Tŏksang,Toksang,official,39.56231866,126.90111568,KP-08,,
6340329,6557519,settlement,Sosa-dong,Sosa-dong,official,39.22801393,126.41037281,KP-02,,
6340539,6558274,settlement,Nŭppatch’i,Nuppatch'i,official,39.370278,126.979167,KP-08,,
6340159,6557061,settlement,방축동,방축동,unknown,38.746389,126.613889,KP-06,,
6340889,6559396,settlement,양말,양말,unknown,39.02067423,127.10685212,KP-07,,
6340821,6559065,settlement,남말,남말,unknown,39.50400949,127.20138278,KP-08,,
6340098,6556785,settlement,Mok-tong,Mok-tong,official,39.2880175,126.39691571,KP-02,,
6340715,6558852,park,Oe-dong,Oe-dong,official,39.705833,126.913611,KP-08,,
6340444,6557891,settlement,귀토동,귀토동,unknown,38.787222,126.829722,KP-06,,
6340527,6558251,settlement,구억동,구억동,unknown,39.39705134,127.00900808,KP-08,,
6340796,6559014,settlement,Tongmyŏn,Tongmyon,short,39.553889,127.083611,KP-000,1,
6340718,6558858,settlement,Kobang-dong,Kobang-dong,official,39.66847121,126.92246786,KP-08,,
6340095,6556780,hypsographic,소조산,소조산,unknown,39.26403516,126.33104363,KP-02,,
6340351,6557564,settlement,정동,정동,unknown,39.01501718,126.41350306,KP-02,,
6340907,6559432,settlement,동촌,동촌,unknown,39.238998,127.126569,KP-07,,
6340386,6557774,settlement,Kalma-dong,Kalma-dong,official,38.89551561,126.73219135,KP-06,,
6339954,6556372,settlement,하합동,하합동,unknown,38.544722,126.363056,KP-06,,
6340144,6556878,settlement,지경,지경,unknown,39.48578124,126.53699336,KP-02,,
6340670,6558625,settlement,Sangjuch’ŏl-li,Sangjuch'ol-li,official,38.84315,127.433075,KP-07,,
6340756,6558934,settlement,Saebŏl,Saebol,official,39.53243624,127.01709548,KP-08,,
6340443,6557889,settlement,설바우동,설바우동,unknown,38.773056,126.821389,KP-06,,
6340312,6557485,settlement,Tup’i-dong,Tup'i-dong,official,39.125,126.374444,KP-02,,
6340679,6558644,park,양수암,양수암,unknown,38.754444,127.227222,KP-07,,
6340339,6557540,hypsographic,용산,용산,unknown,39.1472418,126.33454989,KP-02,,
6340276,6557301,settlement,갈골,갈골,unknown,38.73,126.793333,KP-06,,
6340582,6558362,settlement,월분,월분,unknown,39.46335219,127.11629518,KP-08,,
6340218,6557182,settlement,먹개골,먹개골,unknown,38.587778,126.650278,KP-06,,
6340372,6557747,hypsographic,말거리고개,말거리고개,unknown,38.99285328,126.65245258,KP-06,,
6340297,6557455,hypsographic,Kidae-bong,Kidae-bong,official,39.188333,126.4475,KP-02,,
6340162,6557066,settlement,Ch’angam-dong,Ch'angam-dong,official,38.7521891,126.73590776,KP-06,,
6339992,6556447,hypsographic,Non-gol,Non-gol,official,38.554444,126.525,KP-06,,
6340884,6559385,settlement,Hanjŏnp’yŏng,Hanjonp'yong,official,39.00389593,126.96270792,KP-06,,
6340867,6559351,settlement,Sŏjae-dong,Sojae-dong,official,39.10792363,126.93546646,KP-02,,
6340122,6556834,settlement,상단동,상단동,unknown,39.41288882,126.49479849,KP-02,,
6340760,6558942,settlement,Ant’ŏ,Ant'o,short,39.571944,127.076111,KP-000,1,
6340528,6558253,hypsographic,구룡산,구룡산,unknown,39.41274377,126.95726879,KP-08,,
6340187,6557116,settlement,An’gol,An'gol,official,38.644175,126.715431,KP-07,,
6340023,6556509,settlement,Sanbung-ni,Sanbung-ni,official,38.6575,126.502222,KP-06,,
6340910,6559438,settlement,신재령,신재령,unknown,39.22505413,126.95554604,KP-08,,
6340586,6558369,park,Yŏngam-ni,Yongam-ni,official,39.333889,127.077222,KP-08,,
6339999,6556462,settlement,수숫터,수숫터,unknown,38.590833,126.576667,KP-06,,
6340157,6556904,hypsographic,Siru-bong,Siru-bong,official,39.371667,126.453889,KP-02,,
6340564,6558326,hypsographic,송어덕산,송어덕산,unknown,39.393611,126.901111,KP-08,,
6339947,6556358,hypsographic,승산,승산,unknown,38.586111,126.458611,KP-06,,
6340823,6559068,hypsographic,Kukt’ae-san,Kukt'ae-san,official,39.510278,127.167222,KP-08,,
6340497,6558190,settlement,Chŏnjang,Chonjang,official,39.352778,127.049722,KP-08,,
6340047,6556558,hypsographic,단목산,단목산,unknown,38.728611,126.556111,KP-06,,
6340749,6558920,settlement,Ch’ang-dong,Ch'ang-dong,official,39.50557717,126.94167547,KP-08,,
6340463,6557928,hypsographic,Ch’angdwik-kol,Ch'angdwik-kol,official,38.898333,126.7925,KP-06,,
6340190,6557122,settlement,T’aeŭl-tong,T'aeul-tong,official,38.635294,126.683304,KP-07,,
6340320,6557502,hypsographic,부정고개,부정고개,unknown,39.01500322,126.43409119,KP-02,,
6340143,6556876,settlement,조산동,조산동,unknown,39.50159383,126.5163382,KP-02,,
6340154,6556898,settlement,탑몰,탑몰,unknown,39.49209237,126.57439932,KP-02,,
6340882,6559381,settlement,Ch’u-dong,Ch'u-dong,official,39.01317288,126.92439656,KP-06,,
6340303,6557467,settlement,Naejang-gol,Naejang-gol,variant,39.11286468,126.30849057,KP-02,,
6340562,6558322,settlement,섬안,섬안,unknown,39.48400913,127.14941131,KP-08,,
6340645,6558575,hypsographic,Kwangam-san,Kwangam-san,official,38.971944,127.319722,KP-07,,
6340497,6558191,settlement,전장,전장,unknown,39.352778,127.049722,KP-08,,
6340883,6559383,settlement,Koraemaegi,Koraemaegi,official,39.01133947,126.94936731,KP-06,,
6340521,6558239,park,고곤리,고곤리,unknown,39.354722,127.075833,KP-08,,
6340244,6557235,spot,Songjŏng-yŏk,Songjong-yok,official,38.548333,126.8275,KP-07,,
6340865,6559348,settlement,용소동,용소동,unknown,39.09844457,126.95378201,KP-02,,
6340397,6557797,settlement,문성장,문성장,unknown,38.86687557,126.71756665,KP-06,,
6340920,6559458,hypsographic,음막골,음막골,unknown,39.221389,126.981944,KP-08,,
6340780,6558982,settlement,Songga-dong,Songga-dong,official,39.690556,127.114722,KP-08,,
6340242,6557230,spot,Tongjŏng-yŏk,Tongjong-yok,official,38.572222,126.766389,KP-07,,
6340862,6559342,settlement,지경동,지경동,unknown,39.11907187,126.99373815,KP-02,,
6340695,6558675,hypsographic,Ch’ŏngha-san,Ch'ongha-san,official,38.756944,127.414167,KP-07,,
6340662,6558609,settlement,Puhŭng-dong,Puhung-dong,official,38.88304532,127.42962595,KP-07,,
6340139,6556867,settlement,Chŏngjae-gol,Chongjae-gol,variant,39.47496283,126.45906198,KP-02,,
6340438,6557879,settlement,원봉동,원봉동,unknown,38.76275299,126.72819418,KP-06,,
6340455,6557912,park,Ojŏnggol,Ojonggol,official,38.874167,126.885,KP-07,,
6340279,6557306,park,Kalbyŏruk-kol,Kalbyoruk-kol,official,38.73,126.829167,KP-07,,
6340717,6558857,settlement,인상리,인상리,unknown,39.67180305,126.93722779,KP-08,,
6340396,6557794,settlement,Mŏryŏul,Moryoul,official,38.8675328,126.73377346,KP-06,,
6340400,6557802,hypsographic,Myogak-san,Myogak-san,official,38.836667,126.618889,KP-06,,
6339982,6556428,settlement,태봉리,태봉리,unknown,38.560833,126.576389,KP-06,,
6340480,6558156,hypsographic,Ahopsari-san,Ahopsari-san,official,39.3925,126.974444,KP-08,,
6340219,6557184,settlement,신대동,신대동,unknown,38.584167,126.645,KP-06,,
6340101,6556792,settlement,내평,내평,unknown,39.2531698,126.52315443,KP-02,,
6340014,6556492,settlement,대성리,대성리,unknown,38.6325,126.545278,KP-06,,
6340364,6557589,settlement,Hwarang-ni,Hwarang-ni,official,39.23056203,126.50390899,KP-02,,
6340355,6557571,settlement,Chung-ch’on,Chung-ch'on,official,39.03175533,126.31028607,KP-01,,
6340060,6556710,settlement,약대골,약대골,unknown,39.48573582,126.42335471,KP-02,,
6340925,6559467,hypsographic,Subong-gol,Subong-gol,official,39.243854,127.117602,KP-07,,
6340488,6558172,settlement,Ch’at’an,Ch'at'an,official,39.423611,126.995556,KP-08,,
6340210,6557164,hypsographic,Chang-gogae,Chang-gogae,official,38.5975,126.685278,KP-06,,
6340083,6556756,settlement,사태울,사태울,unknown,39.35306193,126.33751012,KP-02,,
6340753,6558929,settlement,구나무데기,구나무데기,unknown,39.50750069,126.97903647,KP-08,,
6340310,6557481,settlement,Tojikkŏri,Tojikkori,variant,39.120833,126.353056,KP-02,,
6340836,6559289,park,Chiktu-ri,Chiktu-ri,official,39.217222,127.161944,KP-07,,
6340493,6558183,hypsographic,절골,절골,unknown,39.270556,126.943889,KP-08,,
6340806,6559034,settlement,Toranganmal,Toranganmal,official,39.556667,127.178889,KP-08,,
6340254,6557256,settlement,Sambak-kol,Sambak-kol,official,38.606389,126.818889,KP-07,,
6340118,6556826,settlement,흘이골,흘이골,unknown,39.35528634,126.44905767,KP-02,,
6340774,6558971,park,열녀평,열녀평,unknown,39.67332641,127.0857364,KP-08,,
6340642,6558569,settlement,Konamsan,Konamsan,official,38.99339356,127.44766412,KP-07,,
6340058,6556580,hypsographic,수리봉,수리봉,unknown,38.624167,126.3975,KP-06,,
6340239,6557225,spot,Ich’ŏn,Ich'on,variant,38.529167,126.872778,KP-07,,
6340851,6559320,hypsographic,명우래령,명우래령,unknown,39.178611,127.094167,KP-07,,
6340078,6556746,hypsographic,금성령,금성령,unknown,39.40953666,126.4095817,KP-02,,
6340682,6558650,settlement,왕로소,왕로소,unknown,38.908611,127.212778,KP-07,,
6340520,6558237,settlement,깊운골,깊운골,unknown,39.45873201,126.97885775,KP-08,,
6340766,6558955,settlement,향산리,향산리,unknown,39.61598693,127.03879934,KP-08,,
6340863,6559343,park,Chung-dong,Chung-dong,official,39.110556,126.991111,KP-02,,
6340644,6558574,settlement,광명리,광명리,unknown,38.97638129,127.40602629,KP-07,,
6340677,6558640,settlement,신대리,신대리,unknown,38.8602934,127.41116815,KP-07,,
6340759,6558940,settlement,Nŭng-dong,Nung-dong,official,39.566944,127.041667,KP-08,,
6340555,6558307,settlement,Sinp’ung-ni,Sinp'ung-ni,official,39.322778,127.153889,KP-07,,
6340585,6558368,spot,양천사,양천사,unknown,39.426111,127.195833,KP-08,,
6340060,6556709,settlement,Yaktae-gol,Yaktae-gol,variant,39.48573582,126.42335471,KP-02,,
6340495,6558186,hypsographic,Ch’ŏlsŏk-san,Ch'olsok-san,official,39.253889,127.190556,KP-07,,
6340436,6557875,settlement,문담동,문담동,unknown,38.76677567,126.72451906,KP-06,,
6340840,6559297,hypsographic,Ch’ŏnŭl-bong,Ch'onul-bong,official,39.038056,126.9825,KP-000,,
6340241,6557228,hypsographic,Norumegi-gogae,Norumegi-gogae,official,38.543333,126.8475,KP-07,,
6340070,6556729,settlement,Sosang-ni,Sosang-ni,official,39.448611,126.428333,KP-02,,
6340478,6557958,settlement,Unmun-dong,Unmun-dong,official,38.985,126.756667,KP-06,,
6340793,6559009,settlement,진봉동,진봉동,unknown,39.56958615,127.10655497,KP-08,,
6340216,6557177,settlement,Mugo-ri,Mugo-ri,official,38.574444,126.700833,KP-06,,
6340719,6558860,park,Ihwa-dong,Ihwa-dong,official,39.651389,126.906111,KP-08,,
6340780,6558983,settlement,송가동,송가동,unknown,39.690556,127.114722,KP-08,,
6340739,6558900,settlement,Yuch’on,Yuch'on,official,39.5528852,127.01828801,KP-08,,
6340452,6557906,settlement,Komil-tong,Komil-tong,official,38.874722,126.798889,KP-06,,
6340847,6559311,hypsographic,Kasal-lyŏng,Kasal-lyong,official,39.049444,126.969444,KP-000,,
6340037,6556538,settlement,사평동,사평동,unknown,38.715278,126.524167,KP-06,,
6340785,6558992,settlement,Chungmyŏn-dong,Chungmyon-dong,official,39.655833,127.157222,KP-08,,
6340082,6556753,settlement,Sonae-gol,Sonae-gol,variant,39.38135637,126.37283153,KP-02,,
6340802,6559027,settlement,물역,물역,unknown,39.56491384,127.19596788,KP-08,,
6340163,6557069,settlement,용호동,용호동,unknown,38.74,126.725556,KP-06,,
6340199,6557141,settlement,고봉,고봉,unknown,38.625144,126.694131,KP-07,,
6340844,6559306,hypsographic,고재령,고재령,unknown,39.238889,126.970278,KP-08,,
6340429,6557861,settlement,페연동,페연동,unknown,38.75861202,126.65905051,KP-06,,
6340304,6557470,hypsographic,단풍산,단풍산,unknown,39.05,126.566111,KP-02,,
6339979,6556421,settlement,Yangjimal,Yangjimal,official,38.548611,126.579444,KP-06,,
6340902,6559422,settlement,삼거리,삼거리,unknown,39.19183522,127.19040373,KP-07,,
6340324,6557510,settlement,삼인리,삼인리,unknown,39.1643156,126.44388717,KP-02,,
6339982,6556427,settlement,T’aebong-ni,T'aebong-ni,official,38.560833,126.576389,KP-06,,
6340274,6557297,settlement,높은돌골,높은돌골,unknown,38.713056,126.798333,KP-06,,
6340020,6556504,settlement,비전동,비전동,unknown,38.681667,126.544444,KP-06,,
6340100,6556790,settlement,송이골,송이골,unknown,39.26619843,126.51445672,KP-02,,
6340570,6558337,hypsographic,Tŏk-kol,Tok-kol,official,39.261944,127.159722,KP-07,,
6340385,6557772,settlement,Ch’angp’yŏng,Ch'angp'yong,official,38.89520519,126.743056,KP-06,,
6340538,6558272,settlement,Nŭngniyŏul,Nungniyoul,official,39.47618533,126.91319947,KP-08,,
6340906,6559430,park,홍거사골,홍거사골,unknown,39.232778,127.187222,KP-07,,
6340269,6557287,settlement,외락리,외락리,unknown,38.657778,126.774167,KP-07,,
6340029,6556521,settlement,Hanjŏng-dong,Hanjong-dong,official,38.688889,126.549722,KP-06,,
6340065,6556720,settlement,함정골,함정골,unknown,39.45290755,126.42002606,KP-02,,
6340701,6558687,settlement,Hasuch’ŏng-ni,Hasuch'ong-ni,official,38.85187049,127.40385887,KP-07,,
6340008,6556479,park,Sinhŭng-ni,Sinhung-ni,official,38.6075,126.532778,KP-06,,
6340234,6557214,park,어둔리,어둔리,unknown,38.526389,126.834167,KP-07,,
6340669,6558624,settlement,상어지리,상어지리,unknown,38.97949011,127.48952638,KP-07,,
6340537,6558271,settlement,논틀,논틀,unknown,39.46159591,126.95346166,KP-08,,
6340200,6557142,settlement,Kamak-kol,Kamak-kol,official,38.620278,126.742778,KP-07,,
6340575,6558348,settlement,두문포,두문포,unknown,39.329722,127.069722,KP-08,,
6340577,6558352,settlement,뒤덕이,뒤덕이,unknown,39.393889,126.997778,KP-08,,
6340765,6558952,settlement,I-gol,I-gol,variant,39.613889,127.042778,KP-08,,
6340380,6557763,hypsographic,거유현,거유현,unknown,38.91413511,126.65008061,KP-06,,
6340875,6559368,settlement,어은동,어은동,unknown,39.066667,126.918056,KP-02,,
6340326,6557514,settlement,상부근,상부근,unknown,39.18611334,126.47159619,KP-02,,
6340552,6558301,settlement,Sanggyŏngdul-li,Sanggyongdul-li,official,39.38917998,127.01414559,KP-08,,
6340334,6557529,administrative_region,Sinjang-nodongjagu,Sinjang-nodongjagu,official,39.09688666,126.46397433,KP-02,,
6340802,6559026,settlement,Muryŏk,Muryok,official,39.56491384,127.19596788,KP-08,,
6340649,6558584,settlement,덕리,덕리,unknown,38.77223929,127.25014028,KP-07,,
6340910,6559437,settlement,Sinjaeryŏng,Sinjaeryong,official,39.22505413,126.95554604,KP-08,,
6340420,6557842,settlement,Yonghu-dong,Yonghu-dong,official,38.77589114,126.70351088,KP-06,,
6340319,6557499,hypsographic,Poktu-gogae,Poktu-gogae,official,39.23219637,126.33948314,KP-02,,
6340370,6557602,settlement,흥룡동,흥룡동,unknown,39.2056176,126.31987275,KP-02,,
6339965,6556394,settlement,하촌,하촌,unknown,38.521111,126.418889,KP-06,,
6340066,6556721,settlement,Namyang-ni,Namyang-ni,official,39.44684776,126.31589975,KP-02,,
6340209,6557163,hypsographic,각후봉,각후봉,unknown,38.6,126.683611,KP-06,,
6340174,6557090,settlement,Yŏltubau,Yoltubau,official,38.69,126.701111,KP-06,,
6340377,6557756,hypsographic,Nŏlbŭn-gogae,Nolbun-gogae,official,38.94827897,126.74439542,KP-06,,
6340881,6559379,settlement,Nurŭnji,Nurunji,official,39.01217378,126.9688478,KP-06,,
6340739,6558901,settlement,유촌,유촌,unknown,39.5528852,127.01828801,KP-08,,
6340670,6558626,settlement,상주천리,상주천리,unknown,38.84315,127.433075,KP-07,,
6340699,6558684,settlement,하사현리,하사현리,unknown,38.94499219,127.46143357,KP-07,,
6340924,6559466,hypsographic,보리골,보리골,unknown,39.246944,127.161944,KP-07,,
6340501,6558198,settlement,Hajŏmŏgu,Hajomogu,official,39.437249,127.014095,KP-08,,
6340455,6557913,park,오정골,오정골,unknown,38.874167,126.885,KP-07,,
6340507,6558210,settlement,Hoedongŏgu,Hoedongogu,official,39.31799842,126.96673307,KP-08,,
6340886,6559390,settlement,석천리,석천리,unknown,39.0079729,127.07531399,KP-07,,
6340540,6558277,settlement,옹가지,옹가지,unknown,39.369835,127.146356,KP-07,,
6340508,6558213,settlement,후동,후동,unknown,39.45806299,127.03440155,KP-08,,
6340325,18736192,settlement,Sangdong,Sangdong,variant,39.03105211,126.34665041,KP-02,,
6340799,6559020,settlement,Changmuk-kol,Changmuk-kol,variant,39.559722,127.129167,KP-08,,
6340512,6558221,settlement,화남리,화남리,unknown,39.27519276,126.99204878,KP-08,,
6340817,6559057,settlement,백운동,백운동,unknown,39.518333,127.159722,KP-08,,
6340478,6557959,settlement,운문동,운문동,unknown,38.985,126.756667,KP-06,,
6340061,6556711,settlement,Komch’ae-gol,Komch'ae-gol,variant,39.48562179,126.43613906,KP-02,,
6340720,6558863,park,침침동,침침동,unknown,39.630278,126.918611,KP-08,,
6340153,6556895,settlement,Ch’angdŏk,Ch'angdok,official,39.47762119,126.55118562,KP-02,,
6340561,6558319,hypsographic,Sŏktong-jae,Soktong-jae,official,39.47267156,127.00245372,KP-08,,
6339946,6556356,settlement,와산,와산,unknown,38.586667,126.408889,KP-06,,
6340815,6559052,settlement,Tun-dong,Tun-dong,official,39.524167,127.176667,KP-08,,
6340042,6556548,settlement,깊은천,깊은천,unknown,38.725833,126.589722,KP-06,,
6339967,6556398,settlement,양수동,양수동,unknown,38.536389,126.433889,KP-06,,
6340697,6558679,settlement,Hagap’o-ri,Hagap'o-ri,official,38.89335025,127.41749275,KP-07,,
6340898,6559413,settlement,Tonyŏm-ni,Tonyom-ni,official,39.09128054,127.12234654,KP-07,,
6340445,6557892,settlement,Wasan-dong,Wasan-dong,official,38.796389,126.835,KP-06,,
6339946,6556355,settlement,Wasan,Wasan,official,38.586667,126.408889,KP-06,,
6340565,6558327,administrative_region,Sudong-nodongjagu,Sudong-nodongjagu,variant,39.38542567,127.01209395,KP-08,,
6340579,6558356,settlement,은하리,은하리,unknown,39.40031847,127.16417777,KP-08,,
6340848,6559313,hypsographic,U-hyŏn,U-hyon,official,39.03819908,126.92638789,KP-06,,
6340370,6557601,settlement,Hŭngnyong-dong,Hungnyong-dong,official,39.2056176,126.31987275,KP-02,,
6340411,6557824,settlement,Pokp’o-dong,Pokp'o-dong,official,38.79417873,126.644593,KP-06,,
6340222,6557190,settlement,구점동,구점동,unknown,38.574167,126.629167,KP-06,,
6340746,6558914,settlement,Koman-dong,Koman-dong,official,39.53267011,126.91027665,KP-08,,
6340349,6557559,settlement,Changdun-dong,Changdun-dong,official,39.19618778,126.34461985,KP-02,,
6340832,6559282,park,인흥리,인흥리,unknown,39.112778,126.945556,KP-02,,
6340185,6557113,settlement,조산말,조산말,unknown,38.630833,126.729722,KP-07,,
6340564,6558325,hypsographic,Songŏdŏk-san,Songodok-san,official,39.393611,126.901111,KP-08,,
6339980,6556423,hypsographic,T’ae-bong,T'ae-bong,official,38.554722,126.5975,KP-06,,
6340416,6557835,settlement,용산동,용산동,unknown,38.796467,126.73926585,KP-06,,
6340315,6557491,settlement,Mulgubi,Mulgubi,official,39.09671152,126.34201553,KP-02,,
6340814,6559050,settlement,Namunmal,Namunmal,official,39.523889,127.195278,KP-08,,
6340807,6559037,settlement,진밑말,진밑말,unknown,39.5493227,127.19522867,KP-08,,
6340854,6559325,settlement,Susŏng-dong,Susong-dong,official,39.17241138,126.9564951,KP-02,,
6340062,6556713,hypsographic,Pultamgol-san,Pultamgol-san,variant,39.46955291,126.39994785,KP-02,,
6340303,6557468,settlement,내장골,내장골,unknown,39.11286468,126.30849057,KP-02,,
6340657,6558599,park,Myŏngjadae,Myongjadae,official,38.777454,127.433987,KP-07,,
6340164,6557070,settlement,Yuch’ol-li,Yuch'ol-li,official,38.736389,126.725556,KP-06,,
6340440,6557883,park,오류동,오류동,unknown,38.768611,126.738056,KP-06,,
6340551,6558299,settlement,Sallyŏk-tong,Sallyok-tong,official,39.45382324,127.01202079,KP-08,,
6340869,6559356,settlement,상림리,상림리,unknown,39.12356818,126.93663922,KP-02,,
6340721,6558865,park,고초,고초,unknown,39.624722,126.918056,KP-08,,
6340803,6559029,settlement,밭허리말,밭허리말,unknown,39.558889,127.1925,KP-08,,
6340871,6559360,settlement,매지동,매지동,unknown,39.09598595,126.93146264,KP-02,,
6340810,6559042,settlement,Mulp’uri-gol,Mulp'uri-gol,variant,39.545,127.169167,KP-08,,
6340340,6557542,settlement,용암동,용암동,unknown,39.033333,126.584444,KP-02,,
6340871,6559359,settlement,Maeji-dong,Maeji-dong,official,39.09598595,126.93146264,KP-02,,
6340188,6557119,settlement,중포,중포,unknown,38.635966,126.704439,KP-07,,
6340668,6558621,settlement,Sangsulbi,Sangsulbi,official,38.76764116,127.46030284,KP-07,,
6340421,6557845,settlement,임계리,임계리,unknown,38.77889865,126.70006583,KP-06,,
6340448,6557899,settlement,배골,배골,unknown,38.833611,126.767778,KP-06,,
6340214,6557173,hypsographic,Tongjam-gogae,Tongjam-gogae,official,38.565556,126.748056,KP-07,,
6340307,6557476,settlement,대연동,대연동,unknown,39.15661996,126.30893748,KP-02,,
6340359,6557579,settlement,P’an’gyo,P'an'gyo,official,39.203056,126.333611,KP-02,,
6340177,6557096,settlement,Kungam-ni,Kungam-ni,official,38.669722,126.684444,KP-06,,
6340343,6557548,settlement,이동리,이동리,unknown,39.07942287,126.39645769,KP-02,,
6340446,6557894,hypsographic,Kodal-san,Kodal-san,official,38.795833,126.8625,KP-06,,
6340360,6557581,settlement,P’onae-dong,P'onae-dong,official,39.24799309,126.56949916,KP-02,,
6340872,6559362,settlement,장패동,장패동,unknown,39.09298305,126.93523004,KP-02,,
6340456,6557915,park,삼각동,삼각동,unknown,38.891389,126.873889,KP-06,,
6340811,6559044,settlement,Anmal,Anmal,official,39.549167,127.148611,KP-08,,
6340671,6558628,hypsographic,설운령,설운령,unknown,38.824722,127.323889,KP-07,,
6340162,6557067,settlement,창암동,창암동,unknown,38.7521891,126.73590776,KP-06,,
6340543,6558282,settlement,Pang-dong,Pang-dong,official,39.48526939,127.1254329,KP-08,,
6340175,6557093,settlement,평암리,평암리,unknown,38.694444,126.705,KP-06,,
6340325,6557512,settlement,상동,상동,unknown,39.03105211,126.34665041,KP-02,,
6340033,6556530,settlement,소우전,소우전,unknown,38.740556,126.451389,KP-06,,
6339986,6556436,settlement,사동,사동,unknown,38.537778,126.501111,KP-06,,
6339971,6556406,settlement,청련동,청련동,unknown,38.515278,126.519444,KP-06,,
6340845,6559308,hypsographic,곳넘령,곳넘령,unknown,39.21450527,126.98532571,KP-000,,
6340278,6557305,settlement,완전리,완전리,unknown,38.745833,126.755,KP-06,,
6340104,6556798,settlement,지수리,지수리,unknown,39.26679817,126.55942814,KP-02,,
6340730,6558882,park,Ch’ŏnhwa-dong,Ch'onhwa-dong,official,39.6075,126.99,KP-08,,
6340361,6557584,settlement,하부근,하부근,unknown,39.20516102,126.4762873,KP-02,,
6340447,6557897,hypsographic,고달령,고달령,unknown,38.801944,126.869722,KP-06,,
6340517,6558230,settlement,Karae-gol,Karae-gol,variant,39.39760888,127.01568999,KP-08,,
6340451,6557904,settlement,Kwanjŏk-tong,Kwanjok-tong,official,38.880278,126.776111,KP-06,,
6340722,6558866,hypsographic,Paedong-san,Paedong-san,official,39.633611,126.955278,KP-08,,
6340895,6559408,settlement,새밭둔,새밭둔,unknown,39.05987561,127.11082173,KP-07,,
6340572,6558342,settlement,덕사,덕사,unknown,39.351667,127.03,KP-08,,
6340773,6558968,hypsographic,Changgun-bong,Changgun-bong,official,39.66227746,127.08062795,KP-08,,
6340738,6558899,park,절골,절골,unknown,39.561389,126.998333,KP-08,,
6339966,6556396,settlement,붉은바우,붉은바우,unknown,38.541667,126.416667,KP-06,,
6340150,6556890,settlement,창골,창골,unknown,39.45577424,126.58390719,KP-02,,
6340003,6556470,park,강탄동,강탄동,unknown,38.585556,126.488889,KP-06,,
6340763,6558948,settlement,Pang-dong,Pang-dong,official,39.58969707,127.04814547,KP-08,,
6340387,6557776,hypsographic,Yanggŏm-gogae,Yanggom-gogae,official,38.889444,126.730556,KP-06,,
6340812,6559046,settlement,Sinnam-ni,Sinnam-ni,official,39.534167,127.197222,KP-08,,
6340238,6557222,settlement,흥앙리,흥앙리,unknown,38.523056,126.885833,KP-07,,
6340127,6556844,settlement,양지말,양지말,unknown,39.39367484,126.54283162,KP-02,,
6340553,6558304,settlement,신창리,신창리,unknown,39.268611,127.14,KP-07,,
6340283,6557427,hypsographic,Kakhŭl-san,Kakhul-san,official,39.058304,126.308034,KP-000,,
6340672,6558630,settlement,성곡,성곡,unknown,38.82114726,127.46774048,KP-07,,
6340530,6558257,settlement,교초리,교초리,unknown,39.39628035,127.20860327,KP-08,,
6340028,6556520,park,총막리,총막리,unknown,38.6975,126.4975,KP-06,,
6340080,6556749,settlement,Maehwa-dong,Maehwa-dong,official,39.38962216,126.40712995,KP-02,,
6340219,6557183,settlement,Sindae-dong,Sindae-dong,official,38.584167,126.645,KP-06,,
6340277,6557303,settlement,동포리,동포리,unknown,38.738889,126.762222,KP-06,,
6340544,6558285,settlement,방화,방화,unknown,39.44033713,127.13137644,KP-08,,
6340072,6556733,settlement,Ch’il-li,Ch'il-li,official,39.418611,126.391944,KP-02,,
6339954,6556371,settlement,Hahap-tong,Hahap-tong,official,38.544722,126.363056,KP-06,,
6340469,6557941,hypsographic,형제봉,형제봉,unknown,38.907222,126.892778,KP-06,,
6340375,6557752,hypsographic,Mayu-ryŏng,Mayu-ryong,official,38.96886167,126.60402992,KP-000,,
6339972,6556407,settlement,Sedol-gol,Sedol-gol,official,38.507778,126.556389,KP-06,,
6340213,6557171,settlement,Yulmong-ni,Yulmong-ni,official,38.579832,126.732588,KP-07,,
6340865,6559347,settlement,Yongso-dong,Yongso-dong,official,39.09844457,126.95378201,KP-02,,
6340318,6557497,settlement,Panghwa-dong,Panghwa-dong,official,39.03232082,126.47123169,KP-02,,
6339965,6556393,settlement,Hach’on,Hach'on,official,38.521111,126.418889,KP-06,,
6340044,6556551,park,Kalch’ŏl-li,Kalch'ol-li,official,38.741667,126.581389,KP-06,,
6340848,6559314,hypsographic,우현,우현,unknown,39.03819908,126.92638789,KP-06,,
6340184,6557111,settlement,상구봉,상구봉,unknown,38.630697,126.735178,KP-07,,
6340170,6557083,settlement,양동,양동,unknown,38.728056,126.718611,KP-06,,
6340873,6559364,settlement,상서리,상서리,unknown,39.07359976,126.9937768,KP-02,,
6340195,6557133,settlement,주답리,주답리,unknown,38.639167,126.6125,KP-06,,
6340686,6558657,settlement,Yunjakkol,Yunjakkol,official,38.96046143,127.25393378,KP-07,,
6340787,6558997,hypsographic,불당골,불당골,unknown,39.620278,127.101111,KP-08,,
6340463,6557929,hypsographic,창뒷골,창뒷골,unknown,38.898333,126.7925,KP-06,,
6340849,6559316,hypsographic,하마넘을령,하마넘을령,unknown,39.05177108,127.0511407,KP-07,,
6340573,6558344,park,덕산리,덕산리,unknown,39.325,127.053333,KP-08,,
6340169,6557081,settlement,삼각동,삼각동,unknown,38.715278,126.72,KP-06,,
6340358,18736191,settlement,Tapgol,Tapgol,variant,39.06051518,126.31793775,KP-02,,
6340122,6556833,settlement,Sangdan-dong,Sangdan-dong,official,39.41288882,126.49479849,KP-02,,
6340769,6558960,settlement,Yukpong-gol,Yukpong-gol,variant,39.637222,127.057778,KP-08,,
6340724,6558871,park,인흥리,인흥리,unknown,39.646667,126.976944,KP-08,,
6340394,6557790,settlement,Kalmi,Kalmi,official,38.85835328,126.67689769,KP-06,,
6340144,6556877,settlement,Chigyŏng,Chigyong,official,39.48578124,126.53699336,KP-02,,
6340706,6558698,hypsographic,희역령,희역령,unknown,38.85436149,127.2855639,KP-07,,
6340805,6559033,settlement,독점거리,독점거리,unknown,39.55827507,127.16992966,KP-08,,
6340325,6557511,settlement,Sang-dong,Sang-dong,official,39.03105211,126.34665041,KP-02,,
6339944,6556351,settlement,Hadaejŏng,Hadaejong,official,38.561389,126.388889,KP-06,,
6340151,6556891,settlement,T’ong-gol,T'ong-gol,variant,39.47077418,126.56643467,KP-02,,
6340672,6558629,settlement,Sŏnggok,Songgok,official,38.82114726,127.46774048,KP-07,,
6340869,6559355,settlement,Sangnim-ni,Sangnim-ni,official,39.12356818,126.93663922,KP-02,,
6340391,6557784,settlement,Towŏn-dong,Towon-dong,official,38.89613863,126.62030463,KP-06,,
6340190,6557123,settlement,태을동,태을동,unknown,38.635294,126.683304,KP-07,,
6340221,6557188,settlement,와대동,와대동,unknown,38.584444,126.640278,KP-06,,
6340071,6556731,settlement,Ch’ambaenamu-gol,Ch'ambaenamu-gol,variant,39.42680639,126.43056311,KP-02,,
6340356,6557573,settlement,Ch’ilgogae-dong,Ch'ilgogae-dong,official,39.20929103,126.33513075,KP-02,,
6340551,6558300,settlement,산력동,산력동,unknown,39.45382324,127.01202079,KP-08,,
6340891,6559399,settlement,Yongu-gol,Yongu-gol,variant,39.04580388,127.14391812,KP-07,,
6340473,6557948,hypsographic,Nammun-hyŏn,Nammun-hyon,official,38.967778,126.886944,KP-06,,
6340400,6557803,hypsographic,묘각산,묘각산,unknown,38.836667,126.618889,KP-06,,
6340656,6558597,hypsographic,Maesal-lyŏng,Maesal-lyong,official,38.92117189,127.2950623,KP-07,,
6340538,6558273,settlement,능리여울,능리여울,unknown,39.47618533,126.91319947,KP-08,,
6340018,6556500,hypsographic,큰굴산,큰굴산,unknown,38.67,126.587778,KP-06,,
6340584,6558366,settlement,원목,원목,unknown,39.356944,127.066111,KP-08,,
6340311,6557484,settlement,두루메,두루메,unknown,39.003561,126.322721,KP-01,,
6340524,6558245,settlement,구골,구골,unknown,39.374167,127.188056,KP-08,,
6340378,6557759,settlement,우구몰,우구몰,unknown,38.92616754,126.73118708,KP-06,,
6340267,6557283,hypsographic,대골고개,대골고개,unknown,38.635902,126.858108,KP-07,,
6340432,6557866,settlement,Tongsan-dong,Tongsan-dong,official,38.76623715,126.69336687,KP-06,,
6340368,6557597,settlement,Hoemok-tong,Hoemok-tong,official,39.16035748,126.3621517,KP-02,,
6340005,6556473,settlement,Tokcho-dong,Tokcho-dong,official,38.598056,126.513333,KP-06,,
6340044,6556552,park,갈천리,갈천리,unknown,38.741667,126.581389,KP-06,,
6340651,6558588,hypsographic,덕재,덕재,unknown,38.79078373,127.25290868,KP-07,,
6340123,6556836,settlement,덕골,덕골,unknown,39.40808105,126.49201069,KP-02,,
6340302,6557465,administrative_region,Naedong-ni,Naedong-ni,official,39.10242181,126.31904801,KP-02,,
6340152,6556894,settlement,장골,장골,unknown,39.475315,126.564962,KP-02,,
6339968,6556400,settlement,원산리,원산리,unknown,38.546667,126.441667,KP-06,,
6340073,6556736,settlement,산양골,산양골,unknown,39.4163319,126.31719285,KP-02,,
6340654,6558594,settlement,동상리,동상리,unknown,38.924167,127.430833,KP-07,,
6340386,6557775,settlement,갈마동,갈마동,unknown,38.89551561,126.73219135,KP-06,,
6340462,6557927,hypsographic,생왕산,생왕산,unknown,38.8875,126.803889,KP-06,,
6340131,6556851,settlement,Sambak-kol,Sambak-kol,variant,39.39327,126.54858072,KP-02,,
6340106,6556801,hypsographic,Ami-san,Ami-san,official,39.285,126.492778,KP-02,,
6340013,6556489,hydrographic,Sanbuk-chŏsuji,Sanbuk-chosuji,official,38.650556,126.553611,KP-06,,
6340296,6557454,settlement,금촌동,금촌동,unknown,39.17395263,126.35444522,KP-02,,
6340783,6558989,settlement,명석이,명석이,unknown,39.66944848,127.10243604,KP-08,,
6339974,6556411,settlement,Puhŭng-dong,Puhung-dong,official,38.509722,126.561944,KP-06,,
6340885,6559387,settlement,Naedong-ni,Naedong-ni,official,39.003611,127.080278,KP-07,,
6340053,6556569,settlement,Kok-tong,Kok-tong,official,38.518333,126.376667,KP-06,,
6340866,6559350,settlement,수침동,수침동,unknown,39.118333,126.943889,KP-02,,
6340094,6556777,settlement,Kŭm-dong,Kum-dong,official,39.27887561,126.33220961,KP-02,,
6340754,6558930,park,Sŏk-tong,Sok-tong,official,39.52889685,126.97867478,KP-08,,
6340469,6557940,hypsographic,Hyŏngje-bong,Hyongje-bong,official,38.907222,126.892778,KP-06,,
6340089,6556767,settlement,Kahak-tong,Kahak-tong,official,39.3151604,126.37604213,KP-02,,
6340735,6558893,park,대굴동,대굴동,unknown,39.593611,126.989167,KP-08,,
6340905,6559428,settlement,삼밭개,삼밭개,unknown,39.22583141,127.19843974,KP-07,,
6340346,6557553,hypsographic,Chajak-kogae,Chajak-kogae,official,39.13311792,126.35719754,KP-02,,
6340853,6559323,settlement,Chŏn’gi-dong,Chon'gi-dong,official,39.15595216,126.96402987,KP-02,,
6340046,6556555,settlement,Chungbang-dong,Chungbang-dong,official,38.738889,126.560278,KP-06,,
6340921,6559460,hypsographic,고칫골,고칫골,unknown,39.220833,126.994722,KP-08,,
6340108,6556806,settlement,달밭치,달밭치,unknown,39.33733672,126.45683767,KP-02,,
6340644,6558573,settlement,Kwangmyŏng-ni,Kwangmyong-ni,official,38.97638129,127.40602629,KP-07,,
6340139,6556868,settlement,정재골,정재골,unknown,39.47496283,126.45906198,KP-02,,
6340662,6558610,settlement,부흥동,부흥동,unknown,38.88304532,127.42962595,KP-07,,
6340819,6559060,settlement,Kukpong-ni,Kukpong-ni,official,39.50903903,127.17776875,KP-08,,
6340161,6557064,settlement,Samhyŏn-dong,Samhyon-dong,official,38.75272734,126.68973561,KP-06,,
6340406,6557815,settlement,용연동,용연동,unknown,38.80532497,126.67859847,KP-06,,
6339964,6556392,settlement,천동,천동,unknown,38.511944,126.421111,KP-06,,
6340868,6559353,settlement,An’ga-dong,An'ga-dong,official,39.10557344,126.9281758,KP-02,,
6340215,6557176,hypsographic,율목산,율목산,unknown,38.562778,126.724722,KP-06,,
6340031,6556526,settlement,달연동,달연동,unknown,38.71,126.472778,KP-06,,
6340697,6558680,settlement,하가포리,하가포리,unknown,38.89335025,127.41749275,KP-07,,
6340115,6556820,settlement,북창,북창,unknown,39.37205864,126.54716625,KP-02,,
6340088,6556765,settlement,Kan-dong,Kan-dong,official,39.321111,126.309167,KP-02,,
6340145,6556879,settlement,Talchŏn-dong,Talchon-dong,official,39.48261213,126.52622393,KP-02,,
6340784,6558990,settlement,Pamnamubŏl,Pamnamubol,official,39.66278706,127.1012772,KP-08,,
6340779,6558980,settlement,Yu-dong,Yu-dong,official,39.739444,127.016667,KP-08,,
6340100,6556789,settlement,Songi-gol,Songi-gol,variant,39.26619843,126.51445672,KP-02,,
6340650,6558585,settlement,Tŏng-ni,Tong-ni,official,38.77691841,127.25912326,KP-07,,
6340496,6558189,settlement,천동리,천동리,unknown,39.490829,127.124752,KP-08,,
6340349,6557560,settlement,장둔동,장둔동,unknown,39.19618778,126.34461985,KP-02,,
6340123,6556835,settlement,Tŏk-kol,Tok-kol,variant,39.40808105,126.49201069,KP-02,,
6340461,6557925,settlement,어등,어등,unknown,38.8975,126.824167,KP-06,,
6340410,6557822,settlement,Chŏl-gol,Chol-gol,variant,38.79372511,126.63758555,KP-06,,
6340745,6558912,park,Kahŏn-dong,Kahon-dong,official,39.53581549,126.92182351,KP-08,,
6340499,6558195,settlement,해삼,해삼,unknown,39.402582,127.148054,KP-08,,
6340181,6557104,settlement,Saet’ŏ,Saet'o,official,38.656389,126.6275,KP-06,,
6340694,6558673,settlement,Ch’ŏngsŏkkol,Ch'ongsokkol,official,38.77382319,127.29279685,KP-07,,
6340837,6559292,settlement,갈번지,갈번지,unknown,39.241357,127.194681,KP-07,,
6340581,6558359,settlement,Uttŭl,Uttul,official,39.315,127.154167,KP-07,,
6340482,6558160,settlement,Chaegung-dong,Chaegung-dong,official,39.438056,127.168807,KP-08,,
6340046,6556556,settlement,중방동,중방동,unknown,38.738889,126.560278,KP-06,,
6340180,6557103,settlement,황경개,황경개,unknown,38.681944,126.605278,KP-06,,
6340212,6557169,park,Ibam-ni,Ibam-ni,official,38.5925,126.649167,KP-06,,
6340445,6557893,settlement,와산동,와산동,unknown,38.796389,126.835,KP-06,,
6340810,6559043,settlement,물푸리골,물푸리골,unknown,39.545,127.169167,KP-08,,
6340834,6559286,settlement,외백일리,외백일리,unknown,39.025278,127.081944,KP-07,,
6340653,6558591,settlement,Tongmakp’o,Tongmakp'o,official,38.95027242,127.47026631,KP-07,,
6340194,6557131,settlement,용반동,용반동,unknown,38.626667,126.643611,KP-06,,
6340282,6557425,settlement,Kap’yŏng-ni,Kap'yong-ni,official,39.200278,126.353056,KP-02,,
6340318,6557498,settlement,방화동,방화동,unknown,39.03232082,126.47123169,KP-02,,
6340909,6559436,settlement,음말,음말,unknown,39.01851259,127.1032359,KP-07,,
6340287,6557435,settlement,Kŏji-dong,Koji-dong,official,39.14618445,126.31297176,KP-02,,
6340441,6557885,settlement,간촌동,간촌동,unknown,38.7825,126.754167,KP-06,,
6340034,6556531,settlement,Taeujŏn,Taeujon,official,38.7375,126.463889,KP-06,,
6340552,6558302,settlement,상경둔리,상경둔리,unknown,39.38917998,127.01414559,KP-08,,
6340791,6559005,settlement,남석,남석,unknown,39.582778,127.099444,KP-000,1,
6340109,6556808,hypsographic,가는고개,가는고개,unknown,39.32208415,126.53120708,KP-02,,
6340237,6557220,settlement,개상리,개상리,unknown,38.517778,126.877778,KP-07,,
6339961,6556386,settlement,양지동,양지동,unknown,38.530278,126.391111,KP-06,,
6340340,6557541,settlement,Yangam-dong,Yangam-dong,variant,39.033333,126.584444,KP-02,,
6340211,6557167,spot,정봉,정봉,unknown,38.585278,126.599722,KP-06,,
6340914,6559445,settlement,Tonae,Tonae,official,39.16988168,126.96615299,KP-02,,
6340732,6558887,park,와우동,와우동,unknown,39.615278,126.906111,KP-08,,
6340648,6558582,hypsographic,덕령,덕령,unknown,38.791389,127.245,KP-07,,
6340189,6557120,settlement,Hap’o,Hap'o,official,38.641667,126.697778,KP-07,,
6340755,6558933,park,광성덕,광성덕,unknown,39.527778,127.003056,KP-08,,
6340673,6558632,settlement,성남리,성남리,unknown,38.87177063,127.44797157,KP-07,,
6340114,6556818,settlement,하평동,하평동,unknown,39.36804463,126.56535308,KP-02,,
6340422,6557847,settlement,근답,근답,unknown,38.78399884,126.69791683,KP-06,,
6340265,6557278,hypsographic,Hwajin-gogae,Hwajin-gogae,official,38.63868,126.787179,KP-07,,
6340249,6557246,settlement,Yŏmdaegol,Yomdaegol,official,38.571944,126.876111,KP-07,,
6340461,6557924,settlement,Ŏdŭng,Odung,official,38.8975,126.824167,KP-06,,
6340381,6557765,hypsographic,각욱산,각욱산,unknown,38.921389,126.609167,KP-06,,
6340109,6556807,hypsographic,Kanŭn-gogae,Kanun-gogae,official,39.32208415,126.53120708,KP-02,,
6340897,6559412,settlement,방하리,방하리,unknown,39.07441956,127.12504385,KP-07,,
6340045,6556553,settlement,Kyŏngsu-dong,Kyongsu-dong,official,38.75385148,126.55286933,KP-06,,
6340820,6559062,settlement,Puk-kol,Puk-kol,variant,39.51789713,127.1938691,KP-08,,
6340646,6558578,park,광평동,광평동,unknown,38.774722,127.436944,KP-07,,
6340476,6557954,settlement,Ŏch’on-dong,Och'on-dong,official,38.980833,126.788333,KP-06,,
6340568,6558334,hypsographic,대야치,대야치,unknown,39.30285755,126.91676238,KP-08,,
6340428,6557858,hypsographic,Nottari-gogae,Nottari-gogae,official,38.77497843,126.62045164,KP-06,,
6340057,6556578,settlement,상구리,상구리,unknown,38.75186555,126.47997837,KP-06,,
6340788,6558998,settlement,Kkach’i-gol,Kkach'i-gol,variant,39.60528245,127.18741027,KP-08,,
6340531,6558258,hypsographic,Mayu-ryŏng,Mayu-ryong,official,39.44725743,127.16082621,KP-08,,
6340224,6557193,hypsographic,Hŭiyŏk-kogae,Huiyok-kogae,official,38.538333,126.721667,KP-06,,
6340525,6558247,settlement,구주골,구주골,unknown,39.27022363,126.90945824,KP-02,,
6340571,6558340,settlement,덕평리,덕평리,unknown,39.264722,127.019167,KP-07,,
6340014,6556491,settlement,Taesŏng-ni,Taesong-ni,official,38.6325,126.545278,KP-06,,
6340107,6556803,settlement,Anyang-gol,Anyang-gol,variant,39.29421584,126.43900139,KP-02,,
6340226,6557197,settlement,Yangsuam,Yangsuam,official,38.539722,126.648889,KP-06,,
6340705,6558696,settlement,후골,후골,unknown,38.76172897,127.47655917,KP-07,,
6340407,6557817,settlement,가미대,가미대,unknown,38.80085165,126.67030302,KP-06,,
6340195,6557132,settlement,Chudam-ni,Chudam-ni,official,38.639167,126.6125,KP-06,,
6340150,6556889,settlement,Ch’ang-gol,Ch'ang-gol,variant,39.45577424,126.58390719,KP-02,,
6340447,6557896,hypsographic,Kodal-lyŏng,Kodal-lyong,official,38.801944,126.869722,KP-06,,
6340159,6557060,settlement,Pangch’uk-tong,Pangch'uk-tong,official,38.746389,126.613889,KP-06,,
6340049,6556561,settlement,Sil-li,Sil-li,official,38.613611,126.460278,KP-06,,
6340877,6559371,settlement,Tuji-dong,Tuji-dong,official,39.02752808,126.89727364,KP-06,,
6340384,6557771,settlement,이목동,이목동,unknown,38.905,126.711667,KP-06,,
6340458,6557918,park,Chŏgŭn-dong,Chogun-dong,official,38.886667,126.846389,KP-06,,
6340117,6556823,settlement,Yangbyŏn,Yangbyon,official,39.37363639,126.51728224,KP-02,,
6340419,6557841,settlement,와룡동,와룡동,unknown,38.77409728,126.70416119,KP-06,,
6340034,6556532,settlement,대우전,대우전,unknown,38.7375,126.463889,KP-06,,
6340032,6556527,hypsographic,P’yŏngjŏn-gogae,P'yongjon-gogae,official,38.720833,126.459167,KP-06,,
6340462,6557926,hypsographic,Saengwang-san,Saengwang-san,official,38.8875,126.803889,KP-06,,
6340789,6559000,settlement,Soe-gol,Soe-gol,variant,39.59496749,127.18495267,KP-08,,
6340913,6559444,settlement,상동,상동,unknown,39.19260254,126.97530706,KP-02,,
6340004,6556471,settlement,Hagaesŏng,Hagaesong,official,38.6,126.482778,KP-06,,
6340541,6558278,hypsographic,Paktu-san,Paktu-san,official,39.354722,126.946111,KP-08,,
6340363,6557587,hypsographic,Honggul-lyŏng,Honggul-lyong,official,39.16761386,126.43059302,KP-02,,
6340054,6556572,settlement,간동,간동,unknown,38.734444,126.445278,KP-06,,
6340533,6558263,park,먹골,먹골,unknown,39.380556,126.972222,KP-08,,
6340574,6558346,settlement,들골,들골,unknown,39.30412434,126.94906704,KP-08,,
6340367,6557596,settlement,황전동,황전동,unknown,39.01937546,126.41608945,KP-02,,
6340582,6558361,settlement,Wŏlbun,Wolbun,official,39.46335219,127.11629518,KP-08,,
6340580,6558357,settlement,Utchŏl-gol,Utchol-gol,variant,39.40690604,126.97528917,KP-08,,
6340738,6558898,park,Chŏl-gol,Chol-gol,variant,39.561389,126.998333,KP-08,,
6340241,6557229,hypsographic,노루메기고개,노루메기고개,unknown,38.543333,126.8475,KP-07,,
6340414,6557831,settlement,신촌동,신촌동,unknown,38.80221062,126.7105571,KP-06,,
6340734,6558891,settlement,대평지,대평지,unknown,39.588611,126.976667,KP-08,,
6340880,6559377,park,Chaegung-dong,Chaegung-dong,official,39.04,126.940278,KP-06,,
6340439,6557880,park,Chak-tong,Chak-tong,official,38.75754473,126.72106515,KP-06,,
6340850,6559317,hypsographic,Tadae-ryŏng,Tadae-ryong,official,39.10988396,127.05584124,KP-07,,
6340378,6557758,settlement,Ugumol,Ugumol,variant,38.92616754,126.73118708,KP-06,,
6340119,6556828,settlement,절골,절골,unknown,39.39039293,126.46410959,KP-02,,
103043,6556860,settlement,큰밭줄,큰밭줄,unknown,39.42732703,126.57340299,KP-02,,
6340577,6558351,settlement,Twidŏgi,Twidogi,official,39.393889,126.997778,KP-08,,
6340266,6557280,hypsographic,Sadŏk-san,Sadok-san,official,38.635467,126.842975,KP-07,,
6340193,6557129,hypsographic,태을산,태을산,unknown,38.635,126.664722,KP-06,,
6340057,6556577,settlement,Sanggu-ri,Sanggu-ri,official,38.75186555,126.47997837,KP-06,,
6340242,6557232,spot,Tongjŏng,Tongjong,variant,38.572222,126.766389,KP-07,,
6340261,6557270,settlement,Pinjŏlgol,Pinjolgol,official,38.631111,126.886944,KP-07,,
6339964,6556391,settlement,Ch’ŏn-dong,Ch'on-dong,official,38.511944,126.421111,KP-06,,
6340643,6558571,hypsographic,Kojing-nyŏng,Kojing-nyong,official,38.801245,127.451909,KP-07,,
6340290,6557442,park,고척리,고척리,unknown,39.246389,126.340833,KP-02,,
6340119,6556827,settlement,Chŏl-gol,Chol-gol,variant,39.39039293,126.46410959,KP-02,,
6340001,6556466,settlement,창바우동,창바우동,unknown,38.589722,126.544167,KP-06,,
6340519,6558234,hypsographic,Kilch’i-ryŏng,Kilch'i-ryong,official,39.334722,126.9075,KP-08,,
6340506,6558208,settlement,Hoedong-ni,Hoedong-ni,official,39.321389,126.951389,KP-08,,
6340542,6558280,settlement,Pamgasi,Pamgasi,official,39.3082657,126.95804987,KP-08,,
6340012,6556488,hypsographic,봉화봉,봉화봉,unknown,38.633333,126.593333,KP-06,,
6340776,6558975,settlement,구덕이,구덕이,unknown,39.69012854,127.0422502,KP-08,,
6340862,6559341,settlement,Chigyŏng-dong,Chigyong-dong,official,39.11907187,126.99373815,KP-02,,
6340198,6557139,settlement,상한당터,상한당터,unknown,38.617222,126.641944,KP-06,,
6340745,6558913,park,가헌동,가헌동,unknown,39.53581549,126.92182351,KP-08,,
6339992,6556448,hypsographic,논골,논골,unknown,38.554444,126.525,KP-06,,
6340217,6557179,hypsographic,Yangmul-san,Yangmul-san,official,38.575,126.681944,KP-06,,
6340489,6558175,settlement,직개,직개,unknown,39.47436784,126.94054421,KP-08,,
6340414,6557830,settlement,Sinch’on-dong,Sinch'on-dong,official,38.80221062,126.7105571,KP-06,,
6340415,6557833,settlement,양지동,양지동,unknown,38.80449268,126.72497731,KP-06,,
6340800,6559022,settlement,Morae-gol,Morae-gol,variant,39.56029268,127.14057241,KP-08,,
6340090,6556770,settlement,군숭이,군숭이,unknown,39.29705789,126.31341048,KP-02,,
6340239,6557224,spot,이천,이천,unknown,38.529167,126.872778,KP-07,,
6340022,6556508,settlement,내대동,내대동,unknown,38.674167,126.514444,KP-06,,
6340361,6557583,settlement,Habugŭn,Habugun,official,39.20516102,126.4762873,KP-02,,
6340335,6557532,settlement,역재,역재,unknown,39.240278,126.540833,KP-02,,
6340474,6557950,settlement,Tŏk-kol,Tok-kol,official,38.958611,126.8525,KP-06,,
6340211,6557166,spot,Chŏngbong-yŏk,Chongbong-yok,official,38.585278,126.599722,KP-06,,
6340052,6556568,settlement,침탄동,침탄동,unknown,38.7503799,126.43709582,KP-06,,
6340690,6558666,settlement,점촌동,점촌동,unknown,38.98352767,127.39528938,KP-07,,
6340423,6557848,settlement,Ch’ŏnip-tong,Ch'onip-tong,official,38.77516173,126.69597342,KP-06,,
6340067,6556723,settlement,Changsŏng-gol,Changsong-gol,variant,39.43080733,126.39079364,KP-02,,
6340795,6559012,settlement,Irŭng-gol,Irung-gol,variant,39.556111,127.073611,KP-000,1,
6340792,6559007,settlement,가시평,가시평,unknown,39.586944,127.104167,KP-000,1,
6340087,6556763,settlement,Kŏp’a,Kop'a,official,39.328889,126.322222,KP-02,,
103043,6556859,settlement,K’ŭnbatchul,K'unbatchul,official,39.42732703,126.57340299,KP-02,,
6340376,6557754,hypsographic,Inp’i-gogae,Inp'i-gogae,official,38.95787913,126.7187351,KP-06,,
6340490,6558177,settlement,치마바우,치마바우,unknown,39.271667,127.185556,KP-07,,
6340031,6556525,settlement,Taryŏn-dong,Taryon-dong,official,38.71,126.472778,KP-06,,
6340403,6557808,settlement,Kujinp’o,Kujinp'o,official,38.82134297,126.63148744,KP-06,,
6340493,6558182,hypsographic,Chŏl-gol,Chol-gol,official,39.270556,126.943889,KP-08,,
6340792,6559006,settlement,Kasip’yŏng,Kasip'yong,short,39.586944,127.104167,KP-000,1,
6340656,6558598,hypsographic,매산령,매산령,unknown,38.92117189,127.2950623,KP-07,,
6340179,6557100,settlement,Yul-li,Yul-li,official,38.670278,126.645278,KP-06,,
6340876,6559369,settlement,Nanjŏl-li,Nanjol-li,official,39.06128509,126.89933161,KP-06,,
6340898,6559414,settlement,도념리,도념리,unknown,39.09128054,127.12234654,KP-07,,
6340257,6557263,settlement,보미골,보미골,unknown,38.610915,126.88885,KP-07,,
6340483,6558163,settlement,차골,차골,unknown,39.40965986,127.10924638,KP-08,,
6340268,6557285,hypsographic,양지고개,양지고개,unknown,38.655813,126.802377,KP-07,,
6339984,6556432,settlement,판교,판교,unknown,38.543333,126.526111,KP-06,,
6340803,6559028,settlement,Pathŏrimal,Pathorimal,official,39.558889,127.1925,KP-08,,
6340308,6557478,settlement,대촌,대촌,unknown,39.05446138,126.41877198,KP-02,,
6340902,6559421,settlement,Samgŏri,Samgori,variant,39.19183522,127.19040373,KP-07,,
6340038,6556540,settlement,도촌동,도촌동,unknown,38.722778,126.525278,KP-06,,
6340169,6557080,settlement,Samgak-tong,Samgak-tong,official,38.715278,126.72,KP-06,,
6340578,6558354,settlement,뒤술막,뒤술막,unknown,39.354444,127.193056,KP-07,,
6340423,6557849,settlement,천입동,천입동,unknown,38.77516173,126.69597342,KP-06,,
6340143,6556875,settlement,Chosan-dong,Chosan-dong,official,39.50159383,126.5163382,KP-02,,
6340523,6558243,settlement,골안,골안,unknown,39.41720507,127.18215568,KP-08,,
6340484,6558164,settlement,Chahak-kol,Chahak-kol,variant,39.26939333,126.96480357,KP-08,,
6340007,6556477,settlement,Ch’ŏn’gok-tong,Ch'on'gok-tong,official,38.610833,126.519722,KP-06,,
6340846,6559309,hypsographic,Yeju-hyŏn,Yeju-hyon,official,39.14291184,126.90118307,KP-02,,
6340172,6557086,settlement,Tangch’i-dong,Tangch'i-dong,official,38.722778,126.720833,KP-06,,
6340661,6558607,hypsographic,Pongsu-ryŏng,Pongsu-ryong,official,38.901314,127.288193,KP-07,,
6340585,6558367,spot,Yangch’ŏn-sa,Yangch'on-sa,official,39.426111,127.195833,KP-08,,
6340509,6558214,settlement,Hŭk-tong,Huk-tong,official,39.4739371,127.12638754,KP-08,,
6340141,6556871,settlement,Karae-gol,Karae-gol,variant,39.48907438,126.50197242,KP-02,,
6340774,6558970,park,Yŏllyŏp’yŏng,Yollyop'yong,official,39.67332641,127.0857364,KP-08,,
6340428,6557859,hypsographic,놋다리고개,놋다리고개,unknown,38.77497843,126.62045164,KP-06,,
6340863,6559344,park,중동,중동,unknown,39.110556,126.991111,KP-02,,
6340494,6558184,settlement,Ch’ŏlsal-li,Ch'olsal-li,official,39.326305,127.170417,KP-07,,
6340890,6559398,settlement,새말,새말,unknown,39.01952821,127.12419811,KP-07,,
6340058,6556579,hypsographic,Suri-bong,Suri-bong,official,38.624167,126.3975,KP-06,,
6340752,6558926,park,Ssarik-kol,Ssarik-kol,variant,39.511111,126.968333,KP-08,,
6340488,6558173,settlement,차탄,차탄,unknown,39.423611,126.995556,KP-08,,
6340266,6557281,hypsographic,사덕산,사덕산,unknown,38.635467,126.842975,KP-07,,
6340323,6557508,hypsographic,삼각산,삼각산,unknown,39.03267204,126.40403452,KP-02,,
6340856,6559329,settlement,Chikchŏ-dong,Chikcho-dong,official,39.15033781,126.94318473,KP-02,,
6340330,6557521,settlement,Songdun-dong,Songdun-dong,official,39.19340208,126.33798692,KP-02,,
6340702,6558690,settlement,하어지리,하어지리,unknown,38.98804625,127.4986734,KP-07,,
6340101,6556791,settlement,Naep’yŏng,Naep'yong,official,39.2531698,126.52315443,KP-02,,
6340129,6556847,hypsographic,Chang-gol,Chang-gol,official,39.37947263,126.56996601,KP-02,,
6340115,6556819,settlement,Pukch’ang,Pukch'ang,official,39.37205864,126.54716625,KP-02,,
6340756,6558935,settlement,새벌,새벌,unknown,39.53243624,127.01709548,KP-08,,
6340839,6559295,hypsographic,Paegun-san,Paegun-san,official,39.146111,126.924722,KP-02,,
6340545,6558287,spot,방화역,방화역,unknown,39.43582053,127.14588522,KP-08,,
6340126,6556841,hypsographic,Ami-san,Ami-san,official,39.40369,126.53093,KP-02,,
6340070,6556730,settlement,소상리,소상리,unknown,39.448611,126.428333,KP-02,,
6340048,6556560,hypsographic,문재,문재,unknown,38.741111,126.5275,KP-06,,
6340575,6558347,settlement,Tumunp’o,Tumunp'o,official,39.329722,127.069722,KP-08,,
6340006,6556476,hypsographic,상개성,상개성,unknown,38.605278,126.507222,KP-06,,
6340286,6557433,settlement,Kŏil-li,Koil-li,official,39.141389,126.526389,KP-02,,
6340230,6557206,hypsographic,화현,화현,unknown,38.513889,126.640833,KP-06,,
6340019,6556502,settlement,점말,점말,unknown,38.682222,126.564444,KP-06,,
6340271,6557290,hypsographic,Myŏngjidŏk-san,Myongjidok-san,official,38.686389,126.8125,KP-07,,
6340881,6559380,settlement,누른지,누른지,unknown,39.01217378,126.9688478,KP-06,,
6340437,6557877,hydrographic,오류저수지,오류저수지,unknown,38.76871194,126.73092775,KP-06,,
6340849,6559315,hypsographic,Hamanŏmŭl-lyŏng,Hamanomul-lyong,official,39.05177108,127.0511407,KP-07,,
6340016,6556495,settlement,Chŏgae,Chogae,official,38.615833,126.551667,KP-06,,
6340874,6559366,settlement,서흥리,서흥리,unknown,39.06522089,127.03652276,KP-07,,
6340140,6556869,hypsographic,Tokchŏmgol-san,Tokchomgol-san,official,39.48307469,126.47246024,KP-02,,
6340338,6557538,settlement,오류촌,오류촌,unknown,39.01217455,126.30396376,KP-01,,
6340798,6559019,hypsographic,원각산,원각산,unknown,39.535833,127.103611,KP-08,,
6340852,6559322,settlement,중동,중동,unknown,39.17969153,126.97173002,KP-02,,
6339945,6556354,hypsographic,오암산,오암산,unknown,38.566667,126.4025,KP-06,,
6340246,6557240,settlement,Tarigol,Tarigol,official,38.559343,126.878949,KP-07,,
6340337,6557535,settlement,Yŏpso-dong,Yopso-dong,official,39.0975,126.443889,KP-02,,
6340099,6556788,settlement,서구리,서구리,unknown,39.2740201,126.39329025,KP-02,,
6340781,6558984,settlement,Samniya,Samniya,official,39.677778,127.101667,KP-000,1,
6340470,6557943,settlement,월암동,월암동,unknown,38.933333,126.771944,KP-06,,
6340846,6559310,hypsographic,예주현,예주현,unknown,39.14291184,126.90118307,KP-02,,
6340419,6557840,settlement,Waryong-dong,Waryong-dong,official,38.77409728,126.70416119,KP-06,,
6340783,6558988,settlement,Myŏngsŏgi,Myongsogi,official,39.66944848,127.10243604,KP-08,,
6340429,6557860,settlement,P’eyŏn-dong,P'eyon-dong,official,38.75861202,126.65905051,KP-06,,
6340260,6557269,settlement,산두개,산두개,unknown,38.616308,126.892445,KP-07,,
6340137,6556864,settlement,안골,안골,unknown,39.44484287,126.57789168,KP-02,,
6340688,6558661,hypsographic,Chagŭn-gogae,Chagun-gogae,official,38.975833,127.27,KP-07,,
6340243,6557233,hypsographic,Chŭngjigae-san,Chungjigae-san,official,38.555833,126.783056,KP-07,,
6340132,6556854,settlement,은토골,은토골,unknown,39.41470638,126.58701403,KP-02,,
6340537,6558270,settlement,Nont’ŭl,Nont'ul,official,39.46159591,126.95346166,KP-08,,
6340399,6557801,settlement,둔도리,둔도리,unknown,38.85899242,126.72084663,KP-06,,
6340285,6557431,hypsographic,Kŏma-gogae,Koma-gogae,official,39.1100913,126.44676975,KP-02,,
6340481,6558158,park,Ajikka-ri,Ajikka-ri,official,39.298056,127.02,KP-08,,
6340886,6559389,settlement,Sŏkch’ŏl-li,Sokch'ol-li,official,39.0079729,127.07531399,KP-07,,
6340374,6557751,settlement,노상동,노상동,unknown,38.96975179,126.74121133,KP-06,,
6340203,6557148,settlement,Naerang-ni,Naerang-ni,official,38.608056,126.730833,KP-07,,
6340147,6556884,settlement,작은지,작은지,unknown,39.462605,126.518557,KP-02,,
6340900,6559418,settlement,구화동,구화동,unknown,39.15583607,127.12951924,KP-07,,
6340472,6557946,settlement,Kŏriso-ri,Koriso-ri,official,38.945833,126.878056,KP-06,,
6339943,6556349,settlement,Naedŏng-ni,Naedong-ni,official,38.590556,126.325833,KP-06,,
6340024,6556512,settlement,장암,장암,unknown,38.655278,126.486944,KP-06,,
6340033,6556529,settlement,Soujŏn,Soujon,official,38.740556,126.451389,KP-06,,
6340344,6557550,settlement,이문동,이문동,unknown,39.18179236,126.32682289,KP-02,,
6340819,6559061,settlement,국봉리,국봉리,unknown,39.50903903,127.17776875,KP-08,,
6340501,6558199,settlement,하점어구,하점어구,unknown,39.437249,127.014095,KP-08,,
6340350,6557562,settlement,장평동,장평동,unknown,39.02089665,126.4044983,KP-02,,
6340647,6558580,administrative_region,금곡리,금곡리,unknown,38.753753,127.490747,KP-07,,
6339991,6556446,park,심천,심천,unknown,38.564722,126.500833,KP-06,,
6340000,6556464,settlement,화잔,화잔,unknown,38.594444,126.550278,KP-06,,
6340718,6558859,settlement,고방동,고방동,unknown,39.66847121,126.92246786,KP-08,,
6340925,6559468,hypsographic,수봉골,수봉골,unknown,39.243854,127.117602,KP-07,,
6340858,6559334,settlement,초둔동,초둔동,unknown,39.145,126.944444,KP-02,,
6340297,6557456,hypsographic,기대봉,기대봉,unknown,39.188333,126.4475,KP-02,,
6340393,6557789,settlement,창담,창담,unknown,38.885556,126.614167,KP-06,,
6340208,6557160,spot,지하리,지하리,unknown,38.616944,126.697222,KP-07,,
6340896,6559410,settlement,통골,통골,unknown,39.043333,127.058333,KP-07,,
6340664,6558613,settlement,Samgŏ-ri,Samgo-ri,official,38.87906729,127.34523079,KP-07,,
6340857,6559332,settlement,수주리,수주리,unknown,39.157222,126.948611,KP-02,,
6340039,6556541,settlement,Kaemal,Kaemal,official,38.720278,126.548333,KP-06,,
6340010,6556484,settlement,관터,관터,unknown,38.626389,126.596389,KP-06,,
6340796,6559015,settlement,동면,동면,unknown,39.553889,127.083611,KP-000,1,
6340576,6558350,settlement,두읍덕이,두읍덕이,unknown,39.426389,126.978611,KP-08,,
6340506,6558209,settlement,회동리,회동리,unknown,39.321389,126.951389,KP-08,,
6340743,6558908,settlement,Chungdegi,Chungdegi,official,39.54463847,126.90817201,KP-08,,
6340191,6557125,settlement,궁촌동,궁촌동,unknown,38.645556,126.6825,KP-07,,
6340233,6557212,hypsographic,군량골고개,군량골고개,unknown,38.524167,126.819444,KP-07,,
6340028,6556519,park,Ch’ongmang-ni,Ch'ongmang-ni,official,38.6975,126.4975,KP-06,,
6340731,6558885,settlement,초막동,초막동,unknown,39.60945096,126.97182024,KP-08,,
6340069,6556728,settlement,동창,동창,unknown,39.44575527,126.41454351,KP-02,,
6340449,6557901,hypsographic,대암산,대암산,unknown,38.848611,126.877222,KP-000,,
6340695,6558676,hypsographic,청하산,청하산,unknown,38.756944,127.414167,KP-07,,
6340860,6559337,settlement,Kakchŏng-dong,Kakchong-dong,official,39.1385444,126.9645367,KP-02,,
6340748,6558919,settlement,사촌,사촌,unknown,39.51775832,126.92291085,KP-08,,
6340648,6558581,hypsographic,Tŏng-nyŏng,Tong-nyong,official,38.791389,127.245,KP-07,,
6340157,6556905,hypsographic,시루봉,시루봉,unknown,39.371667,126.453889,KP-02,,
6340037,6556537,settlement,Sap’yŏng-dong,Sap'yong-dong,official,38.715278,126.524167,KP-06,,
6340288,6557438,settlement,계집골,계집골,unknown,39.10484872,126.4718983,KP-02,,
6340686,6558658,settlement,윤작골,윤작골,unknown,38.96046143,127.25393378,KP-07,,
6340556,6558309,hypsographic,Soch’i-ryŏng,Soch'i-ryong,official,39.277469,127.088272,KP-07,,
6340346,6557554,hypsographic,자작고개,자작고개,unknown,39.13311792,126.35719754,KP-02,,
6340809,6559041,settlement,석재궁골,석재궁골,unknown,39.54718195,127.19178502,KP-08,,
6340500,6558196,settlement,Hagyŏngdul-li,Hagyongdul-li,official,39.3805892,127.01297979,KP-08,,
6340142,6556873,settlement,Sunam-dong,Sunam-dong,official,39.49414821,126.52495508,KP-02,,
6340015,6556494,settlement,성필동,성필동,unknown,38.622222,126.554167,KP-06,,
6340258,6557265,settlement,오장산골,오장산골,unknown,38.609722,126.865556,KP-07,,
6340744,6558910,settlement,Konggul,Konggul,official,39.54666059,126.94612534,KP-08,,
6340151,6556892,settlement,통골,통골,unknown,39.47077418,126.56643467,KP-02,,
6340043,6556549,settlement,Karumul-tong,Karumul-tong,official,38.734167,126.597222,KP-06,,
6340008,6556480,park,신흥리,신흥리,unknown,38.6075,126.532778,KP-06,,
6340381,6557764,hypsographic,Kaguk-san,Kaguk-san,official,38.921389,126.609167,KP-06,,
6340221,6557187,settlement,Wadae-dong,Wadae-dong,official,38.584444,126.640278,KP-06,,
6340358,6557578,settlement,탑골,탑골,unknown,39.06051518,126.31793775,KP-02,,
6340685,6558655,settlement,Wŏlgok-tong,Wolgok-tong,official,38.8226349,127.37631288,KP-07,,
6340805,6559032,settlement,Tokchŏmgŏ-ri,Tokchomgo-ri,official,39.55827507,127.16992966,KP-08,,
6340125,6556839,settlement,Tokho-dong,Tokho-dong,official,39.4136136,126.5297819,KP-02,,
6339953,6556369,settlement,Ijŏng-gol,Ijong-gol,official,38.546389,126.372778,KP-06,,
6340683,6558652,settlement,외평리,외평리,unknown,38.87457307,127.40861215,KP-07,,
6339984,6556431,settlement,P’an’gyo,P'an'gyo,official,38.543333,126.526111,KP-06,,
6340540,6558276,settlement,Onggaji,Onggaji,official,39.369835,127.146356,KP-07,,
6340404,6557811,settlement,구문성,구문성,unknown,38.8224515,126.67712273,KP-06,,
6340396,6557795,settlement,멀여울,멀여울,unknown,38.8675328,126.73377346,KP-06,,
6340876,6559370,settlement,난전리,난전리,unknown,39.06128509,126.89933161,KP-06,,
6340389,6557780,hypsographic,Sŏng-gogae,Song-gogae,official,38.87706221,126.72640069,KP-06,,
6340205,6557153,spot,지상리,지상리,unknown,38.597222,126.717778,KP-07,,
6339981,6556425,settlement,Saemal,Saemal,official,38.549444,126.578611,KP-06,,
6340767,6558956,hypsographic,Kuk-kol,Kuk-kol,official,39.61985489,127.02746124,KP-08,,
6340347,6557556,settlement,장거리,장거리,unknown,39.10607831,126.36116001,KP-02,,
6340899,6559415,settlement,Yudong-ni,Yudong-ni,official,39.093889,127.135278,KP-07,,
6340244,6557236,spot,송정,송정,unknown,38.548333,126.8275,KP-07,,
6340287,6557436,settlement,거지동,거지동,unknown,39.14618445,126.31297176,KP-02,,
6340911,6559440,settlement,구덕리,구덕리,unknown,39.23033384,127.01438076,KP-08,,
6340879,6559375,settlement,Chungp’yŏng-dong,Chungp'yong-dong,official,39.02275842,126.91781338,KP-06,,
6340560,6558317,settlement,Sŏkchŏnp’o,Sokchonp'o,official,39.44215,127.047695,KP-08,,
6340210,6557165,hypsographic,장고개,장고개,unknown,38.5975,126.685278,KP-06,,
6340908,6559433,settlement,Usan-dong,Usan-dong,official,39.02361945,126.90192872,KP-06,,
6340518,6558232,settlement,Kilchae,Kilchae,official,39.36097876,126.91531042,KP-08,,
103795,6556752,settlement,회원리,회원리,unknown,39.38488099,126.38265942,KP-02,,
6340136,6556861,settlement,Ssangyong-ni,Ssangyong-ni,official,39.42828566,126.57940637,KP-02,,
6340713,6558849,settlement,장포동,장포동,unknown,39.72276863,126.90618933,KP-08,,
6340352,6557566,settlement,주평동,주평동,unknown,39.22094995,126.3689189,KP-02,,
6340049,6556562,settlement,신리,신리,unknown,38.613611,126.460278,KP-06,,
6340233,6557211,hypsographic,Kullyanggol-gogae,Kullyanggol-gogae,official,38.524167,126.819444,KP-07,,
6340353,6557568,settlement,중동,중동,unknown,39.177778,126.319167,KP-02,,
6340338,18288552,settlement,Oryuchon,Oryuchon,variant,39.01217455,126.30396376,KP-01,,
6340763,6558949,settlement,방동,방동,unknown,39.58969707,127.04814547,KP-08,,
6340076,6556742,hypsographic,시루봉,시루봉,unknown,39.399722,126.385556,KP-02,,
6340415,6557832,settlement,Yangji-dong,Yangji-dong,official,38.80449268,126.72497731,KP-06,,
6340681,6558647,hypsographic,Okchong-bong,Okchong-bong,variant,38.809167,127.345278,KP-07,,
6340674,6558634,administrative_region,성평리,성평리,unknown,38.77034232,127.30020893,KP-07,,
6340475,6557952,settlement,Saenggŭmch’on,Saenggumch'on,official,38.957222,126.773056,KP-06,,
6340740,6558903,hypsographic,장경산,장경산,unknown,39.55031829,126.9818802,KP-08,,
6340405,6557813,settlement,눈고개동,눈고개동,unknown,38.835,126.713056,KP-06,,
6340905,6559427,settlement,Sambakkae,Sambakkae,official,39.22583141,127.19843974,KP-07,,
6340167,6557077,settlement,현암리,현암리,unknown,38.7225,126.650833,KP-06,,
6340502,6558201,settlement,하죽전리,하죽전리,unknown,39.30272397,126.94594647,KP-08,,
6340467,6557937,settlement,말다락,말다락,unknown,38.914722,126.793333,KP-06,,
6340171,6557085,settlement,큰말,큰말,unknown,38.731111,126.745,KP-06,,
6340158,6556907,settlement,가리,가리,unknown,39.45798599,126.46579852,KP-02,,
6340036,6556536,settlement,달촌리,달촌리,unknown,38.711111,126.507778,KP-06,,
6340566,6558330,settlement,대밭골,대밭골,unknown,39.46806251,126.95659797,KP-08,,
6340485,6558166,settlement,Ch’ak-kol,Ch'ak-kol,official,39.303056,127.079444,KP-08,,
6340154,6556897,settlement,T’ammol,T'ammol,official,39.49209237,126.57439932,KP-02,,
6340403,6557809,settlement,구진포,구진포,unknown,38.82134297,126.63148744,KP-06,,
6340300,6557462,settlement,길양동,길양동,unknown,39.06514084,126.47679932,KP-02,,
6340184,6557110,settlement,Sanggubong,Sanggubong,official,38.630697,126.735178,KP-07,,
6340495,6558187,hypsographic,철석산,철석산,unknown,39.253889,127.190556,KP-07,,
6340250,6557248,hypsographic,Yŏmdaegol-gogae,Yomdaegol-gogae,official,38.571111,126.848611,KP-07,,
6340264,6557277,hypsographic,냉골고개,냉골고개,unknown,38.63,126.763889,KP-07,,
6340581,6558360,settlement,웃뜰,웃뜰,unknown,39.315,127.154167,KP-07,,
6340472,6557947,settlement,거리소리,거리소리,unknown,38.945833,126.878056,KP-06,,
6340192,6557126,settlement,Chisŏng-ni,Chisong-ni,official,38.625833,126.685,KP-07,,
6340148,6556886,hypsographic,사악산,사악산,unknown,39.46527561,126.53451254,KP-02,,
6340858,6559333,settlement,Ch’odun-dong,Ch'odun-dong,official,39.145,126.944444,KP-02,,
6340761,6558945,settlement,배명동,배명동,unknown,39.58225097,127.07106153,KP-08,,
6340353,6557567,settlement,Chung-dong,Chung-dong,official,39.177778,126.319167,KP-02,,
6340477,6557957,settlement,명탄리,명탄리,unknown,38.981389,126.781111,KP-06,,
6340282,6557426,settlement,가평리,가평리,unknown,39.200278,126.353056,KP-02,,
6340116,6556822,settlement,창리,창리,unknown,39.37637766,126.54015412,KP-02,,
6340775,6558973,settlement,진장개,진장개,unknown,39.68240388,127.05477122,KP-08,,
6340684,6558653,park,Ut’ong-dong,Ut'ong-dong,official,39.0025,127.335833,KP-07,,
6340721,6558864,park,Koch’o,Koch'o,official,39.624722,126.918056,KP-08,,
6339981,6556426,settlement,새말,새말,unknown,38.549444,126.578611,KP-06,,
6340338,6557537,settlement,Oryu-ch’on,Oryu-ch'on,official,39.01217455,126.30396376,KP-01,,
6340691,6558667,settlement,Chit’al,Chit'al,official,38.85553879,127.46313478,KP-07,,
6340816,6559055,settlement,하태리,하태리,unknown,39.52746738,127.16685547,KP-08,,
6340758,6558939,settlement,송어직,송어직,unknown,39.525556,127.062222,KP-08,,
6340127,6556843,settlement,Yangjimal,Yangjimal,official,39.39367484,126.54283162,KP-02,,
6340237,6557219,settlement,Kaesang-ni,Kaesang-ni,official,38.517778,126.877778,KP-07,,
6340383,6557768,settlement,Soro-gol,Soro-gol,variant,38.90339764,126.69748919,KP-06,,
6340248,6557244,settlement,Insin-dong,Insin-dong,official,38.576667,126.879722,KP-07,,
6340023,6556510,settlement,산북리,산북리,unknown,38.6575,126.502222,KP-06,,
6340779,6558981,settlement,유동,유동,unknown,39.739444,127.016667,KP-08,,
6340772,6558967,settlement,화주성지,화주성지,unknown,39.65824353,127.09331263,KP-08,,
6340247,6557242,hypsographic,Norumegi-gogae,Norumegi-gogae,official,38.573688,126.888459,KP-07,,
6340240,6557226,hypsographic,Ponghwa-san,Ponghwa-san,official,38.528889,126.854167,KP-07,,
6340111,6556811,settlement,Kanŭn-gol,Kanun-gol,variant,39.34611658,126.52141805,KP-02,,
6340059,6556707,settlement,Wŏnjŏng-ni,Wonjong-ni,official,39.46301547,126.36467269,KP-02,,
6340102,6556794,settlement,외평,외평,unknown,39.2572326,126.52261142,KP-02,,
6340459,6557920,settlement,Tumu-ri,Tumu-ri,official,38.895,126.851389,KP-06,,
6340355,6557572,settlement,중촌,중촌,unknown,39.03175533,126.31028607,KP-01,,
6340526,6558248,settlement,Kŭmsu-ri,Kumsu-ri,official,39.46854853,127.18457935,KP-08,,
6339955,6556373,settlement,Ihwa-dong,Ihwa-dong,official,38.538889,126.312222,KP-06,,
6340275,6557299,hypsographic,신덕령,신덕령,unknown,38.723333,126.8025,KP-06,,
6340688,6558662,hypsographic,작은고개,작은고개,unknown,38.975833,127.27,KP-07,,
6340713,6558848,settlement,Changp’o-dong,Changp'o-dong,variant,39.72276863,126.90618933,KP-08,,
6340652,6558589,hypsographic,Tonmagol-san,Tonmagol-san,official,38.898796,127.364282,KP-07,,
6339962,6556388,settlement,탑현동,탑현동,unknown,38.529722,126.399167,KP-06,,
6340870,6559357,settlement,Kongjil-li,Kongjil-li,official,39.12340178,126.90916666,KP-02,,
6340253,6557254,settlement,Kwŏl-tong,Kwol-tong,official,38.595278,126.749167,KP-07,,
6340011,6556485,hydrographic,Haep’o-jŏsuji,Haep'o-josuji,official,38.633889,126.577222,KP-06,,
6340817,6559056,settlement,Paegun-dong,Paegun-dong,official,39.518333,127.159722,KP-08,,
6340376,6557755,hypsographic,인피고개,인피고개,unknown,38.95787913,126.7187351,KP-06,,
6340063,6556715,settlement,Tojang-gol,Tojang-gol,variant,39.461944,126.428333,KP-02,,
6340452,6557907,settlement,고밀동,고밀동,unknown,38.874722,126.798889,KP-06,,
6340767,6558957,hypsographic,국골,국골,unknown,39.61985489,127.02746124,KP-08,,
6340336,6557533,settlement,Yŏn-dong,Yon-dong,official,39.06343008,126.38096201,KP-02,,
6340173,6557089,settlement,화전골,화전골,unknown,38.702778,126.682222,KP-06,,
6340446,6557895,hypsographic,고달산,고달산,unknown,38.795833,126.8625,KP-06,,
6340146,6556882,settlement,전골,전골,unknown,39.4784992,126.51577419,KP-02,,
6340328,6557517,settlement,Sogŏri,Sogori,variant,39.09613403,126.30293748,KP-02,,
6339990,6556444,settlement,풍둔동,풍둔동,unknown,38.569722,126.500278,KP-06,,
6340724,6558870,park,Inhŭng-ni,Inhung-ni,official,39.646667,126.976944,KP-08,,
6340399,6557800,settlement,Tundo-ri,Tundo-ri,official,38.85899242,126.72084663,KP-06,,
6340068,6556725,settlement,Soha-ri,Soha-ri,official,39.44395027,126.40360771,KP-02,,
6340590,6558377,settlement,Yongyŏn,Yongyon,official,39.271111,126.997778,KP-08,,
6340915,6559448,settlement,범한동,범한동,unknown,39.150833,127.016111,KP-02,,
6340667,6558620,settlement,상강성,상강성,unknown,38.9157561,127.49121459,KP-07,,
6340559,6558315,settlement,Sŏkch’on,Sokch'on,official,39.4511472,127.15412131,KP-08,,
6340156,6556902,spot,인평역,인평역,unknown,39.2573021,126.5088083,KP-02,,
6339950,6556364,settlement,마전리,마전리,unknown,38.563889,126.425833,KP-06,,
6340126,6556842,hypsographic,아미산,아미산,unknown,39.40369,126.53093,KP-02,,
6340094,6556778,settlement,금동,금동,unknown,39.27887561,126.33220961,KP-02,,
6340471,6557944,settlement,Kobi-dong,Kobi-dong,official,38.941389,126.897222,KP-06,,
6340782,6558986,settlement,Kusinhyŏn,Kusinhyon,official,39.67385632,127.09951531,KP-08,,
6340302,6557466,administrative_region,내동리,내동리,unknown,39.10242181,126.31904801,KP-02,,
6340243,6557234,hypsographic,증지개산,증지개산,unknown,38.555833,126.783056,KP-07,,
6340919,6559456,spot,견성암,견성암,unknown,39.193889,127.089444,KP-07,,
6340178,6557098,settlement,Kuryongbŏl,Kuryongbol,official,38.682222,126.672222,KP-06,,
6340093,6556776,settlement,돌각담,돌각담,unknown,39.28492547,126.32992726,KP-02,,
6339985,6556434,settlement,삼거리,삼거리,unknown,38.528056,126.498611,KP-06,,
6340155,6556900,park,고방이,고방이,unknown,39.501111,126.562778,KP-02,,
6340566,6558329,settlement,Taebak-kol,Taebak-kol,variant,39.46806251,126.95659797,KP-08,,
6340155,6556899,park,Kobangi,Kobangi,official,39.501111,126.562778,KP-02,,
6340843,6559303,hypsographic,Sinjae-ryŏng,Sinjae-ryong,official,39.208333,126.944722,KP-000,,
6340801,6559025,settlement,웃말,웃말,unknown,39.578056,127.189722,KP-08,,
6340226,6557198,settlement,양수암,양수암,unknown,38.539722,126.648889,KP-06,,
6339994,6556451,settlement,Sugu-dong,Sugu-dong,official,38.578333,126.545833,KP-06,,
6340842,6559301,hypsographic,Ihwadae-san,Ihwadae-san,official,39.223611,127.058333,KP-07,,
6340187,6557117,settlement,안골,안골,unknown,38.644175,126.715431,KP-07,,
6340235,6557215,settlement,Kaeha-ri,Kaeha-ri,official,38.506667,126.865556,KP-07,,
6340390,6557783,settlement,충점동,충점동,unknown,38.87629872,126.66945163,KP-06,,
6339971,6556405,settlement,Ch’ŏngnyŏn-dong,Ch'ongnyon-dong,official,38.515278,126.519444,KP-06,,
6340844,6559305,hypsographic,Kojae-ryŏng,Kojae-ryong,official,39.238889,126.970278,KP-08,,
6340661,6558608,hypsographic,봉수령,봉수령,unknown,38.901314,127.288193,KP-07,,
6344064,6563838,settlement,Saen-mal,Saen-mal,official,37.956111,125.234722,KP-05,,
6344054,19419614,settlement,Kaedong-mal,Kaedong-mal,official,37.910833,125.374167,KP-05,,
6344102,19416118,settlement,철심동,철심동,unknown,37.945833,125.276944,KP-05,,
6344097,6564599,hypsographic,순위도,순위도,unknown,37.758889,125.319167,KP-05,,
6344084,19418823,settlement,평촌,평촌,unknown,37.951667,125.360833,KP-05,,
6344114,6563888,settlement,Ya-ch’on,Ya-ch'on,official,37.984167,125.248611,KP-05,,
6344101,6563875,settlement,Soep’al-dong,Soep'al-dong,official,37.936944,125.291944,KP-05,,
6344092,19418427,settlement,옹장,옹장,unknown,37.968333,125.389444,KP-05,,
6344058,6563832,settlement,Suam-dong,Suam-dong,official,37.928611,125.203056,KP-05,,
6344112,20265742,settlement,Yusadong,Yusadong,variant,37.945,125.311667,KP-05,,
6344078,6563852,settlement,Sinnam,Sinnam,official,37.953889,125.394722,KP-05,,
6344109,19416550,hydrographic,Gangnyeongman,Gangnyeongman,variant,37.834722,125.387222,KP-05,,
6344112,19419732,settlement,유사동,유사동,unknown,37.945,125.311667,KP-05,,
6344095,6563869,settlement,Senbau,Senbau,official,37.786944,125.363889,KP-05,,
6344114,19410045,settlement,야촌,야촌,unknown,37.984167,125.248611,KP-05,,
6344110,6563884,settlement,Muŭm-ni,Muum-ni,official,37.811111,125.356944,KP-05,,
6344082,6563856,settlement,Ho-dong,Ho-dong,official,37.996944,125.391111,KP-05,,
6344065,6563839,settlement,Paenaru,Paenaru,official,37.756944,125.295556,KP-05,,
6344055,6563828,settlement,Kŏnjŏl-li,Konjol-li,variant,37.960833,125.368889,KP-05,,
6344062,19408415,settlement,장포리,장포리,unknown,37.908439,125.17455,KP-05,,
6344063,19408446,settlement,Choechon,Choechon,variant,37.940833,125.177222,KP-05,,
6344073,19419575,settlement,Eungseonggol,Eungseonggol,variant,37.756667,125.3825,KP-05,,
6344104,19408638,settlement,Hasimjŏk,Hasimjok,official,37.948056,125.248056,KP-05,,
6344108,6563882,settlement,Ogŭm-gol,Ogum-gol,official,37.917183,125.39602,KP-05,,
6344058,19409587,settlement,수암동,수암동,unknown,37.928611,125.203056,KP-05,,
6344108,19418425,settlement,Ogeumgol,Ogeumgol,variant,37.917183,125.39602,KP-05,,
6344118,19409575,settlement,Sorabau,Sorabau,official,37.826389,125.234722,KP-05,,
6344092,6563866,settlement,Ongjang,Ongjang,official,37.968333,125.389444,KP-05,,
6344104,19408639,settlement,Hasimjeok,Hasimjeok,variant,37.948056,125.248056,KP-05,,
6344071,19416385,settlement,Hwanggyeonggol,Hwanggyeonggol,variant,37.857222,125.3525,KP-05,,
