wgdPlaceId,wgdId,type,name,fullName,nameType,latitude,longitude,administrationGroup,isHistorical,isCapital
-1972244,-2751599,settlement,Waha,Waha,official,50.209151,5.341744,BE-WAL,,
-1967971,-2745503,administrative_region,Quenast,Quenast,official,50.666667,4.15,BE-WAL,,
-1961646,-2736757,settlement,Kalve,Kalve,official,51.172063,3.879097,BE-VLG,,
-1961116,-2736052,settlement,Hour,Hour,official,50.16131,5.03878,BE-WAL,,
-1960506,-2735186,administrative_region,Herve,Herve,official,50.647288,5.796809,BE-WAL,,
-1956927,-2730276,settlement,Deurle,Deurle,official,51.004111,3.614747,BE-VLG,,
-1956636,-2729818,settlement,"De Hei","De Hei",official,51.066667,4.85,BE-VLG,,
-1966571,-2743587,administrative_region,Omal,Omal,official,50.65,5.2,BE-WAL,,
-1966522,-2743530,settlement,Oha,Oha,official,50.528615,5.187775,BE-WAL,,
-1961267,-2736258,settlement,Hulstjen,Hulstjen,official,51.15,3.75,BE-VLG,,
-1964460,-2740800,settlement,Maerle,Maerle,variant,51.468298,5.038497,BE-VLG,,
-1961844,-2737033,administrative_region,Kemexhe,Kemexhe,official,50.7,5.416667,BE-WAL,,
-1962613,-2738111,settlement,Laar,Laar,official,50.922377,4.553489,BE-VLG,,
-1966572,-2743588,settlement,Omal,Omal,official,50.651797,5.192454,BE-WAL,,
-1963245,-2739024,settlement,"La Vaux","La Vaux",official,50.515391,5.437859,BE-WAL,,
-1962207,-2737555,settlement,Knock,Knock,variant,50.783333,3.266667,BE-VLG,,
-1963244,-2739023,settlement,Lavaux,Lavaux,variant,50.341389,5.922222,BE-WAL,,
-1965113,-2741619,settlement,Mere,Mere,official,50.9,3.866667,BE-VLG,,
-1966339,-2743273,settlement,Nivezé,Niveze,official,50.497242,5.89997,BE-WAL,,
-1964418,-2740676,settlement,Lulhoek,Lulhoek,official,50.933333,3.533333,BE-VLG,,
-1968462,-2746453,settlement,Roo,Roo,variant,51.098712,3.53571,BE-VLG,,
-1964376,-2740614,administrative_region,Loveral,Loveral,official,50.366667,4.466667,BE-WAL,,
-1964818,-2741222,settlement,Maspelt,Maspelt,official,50.224444,6.149722,BE-WAL,,
-1962617,-2738116,settlement,Laar,Laar,official,51.14169,5.511498,BE-VLG,,
-1964419,-2740677,settlement,Lumay,Lumay,official,50.757644,4.885843,BE-WAL,,
-1962610,-2738108,settlement,Laar,Laar,official,50.770673,5.02636,BE-VLG,,
-1963314,-2739130,settlement,"Le Chat","Le Chat",official,50.816667,4.35,BE-BRU,,
-1968090,-2745663,administrative_region,Ransart,Ransart,official,50.466667,4.466667,BE-WAL,,
-1962612,-2738328,settlement,Laere,Laere,variant,50.920226,4.00704,BE-VLG,,
-1963315,-2739133,settlement,"Le Chay","Le Chay",official,49.9,5.716667,BE-WAL,,
-1964152,-2740277,settlement,Liroux,Liroux,official,50.257975,5.037388,BE-WAL,,
-1966573,-2743589,settlement,Ombergen,Ombergen,official,51,3.833333,BE-VLG,,
-1965113,-2741369,settlement,Meere,Meere,variant,50.9,3.866667,BE-VLG,,
-1963616,-2739557,settlement,"Le Rabot","Le Rabot",official,50.45,4.7,BE-WAL,,
-1964997,-2741475,settlement,Meir,Meir,official,51.1,5,BE-VLG,,
-1968461,-2746002,settlement,Rho,Rho,variant,51.065726,3.539201,BE-VLG,,
-1962610,-2738323,settlement,Laer,Laer,variant,50.770673,5.02636,BE-VLG,,
-1973060,-2752735,administrative_region,Xhoris,Xhoris,official,50.45,5.6,BE-WAL,,
-1964997,-2741348,settlement,Meer,Meer,variant,51.1,5,BE-VLG,,
-1966980,-2744124,settlement,Oultre,Oultre,variant,50.841894,3.998702,BE-VLG,,
-1966317,-2743251,settlement,Ninde,Ninde,official,50.991562,4.680478,BE-VLG,,
-1966340,-2743274,settlement,Nivi,Nivi,official,49.75,5.15,BE-WAL,,
-1962616,-2738115,settlement,Laar,Laar,official,51.069616,4.743239,BE-VLG,,
-1973061,-2752736,settlement,Xhoris,Xhoris,official,50.44405,5.601645,BE-WAL,,
-1962616,-2738324,settlement,Laer,Laer,variant,51.069616,4.743239,BE-VLG,,
-1972697,-2752202,settlement,Wevels,Wevels,official,51.018257,4.874182,BE-VLG,,
-1962595,-2738067,settlement,Kwaetem,Kwaetem,variant,50.716667,4,BE-VLG,,
-1968462,-2746169,settlement,Ro,Ro,official,51.098712,3.53571,BE-VLG,,
-1961916,-2737137,administrative_region,Kessel,Kessel,official,51.133333,4.616667,BE-VLG,,
-1966567,-2743583,administrative_region,Olne,Olne,official,50.589517,5.731252,BE-WAL,,
-1968381,-2746881,settlement,Ryck,Ryck,variant,50.85,5.516667,BE-VLG,,
-1966568,-2743584,settlement,Olne,Olne,official,50.59025,5.749323,BE-WAL,,
-1962611,-2738109,settlement,Laar,Laar,official,50.883333,5.466667,BE-VLG,,
-1973222,-2752971,administrative_region,Zeveren,Zeveren,official,51,3.516667,BE-VLG,,
-1961842,-2737031,settlement,Kemel,Kemel,official,51.239599,4.034783,BE-VLG,,
-1965578,-2742254,administrative_region,Mont,Mont,official,50.35,4.9,BE-WAL,,
-1961245,-2738513,hydrographic,"La Hulpe","La Hulpe",variant,51,4.966667,BE-VLG,,
-1966338,-2743272,settlement,Nives,Nives,official,49.912761,5.601413,BE-WAL,,
-1962612,-2738110,settlement,Laar,Laar,official,50.920226,4.00704,BE-VLG,,
-1961265,-2736256,administrative_region,Hulste,Hulste,official,50.883333,3.283333,BE-VLG,,
-1961223,-2736198,administrative_region,Huise,Huise,official,50.9,3.583333,BE-VLG,,
-1968150,-2745743,administrative_region,Recht,Recht,official,50.333333,6.05,BE-WAL,,
-1968045,-2745605,hydrographic,Rahimont,Rahimont,official,50.1,5.633333,BE-WAL,,
-1962615,-2738113,settlement,Laar,Laar,official,50.991434,4.41802,BE-VLG,,
-1964996,-2741474,settlement,Meir,Meir,official,51.069976,4.249928,BE-VLG,,
-1962614,-2738112,settlement,Laar,Laar,official,50.971362,4.582127,BE-VLG,,
-1964945,-2741397,settlement,Meerle,Meerle,official,51.47235,4.803165,BE-VLG,,
-1968380,-2746072,settlement,Rijger,Rijger,official,50.95,4.083333,BE-VLG,,
-1965580,-2742256,settlement,Mont,Mont,official,49.999375,5.747967,BE-WAL,,
-1964982,-2741454,vegetation,Meibos,Meibos,official,50.938142,5.541848,BE-VLG,,
-1960862,-2735686,spot,Holait,Holait,official,50.65,4.083333,BE-WAL,,
-1964019,-2740091,spot,Liénart,Lienart,official,50.666667,3.783333,BE-WAL,,
-1968151,-2745744,settlement,Recht,Recht,official,50.331694,6.053338,BE-WAL,,
-1968461,-2746168,settlement,Ro,Ro,official,51.065726,3.539201,BE-VLG,,
-1961266,-2736257,settlement,Hulste,Hulste,official,50.882169,3.294973,BE-VLG,,
-1968581,-2746320,administrative_region,Rognée,Rognee,official,50.266667,4.383333,BE-WAL,,
-1962618,-2738117,settlement,Laar,Laar,official,51.160309,5.015583,BE-VLG,,
-1966520,-2743528,administrative_region,Ogy,Ogy,official,50.716667,3.766667,BE-WAL,,
-1968415,-2746111,administrative_region,Rillaar,Rillaar,official,50.966667,4.9,BE-VLG,,
-1966523,-2743531,administrative_region,Ohain,Ohain,official,50.7,4.466667,BE-WAL,,
-1968022,-2745572,settlement,Racelles,Racelles,official,50.183333,5.5,BE-WAL,,
-1966316,-2743249,settlement,Ninane,Ninane,official,50.580382,5.642717,BE-WAL,,
-1973037,-2752679,administrative_region,Wulpen,Wulpen,official,51.1,2.7,BE-VLG,,
-1968338,-2746015,settlement,Rianwelz,Rianwelz,official,50.45,4.35,BE-WAL,,
-1962619,-2738325,settlement,Laer,Laer,variant,51.2,4.483333,BE-VLG,,
-1961843,-2737032,settlement,Kemerke,Kemerke,official,51.366667,4.966667,BE-VLG,,
-1962274,-2737655,vegetation,Koller,Koller,official,50.216667,6.116667,BE-WAL,,
-1966341,-2743276,settlement,Nobipré,Nobipre,official,49.816667,5.616667,BE-WAL,,
-1965577,-2742253,administrative_region,Mont,Mont,official,50.166667,5.783333,BE-WAL,,
-1961085,-2736011,administrative_region,Hotton,Hotton,official,50.268236,5.43571,BE-WAL,,
-1968381,-2746073,settlement,Rijk,Rijk,official,50.85,5.516667,BE-VLG,,
-1963313,-2739129,settlement,"Le Chat","Le Chat",official,50.633333,3.683333,BE-WAL,,
-1973038,-2752680,settlement,Wulpen,Wulpen,official,51.1,2.7,BE-VLG,,
-1962609,-2738107,administrative_region,Laar,Laar,official,50.766667,5.033333,BE-VLG,,
-1966570,-2743586,settlement,Olsene,Olsene,official,50.934224,3.463894,BE-VLG,,
-1963592,-2739525,spot,Lepers,Lepers,official,50.683333,4.016667,BE-WAL,,
-1965579,-2742255,settlement,Mont,Mont,official,49.993751,5.057004,BE-WAL,,
-1962619,-2738118,settlement,Laar,Laar,official,51.2,4.483333,BE-VLG,,
-1964153,-2740278,settlement,Liroux,Liroux,official,50.566382,4.725958,BE-WAL,,
-1966480,-2743470,settlement,Odet,Odet,official,50.386471,5.307324,BE-WAL,,
-1962921,-2738574,settlement,Laloux,Laloux,official,50.184586,5.155315,BE-WAL,,
-1966569,-2743585,administrative_region,Olsene,Olsene,official,50.933333,3.466667,BE-VLG,,
-1962768,-2738309,settlement,"La Douve","La Douve",official,50.75,2.883333,BE-WAL,,
-1962620,-2738119,settlement,Laar,Laar,official,51.193219,4.570379,BE-VLG,,
-1973018,-2752648,administrative_region,Woumen,Woumen,official,51,2.866667,BE-VLG,,
-1966521,-2743529,settlement,Ogy,Ogy,official,50.720699,3.780492,BE-WAL,,
-1964944,-2741396,administrative_region,Meerle,Meerle,official,51.466667,4.8,BE-VLG,,
-1962875,-2738505,settlement,"La Horne","La Horne",official,50.7,3.25,BE-WAL,,
-1966337,-2743271,administrative_region,Nives,Nives,official,49.916667,5.6,BE-WAL,,
-1962207,-2737565,settlement,Knok,Knok,official,50.783333,3.266667,BE-VLG,,
-1965114,-2741479,settlement,Meire,Meire,variant,50.924172,3.986627,BE-VLG,,
-1963989,-2740048,settlement,Libois,Libois,official,50.41734,5.195815,BE-WAL,,
-1971285,-2750234,settlement,Tuilt,Tuilt,official,50.948579,5.268682,BE-VLG,,
-1968808,-2746665,settlement,Roulotte,Roulotte,official,50.15,4.616667,BE-WAL,,
-1953609,-2725563,settlement,Badon,Badon,official,50.196884,4.378522,BE-WAL,,
-1953548,-2725488,administrative_region,Awans,Awans,official,50.69334,5.457016,BE-WAL,,
-1959789,-2734242,settlement,Hamois,Hamois,official,50.343199,5.150375,BE-WAL,,
-1959620,-2733996,administrative_region,Hachy,Hachy,official,49.683333,5.7,BE-WAL,,
-1954299,-2726475,administrative_region,Berzée,Berzee,official,50.283333,4.4,BE-WAL,,
-1957374,-2752051,settlement,Welz,Welz,variant,50.683333,3.616667,BE-WAL,,
-1953933,-2725994,administrative_region,Beek,Beek,official,51.133333,5.6,BE-VLG,,
-1954032,-2726134,spot,Belair,Belair,official,50.083333,5.283333,BE-WAL,,
-1955398,-2728010,settlement,Broek,Broek,official,50.902303,3.64792,BE-VLG,,
-1968605,-2746354,settlement,Rollé,Rolle,official,49.9,5.25,BE-WAL,,
-1972620,-2752085,administrative_region,Weris,Weris,official,50.333333,5.533333,BE-WAL,,
-1968582,-2746321,settlement,Rognée,Rognee,official,50.269099,4.38921,BE-WAL,,
-1959786,-2734237,administrative_region,Hamoir,Hamoir,official,50.437555,5.559698,BE-WAL,,
-1954974,-2727406,settlement,Bosch,Bosch,variant,50.783333,3.416667,BE-VLG,,
-1970123,-2748599,administrative_region,Sovet,Sovet,official,50.3,5.033333,BE-WAL,,
-1960193,-2734774,settlement,Heigne,Heigne,official,50.444597,4.40999,BE-WAL,,
-1957103,-2730549,settlement,Donk,Donk,official,51.13714,4.542957,BE-VLG,,
-1953933,-2725993,administrative_region,Beeck,Beeck,variant,51.133333,5.6,BE-VLG,,
-1960690,-2735466,administrative_region,Hoboken,Hoboken,official,51.166667,4.333333,BE-VLG,,
-1957251,-2730771,settlement,Driesch,Driesch,variant,50.9,4.016667,BE-VLG,,
-1958313,-2732185,settlement,Fosse,Fosse,official,50.4,4.7,BE-WAL,,
-1954344,-2726534,administrative_region,Beuzet,Beuzet,official,50.533333,4.733333,BE-WAL,,
-1954805,-2727161,administrative_region,Bolinne,Bolinne,official,50.6,4.916667,BE-WAL,,
-1955155,-2727687,settlement,Bourleau,Bourleau,official,50.4,4.15,BE-WAL,,
-1972090,-2751335,administrative_region,Vorst,Vorst,official,51.066667,5,BE-VLG,,
-1958312,-2732184,settlement,Fosse,Fosse,official,50.340011,5.840828,BE-WAL,,
-1953234,-2725059,administrative_region,Ans,Ans,official,50.682013,5.504568,BE-WAL,,
-1957520,-2731173,settlement,Eine,Eine,official,50.867262,3.618153,BE-VLG,,
-1959787,-2734238,settlement,Hamoir,Hamoir,official,50.426746,5.533036,BE-WAL,,
-1954975,-2727384,settlement,Bos,Bos,official,50.844263,5.085484,BE-VLG,,
-1957061,-2730485,administrative_region,Dison,Dison,official,50.615138,5.874423,BE-WAL,,
-1955711,-2728428,hydrographic,Buzet,Buzet,official,50.5,4.35,BE-WAL,,
-1953684,-2725679,administrative_region,Bande,Bande,official,50.133333,5.433333,BE-WAL,,
-1954228,-2726386,settlement,Bergwijk,Bergwijk,official,50.833333,3.55,BE-VLG,,
-1955712,-2728429,settlement,Buzin,Buzin,official,50.357317,5.28389,BE-WAL,,
-1971543,-2750596,settlement,Velpen,Velpen,official,50.932571,5.093404,BE-VLG,,
-1953549,-2725487,settlement,Awan,Awan,variant,50.460397,5.649395,BE-WAL,,
-1957497,-2731147,settlement,Eikhoek,Eikhoek,official,50.866667,2.7,BE-VLG,,
-1954412,-2726628,administrative_region,Bierk,Bierk,variant,50.7,4.133333,BE-WAL,,
-1957681,-2731382,administrative_region,Ensival,Ensival,official,50.583333,5.85,BE-WAL,,
-1960557,-2735265,hydrographic,"Het Moer","Het Moer",official,51.421632,4.701678,BE-VLG,,
-1953235,-2725060,settlement,Ans,Ans,official,50.657091,5.534845,BE-WAL,,
-1956627,-2729802,hydrographic,"De Guile","De Guile",official,51.1,4.166667,BE-VLG,,
-1956139,-2729032,settlement,Cléal,Cleal,official,50.466667,5.183333,BE-WAL,,
-1957308,-2730833,settlement,Drossart,Drossart,official,50.55,6.05,BE-WAL,,
-1957591,-2731262,administrative_region,Elsegem,Elsegem,official,50.816667,3.533333,BE-VLG,,
-1960456,-2735120,settlement,Hermée,Hermee,official,50.708831,5.618312,BE-WAL,,
-1955661,-2728366,settlement,Burkel,Burkel,official,51.130465,5.459344,BE-VLG,,
-1971544,-2750597,administrative_region,Velroux,Velroux,official,50.65,5.433333,BE-WAL,,
-1971583,-2750652,settlement,Verennes,Verennes,official,50.25,5.233333,BE-WAL,,
-1972207,-2751521,settlement,Waard,Waard,official,51.006034,5.387391,BE-VLG,,
-1956472,-2729537,settlement,Culo,Culo,official,50.805279,4.785746,BE-VLG,,
-1957080,-2730514,administrative_region,Doische,Doische,official,50.136503,4.697603,BE-WAL,,
-1959621,-2733997,settlement,Hachy,Hachy,official,49.701593,5.680338,BE-WAL,,
-1953345,-2725209,hydrographic,Asbeek,Asbeek,official,51.15,5.15,BE-VLG,,
-1956853,-2745546,settlement,Raaf,Raaf,variant,51.1,4.366667,BE-VLG,,
-1956648,-2735579,settlement,Hoeve,Hoeve,variant,51.02475,4.950939,BE-VLG,,
-1959790,-2734243,administrative_region,Hamont,Hamont,official,51.25,5.533333,BE-VLG,,
-1958341,-2732216,settlement,Fourche,Fourche,official,50.233333,5.316667,BE-WAL,,
-1970096,-2748564,settlement,Sosoye,Sosoye,official,50.295847,4.780151,BE-WAL,,
-1970097,-2748565,settlement,Sossels,Sossels,official,49.6,5.766667,BE-WAL,,
-1954034,-2726136,settlement,"Bel Air","Bel Air",official,50.233333,5.016667,BE-WAL,,
-1970385,-2748960,settlement,Ster,Ster,official,50.083333,5.816667,BE-WAL,,
-1957592,-2731263,settlement,Elsegem,Elsegem,official,50.8236,3.536007,BE-VLG,,
-1960688,-2735464,administrative_region,Hives,Hives,official,50.15,5.583333,BE-WAL,,
-1955262,-2727830,settlement,Brand,Brand,official,50.6,5.983333,BE-WAL,,
-1953547,-2725486,settlement,Awagne,Awagne,official,50.295971,4.9482,BE-WAL,,
-1972072,-2751307,settlement,Voort,Voort,official,51.464078,4.794102,BE-VLG,,
-1960776,-2735576,settlement,Hoeulé,Hoeule,official,50.033333,4.266667,BE-WAL,,
-1954346,-2726536,settlement,Bevegem,Bevegem,official,50.869143,3.82626,BE-VLG,,
-1970124,-2748600,settlement,Sovet,Sovet,official,50.296511,5.035469,BE-WAL,,
-1954031,-2726133,hydrographic,Bel,Bel,official,50.69972,5.802283,BE-WAL,,
-1972494,-2751903,settlement,Watou,Watou,official,50.858637,2.620736,BE-VLG,,
-1958917,-2733000,settlement,Glain,Glain,official,50.648749,5.537191,BE-WAL,,
-1957373,-2730928,settlement,Dutzel,Dutzel,variant,50.923908,4.790573,BE-VLG,,
-1960689,-2735465,settlement,Hives,Hives,official,50.150491,5.577789,BE-WAL,,
-1968583,-2746322,spot,Rognon,Rognon,official,50.583333,4.333333,BE-WAL,,
-1954031,-2738169,hydrographic,"La Bel","La Bel",variant,50.69972,5.802283,BE-WAL,,
-1970898,-2749731,settlement,Thiolon,Thiolon,official,50.666667,3.683333,BE-WAL,,
-1972493,-2751902,administrative_region,Watou,Watou,official,50.866667,2.6,BE-VLG,,
-1954974,-2727383,settlement,Bos,Bos,official,50.783333,3.416667,BE-VLG,,
-1972131,-2751396,settlement,Vrebos,Vrebos,official,50.85823,4.559816,BE-VLG,,
-1971393,-2750404,settlement,Valk,Valk,official,51.046547,4.209762,BE-VLG,,
-1959619,-2733995,settlement,Hache,Hache,official,50.316667,5.65,BE-WAL,,
-1958960,-2733053,settlement,Goeren,Goeren,official,50.974662,5.147543,BE-VLG,,
-1960687,-2735463,settlement,Hirtz,Hirtz,official,50.705375,5.995465,BE-WAL,,
-1955617,-2726520,settlement,Beuken,Beuken,variant,50.937266,4.617048,BE-VLG,,
-1960581,-2735298,settlement,"Het Vinne","Het Vinne",official,51,5.05,BE-VLG,,
-1970782,-2749553,settlement,Terloo,Terloo,variant,50.783333,4.083333,BE-VLG,,
-1956950,-2750624,settlement,Vennen,Vennen,variant,50.95,5.566667,BE-VLG,,
-1954498,-2726737,hydrographic,Biran,Biran,official,50.166667,5.05,BE-WAL,,
-1955710,-2728427,settlement,Buzet,Buzet,official,50.5379,4.367048,BE-WAL,,
-1955397,-2728009,settlement,Broek,Broek,official,50.844727,5.494782,BE-VLG,,
-1953683,-2725678,spot,Bandam,Bandam,official,51.233333,3.616667,BE-VLG,,
-1953347,-2725211,settlement,Asbroek,Asbroek,official,51.066667,4.866667,BE-VLG,,
-1954474,-2726704,settlement,Billik,Billik,official,50.933333,5.3,BE-VLG,,
-1959788,-2734241,administrative_region,Hamois,Hamois,official,50.340643,5.137573,BE-WAL,,
-1954345,-2726535,settlement,Beuzet,Beuzet,official,50.533638,4.745203,BE-WAL,,
-1954033,-2726135,settlement,Belair,Belair,official,50.117108,4.8692,BE-WAL,,
-1955709,-2728426,settlement,Buzet,Buzet,official,50.419694,4.77277,BE-WAL,,
-1957519,-2731172,administrative_region,Eine,Eine,official,50.866667,3.616667,BE-VLG,,
-1956990,-2730392,hypsographic,Dickert,Dickert,official,50.433333,6.183333,BE-WAL,,
-1958941,-2729096,settlement,Codène,Codene,variant,50.5,4.25,BE-WAL,,
-1970095,-2748563,administrative_region,Sosoye,Sosoye,official,50.3,4.766667,BE-WAL,,
-1953346,-2725210,settlement,Asberg,Asberg,official,51.08485,4.899494,BE-VLG,,
-1953236,-2725061,settlement,Ansart,Ansart,official,49.69159,5.523585,BE-WAL,,
-1956706,-2729944,spot,Delval,Delval,official,50.666667,3.633333,BE-WAL,,
-1968605,-2746350,settlement,Rolé,Role,variant,49.9,5.25,BE-WAL,,
-1958916,-2732999,administrative_region,Glain,Glain,official,50.65,5.533333,BE-WAL,,
-1954824,-2727188,settlement,Bolsée,Bolsee,official,50.566667,5.1,BE-WAL,,
-1956164,-2729082,settlement,Cochamp,Cochamp,official,50.35,5.266667,BE-WAL,,
-1955708,-2728425,administrative_region,Buzet,Buzet,official,50.533333,4.366667,BE-WAL,,
-1956667,-2729873,settlement,"De Kat","De Kat",official,51.116667,4.95,BE-VLG,,
-1956989,-2730389,hypsographic,Dickelt,Dickelt,official,50.476645,6.264506,BE-WAL,,
-1960194,-2734775,settlement,Heihoek,Heihoek,official,50.983333,3.133333,BE-VLG,,
-1960455,-2735119,administrative_region,Hermée,Hermee,official,50.716667,5.616667,BE-WAL,,
-2156660,-2989968,hydrographic,Zuid-Willemsvaart,Zuid-Willemsvaart,official,50.866667,5.65,S1-000,,
-2156660,-2980471,hydrographic,"Maastricht-’s Hertogenbosch Canal","Maastricht-'s Hertogenbosch Canal",variant,50.866667,5.65,S1-000,,
-2156660,-2980469,hydrographic,"Canal de Maastricht à Bois-le-Duc","Canal de Maastricht a Bois-le-Duc",variant,50.866667,5.65,S1-000,,
-2156660,-2989055,hydrographic,"Willems Vaart","Willems Vaart",variant,50.866667,5.65,S1-000,,
-2156660,-2980470,hydrographic,"Kanaal van Maastricht naar Hertogenbosch","Kanaal van Maastricht naar Hertogenbosch",variant,50.866667,5.65,S1-000,,
-2156471,-2973387,hydrographic,"De Zoom","De Zoom",variant,51.5,4.266667,S1-000,,
-2156471,-2989746,hydrographic,Zoom,Zoom,official,51.5,4.266667,S1-000,,
-2155737,-2988832,hydrographic,Wielingen,Wielingen,official,51.416667,3.416667,S1-000,,
-2154080,-2986796,hydrographic,Tongelreep,Tongelreep,official,51.433333,5.483333,S1-000,,
-2153681,-2986238,hydrographic,"Strijbeeksche Beek","Strijbeeksche Beek",official,51.5,4.783333,S1-000,,
-2153681,-2986287,hydrographic,Strybeekschebeek,Strybeekschebeek,variant,51.5,4.783333,S1-000,,
-2153681,-2986239,hydrographic,"Strijbeekse Loop","Strijbeekse Loop",official,51.5,4.783333,S1-000,,
-2153681,-2986288,hydrographic,Strybeekscheloop,Strybeekscheloop,variant,51.5,4.783333,S1-000,,
-2152368,-2984606,hydrographic,"Kanal van Roosendaal","Kanal van Roosendaal",variant,51.533333,4.466667,S1-000,,
-2152368,-2984613,hydrographic,"Roosendaalse Vaart","Roosendaalse Vaart",official,51.533333,4.466667,S1-000,,
-2152368,-2984609,hydrographic,"Roosendaalsche Vaart","Roosendaalsche Vaart",variant,51.533333,4.466667,S1-000,,
-2152368,-2984630,hydrographic,"Canal de Rosendaal","Canal de Rosendaal",variant,51.533333,4.466667,S1-000,,
-2152292,-2984522,hydrographic,Rur,Rur,official,51.2,5.983333,S1-000,,
-2152292,-2979722,hydrographic,"La Roer","La Roer",variant,51.2,5.983333,S1-000,,
-2152292,-2984520,hydrographic,Roer,Roer,official,51.2,5.983333,S1-000,,
-2152292,-2973445,hydrographic,"Die Rur","Die Rur",variant,51.2,5.983333,S1-000,,
-2152292,-2973124,hydrographic,"De Roer","De Roer",variant,51.2,5.983333,S1-000,,
-2151934,-2984056,hydrographic,"Vlakte van de Raan","Vlakte van de Raan",official,51.45,3.233333,BE-VLG,,
-2151934,-2984055,hydrographic,"Vlakte van Raan","Vlakte van Raan",variant,51.45,3.233333,BE-VLG,,
-2151934,-2984057,hydrographic,"Raan Flat","Raan Flat",variant,51.45,3.233333,BE-VLG,,
-2151896,-2973084,hydrographic,"De Putsche Moer","De Putsche Moer",variant,51.383333,4.433333,S1-000,,
-2151896,-2984009,hydrographic,"Putsche Moer","Putsche Moer",variant,51.383333,4.433333,S1-000,,
-2151896,-2984011,hydrographic,"Putse Moer","Putse Moer",official,51.383333,4.433333,S1-000,,
-2151799,-2979868,hydrographic,Leij,Leij,variant,51.516667,5.1,S1-000,,
-2151799,-2983886,hydrographic,"Poppelsche Leij","Poppelsche Leij",official,51.516667,5.1,S1-000,,
-2151799,-2983885,hydrographic,"Poppelsche Lei","Poppelsche Lei",variant,51.516667,5.1,S1-000,,
-2149561,-2988998,hydrographic,Wildertschebeek,Wildertschebeek,variant,51.533333,4.466667,S1-000,,
-2149561,-2981138,hydrographic,Molenbeek,Molenbeek,official,51.533333,4.466667,S1-000,,
-2149561,-2981139,hydrographic,Wildertsebeek,Wildertsebeek,official,51.533333,4.466667,S1-000,,
-2149561,-2978659,hydrographic,"Kleine A","Kleine A",variant,51.533333,4.466667,S1-000,,
-2149560,-2981136,hydrographic,Molenbeek,Molenbeek,official,51.25,6,S1-000,,
-2149560,-2969342,hydrographic,"A Beek","A Beek",variant,51.25,6,S1-000,,
-2149560,-2981137,hydrographic,Aabeek,Aabeek,official,51.25,6,S1-000,,
-2149518,-2981085,hypsographic,Moerbekepolder,Moerbekepolder,official,51.2,3.933333,S1-000,,
-2149196,-2980700,hydrographic,Matjens,Matjens,official,51.433333,4.533333,S1-000,,
-2149196,-2972949,hydrographic,"Den Helder","Den Helder",variant,51.433333,4.533333,S1-000,,
-2149196,-2980701,hydrographic,"De Maatjes","De Maatjes",official,51.433333,4.533333,S1-000,,
-2149144,-2980641,hydrographic,Marksken,Marksken,official,51.416667,4.9,S1-000,,
-2148538,-2979879,hydrographic,Leiloop,Leiloop,variant,51.5,4.783333,S1-000,,
-2148538,-2979877,hydrographic,Leijloop,Leijloop,official,51.5,4.783333,S1-000,,
-2148297,-2979579,hydrographic,"Kanaal Lanaye naar Maastricht","Kanaal Lanaye naar Maastricht",official,50.85,5.7,S1-000,,
-2148297,-2979580,hydrographic,"Canal de Lanaye à Maastricht","Canal de Lanaye a Maastricht",official,50.85,5.7,S1-000,,
-2148297,-2979578,hydrographic,"Canal Lanaye-Maastricht","Canal Lanaye-Maastricht",variant,50.85,5.7,S1-000,,
-2148297,-2986493,hydrographic,"Kanaal Ternaaien-Maastricht","Kanaal Ternaaien-Maastricht",variant,50.85,5.7,S1-000,,
-2147132,-2978193,hydrographic,Kabeljauwbeek,Kabeljauwbeek,official,51.366667,4.25,S1-000,,
-2147026,-2979830,hydrographic,"Le Geer","Le Geer",variant,50.85,5.7,S1-000,,
-2147026,-2972592,hydrographic,"De Jeker","De Jeker",variant,50.85,5.7,S1-000,,
-2147026,-2978027,hydrographic,Jaar,Jaar,variant,50.85,5.7,S1-000,,
-2147026,-2978068,hydrographic,Geer,Geer,official,50.85,5.7,S1-000,,
-2147026,-2978067,hydrographic,Jeker,Jeker,official,50.85,5.7,S1-000,,
-2146986,-2978022,hydrographic,Itterbeek,Itterbeek,official,51.166667,5.85,S1-000,,
-2146986,-2986809,hydrographic,"Tongerlose Beek","Tongerlose Beek",variant,51.166667,5.85,S1-000,,
-2146986,-2978023,hydrographic,"Itterse Beek","Itterse Beek",variant,51.166667,5.85,S1-000,,
-2146986,-2978017,hydrographic,Itter,Itter,variant,51.166667,5.85,S1-000,,
-2146986,-2978021,hydrographic,"Ittersche Beek","Ittersche Beek",official,51.166667,5.85,S1-000,,
-2146981,-2978013,hydrographic,Isabellakanaal,Isabellakanaal,official,51.316667,3.733333,S1-000,,
-2146376,-2735704,hydrographic,"Hollandsche Loop","Hollandsche Loop",official,51.416667,4.816667,S1-000,,
-2146376,-2977257,hydrographic,Hollandseloop,Hollandseloop,variant,51.416667,4.816667,S1-000,,
-2146128,-2976924,hydrographic,"Het Zwin","Het Zwin",official,51.366667,3.366667,S1-000,,
-2146128,-2990183,hydrographic,Zwynn,Zwynn,variant,51.366667,3.366667,S1-000,,
-2146128,-2990162,hydrographic,"Zwin Estuary","Zwin Estuary",variant,51.366667,3.366667,S1-000,,
-2146128,-2990182,hydrographic,Zwyn,Zwyn,variant,51.366667,3.366667,S1-000,,
-2146128,-2990148,hydrographic,"Zwijn Estuary","Zwijn Estuary",variant,51.366667,3.366667,S1-000,,
-2146128,-2990158,hydrographic,Zwin,Zwin,variant,51.366667,3.366667,S1-000,,
-2145555,-2976167,park,Hazenduinen,Hazenduinen,official,51.383333,4.416667,S1-000,,
-2145236,-2979559,hydrographic,"La Gulpe","La Gulpe",variant,50.816667,5.9,S1-000,,
-2145236,-2975770,hydrographic,Gulp,Gulp,official,50.816667,5.9,S1-000,,
-2144724,-2972377,hydrographic,"De Geul","De Geul",variant,50.9,5.716667,S1-000,,
-2144724,-2975092,hydrographic,Geule,Geule,variant,50.9,5.716667,S1-000,,
-2144724,-2975096,hydrographic,Geulle,Geulle,variant,50.9,5.716667,S1-000,,
-2144724,-2979558,hydrographic,"La Gueule Rivière","La Gueule Riviere",variant,50.9,5.716667,S1-000,,
-2144724,-2975090,hydrographic,Geul,Geul,official,50.9,5.716667,S1-000,,
-2144724,-2975091,hydrographic,Gueule,Gueule,official,50.9,5.716667,S1-000,,
-2140913,-2970238,park,"Bedafsche Heide","Bedafsche Heide",official,51.45,5.016667,S1-000,,
-2140808,-2970111,hydrographic,Ballastplaat,Ballastplaat,official,51.366667,4.233333,S1-000,,
-2140583,-2969830,hydrographic,Appelzak,Appelzak,official,51.383333,3.383333,BE-000,,
-1972940,-2752534,settlement,"Witte Hoevenseheide","Witte Hoevenseheide",official,51.370312,4.46005,BE-VLG,,
-1973472,-3140519,spot,Weillen,Weillen,official,50.266667,4.916667,BE-WAL,,
-1973235,-2752986,settlement,Zielestraat,Zielestraat,official,51.22648,4.845931,BE-VLG,,
-1972805,-2752354,settlement,Wildenhaan,Wildenhaan,official,51.185539,4.276258,BE-VLG,,
-1973005,-2752058,settlement,Wendelghem,Wendelghem,variant,51.087046,3.709086,BE-VLG,,
-1973048,-2752714,settlement,Wyompont,Wyompont,official,50.086776,5.571241,BE-WAL,,
-1973086,-2752783,settlement,Zalphen,Zalphen,variant,51.275492,4.741512,BE-VLG,,
-1973324,-2749247,settlement,Swaan,Swaan,variant,50.731065,5.825513,BE-VLG,,
-1972979,-2752590,administrative_region,Wolkrange,Wolkrange,official,49.65,5.8,BE-WAL,,
-1972960,-2752558,administrative_region,Woesten,Woesten,official,50.9,2.783333,BE-VLG,,
-1972422,-2751812,settlement,Warneton,Warneton,official,50.752619,2.948545,BE-WAL,,
-1973159,-2752869,hydrographic,Zeenloop,Zeenloop,variant,51.143762,5.061875,BE-VLG,,
-1973360,-2753166,spot,"Zwarte Poorthof","Zwarte Poorthof",variant,50.783333,4.283333,BE-VLG,,
-1972884,-2752462,administrative_region,Winksele,Winksele,official,50.916667,4.633333,BE-VLG,,
-1972827,-2752379,settlement,Willebroeck,Willebroeck,variant,51.060409,4.360193,BE-VLG,,
-1972998,-2752621,administrative_region,Wommelghem,Wommelghem,variant,51.205205,4.520214,BE-VLG,,
-1972794,-2752338,hydrographic,Wijzenbeek,Wijzenbeek,official,50.741705,3.927612,BE-VLG,,
-1972892,-2752472,hydrographic,Winterbeek,Winterbeek,official,50.869706,5.408915,BE-VLG,,
-1973335,-2753125,settlement,Zwaantjeshoek,Zwaantjeshoek,official,50.90208,3.330336,BE-VLG,,
-1972789,-2752331,settlement,Wijtschate,Wijtschate,official,50.786316,2.883691,BE-VLG,,
-1972452,-2751847,settlement,Wastinelle,Wastinelle,official,50.65,3.916667,BE-WAL,,
-1972745,-2752271,administrative_region,Wierde,Wierde,official,50.433333,4.933333,BE-WAL,,
-1972989,-2752606,vegetation,Wolvenbos,Wolvenbos,official,51.335131,4.461488,BE-VLG,,
-1972509,-2751922,settlement,Wauthier,Wauthier,variant,50.686854,4.310087,BE-WAL,,
-1972574,-2752026,settlement,Weirken,Weirken,official,51.23702,5.303436,BE-VLG,,
-1972731,-2752252,settlement,Wideumont,Wideumont,official,49.926401,5.486078,BE-WAL,,
-1972935,-2752528,settlement,"Witte Brug","Witte Brug",variant,51.120232,2.678458,BE-VLG,,
-1972424,-2751814,spot,"Ferme de Warnoumont","Ferme de Warnoumont",official,50.5,5.683333,BE-WAL,,
-1972808,-2752357,hydrographic,Wilderbeek,Wilderbeek,official,50.883333,5.533333,BE-VLG,,
-1973111,-2752808,hydrographic,Zanderbeek,Zanderbeek,official,51.083333,5.733333,BE-VLG,,
-1972561,-2752008,settlement,Weidendrift,Weidendrift,official,50.916667,2.9,BE-VLG,,
-1973090,-2752786,settlement,Zammel,Zammel,official,51.1,4.95,BE-VLG,,
-1973256,-2753018,settlement,Zoerle-Parwys,Zoerle-Parwys,variant,51.089691,4.871075,BE-VLG,,
-1972914,-2752503,spot,"Château de Wisbecq","Chateau de Wisbecq",official,50.683333,4.133333,BE-WAL,,
-1972474,-2751876,settlement,Waterlozen,Waterlozen,official,51,5.3,BE-VLG,,
-1973000,-2752623,administrative_region,Wommersom,Wommersom,official,50.816667,5.016667,BE-VLG,,
-1972845,-2752304,settlement,Wijlrijk,Wijlrijk,variant,51.169928,4.405754,BE-VLG,,
-1972718,-2752110,administrative_region,Wesembeek,Wesembeek,variant,50.842852,4.492038,BE-VLG,,
-1972893,-2752474,hydrographic,Winterbeek,Winterbeek,official,50.960979,5.245362,BE-VLG,,
-1972976,-2752586,settlement,Wolfstee,Wolfstee,official,51.162099,4.808852,BE-VLG,,
-1973205,-2752929,settlement,Zevecoote,Zevecoote,variant,51.183333,3.066667,BE-VLG,,
-1973380,-2753192,settlement,Zwijnaarde,Zwijnaarde,official,51.000774,3.707461,BE-VLG,,
-1972844,-2752403,administrative_region,Wilrijk,Wilrijk,official,51.166667,4.4,BE-VLG,,
-1973260,-2753027,settlement,Zoetendaal,Zoetendaal,official,51.23521,3.400447,BE-VLG,,
-1972473,-2751875,settlement,Waterloze,Waterloze,official,50.829,3.901238,BE-VLG,,
-1972816,-2752367,spot,Wilgendam,Wilgendam,official,50.7,3.966667,BE-VLG,,
-1973110,-2752807,settlement,Zandeken,Zandeken,official,51.154642,3.756499,BE-VLG,,
-1972817,-2752369,settlement,Willaer,Willaer,variant,51.133333,4.983333,BE-VLG,,
-1972749,-2752276,settlement,Wieschen,Wieschen,official,50.329437,6.064968,BE-WAL,,
-1972617,-2752081,settlement,Werihet,Werihet,official,50.666667,5.65,BE-WAL,,
-1973137,-2752840,administrative_region,Zarren,Zarren,official,51,2.95,BE-VLG,,
-1972463,-2751863,settlement,Wateringen,Wateringen,official,51.3,5.133333,BE-VLG,,
-1973221,-2747935,settlement,Severdonck,Severdonck,variant,51.289386,4.946006,BE-VLG,,
-1972589,-2752044,hydrographic,"Welleken Weier","Welleken Weier",official,50.983333,5.383333,BE-VLG,,
-1972679,-2752176,settlement,"Westreties Heiken","Westreties Heiken",official,51.249855,5.01722,BE-VLG,,
-1973301,-2753077,settlement,Zuidhoek,Zuidhoek,official,50.866667,3.133333,BE-VLG,,
-1972492,-2751901,vegetation,"Bois de Watinsart","Bois de Watinsart",official,49.662965,5.346859,BE-WAL,,
-1972610,-2752072,administrative_region,Werchter,Werchter,official,50.966667,4.7,BE-VLG,,
-1973321,-2749242,settlement,Sutendael,Sutendael,variant,50.931676,5.572036,BE-VLG,,
-1972724,-2752245,administrative_region,Wibrin,Wibrin,official,50.166667,5.716667,BE-WAL,,
-1972901,-2752483,settlement,Wintershoven,Wintershoven,official,50.851569,5.419647,BE-VLG,,
-1972911,-2752500,settlement,Wirtzfeld,Wirtzfeld,official,50.431302,6.265886,BE-WAL,,
-1973244,-2752995,settlement,Zilvereind,Zilvereind,official,51.288871,4.778298,BE-VLG,,
-1973355,-2742998,hydrographic,"Nethe Noire Ruisseau","Nethe Noire Ruisseau",variant,51.248696,5.07816,BE-VLG,,
-1973089,-2752782,settlement,Zallaken,Zallaken,official,50.974251,4.770937,BE-VLG,,
-1972677,-2752173,settlement,Westrem,Westrem,official,50.969104,3.862025,BE-VLG,,
-1972920,-2752510,spot,"Kasteel van Wissekerke","Kasteel van Wissekerke",official,51.145468,4.301659,BE-VLG,,
-1973131,-2752833,hydrographic,"Zandvoort Weel","Zandvoort Weel",official,51.266667,4.366667,BE-VLG,,
-1973196,-2752924,settlement,Zeswege,Zeswege,variant,51.040681,3.189233,BE-VLG,,
-1972900,-2752482,administrative_region,Wintershoven,Wintershoven,official,50.85,5.4,BE-VLG,,
-1973309,-2753086,settlement,Zuidzammel,Zuidzammel,official,51.1,4.95,BE-VLG,,
-1972547,-2751990,settlement,Weert,Weert,official,51.100791,4.192951,BE-VLG,,
-1973183,-2747853,administrative_region,Selzaete,Selzaete,variant,51.198866,3.810556,BE-VLG,,
-1973358,-2753162,settlement,Zwartenhoek,Zwartenhoek,official,51.093352,5.119487,BE-VLG,,
-1973178,-2752901,settlement,Zellik,Zellik,official,50.886098,4.263365,BE-VLG,,
-1973278,-2753050,settlement,Zonnebeke,Zonnebeke,official,50.871093,2.985189,BE-VLG,,
-1972419,-2751807,settlement,Warnant,Warnant,variant,50.595119,5.225605,BE-WAL,,
-1972775,-2752311,spot,Wijneghemhof,Wijneghemhof,variant,50.883333,4.566667,BE-VLG,,
-1973326,-2753115,settlement,Zwaanaarde,Zwaanaarde,official,51.156292,4.00924,BE-VLG,,
-1973023,-2752657,spot,Wouvers,Wouvers,official,51.366667,5.083333,BE-VLG,,
-1973283,-2753056,settlement,Zool,Zool,official,50.966667,5.2,BE-VLG,,
-1973087,-2752784,hydrographic,Zalphenschebeek,Zalphenschebeek,variant,51.258744,4.734404,BE-VLG,,
-1973080,-2752772,settlement,Zachtheide,Zachtheide,official,51.05,4.666667,BE-VLG,,
-1973272,-2753043,settlement,Zonderschot,Zonderschot,official,51.061992,4.743978,BE-VLG,,
-1972639,-2752121,settlement,Wespelarenhoek,Wespelarenhoek,official,50.960708,4.62352,BE-VLG,,
-1973232,-2747979,administrative_region,Sichen-Sussen-Bolre,Sichen-Sussen-Bolre,variant,50.8,5.616667,BE-VLG,,
-1972767,-2752300,hydrographic,Wijkeloop,Wijkeloop,official,51.15,4.55,BE-VLG,,
-1972990,-2752609,settlement,Wolvendael,Wolvendael,variant,50.932565,4.281029,BE-VLG,,
-1972425,-2751815,settlement,Warôneu,Waroneu,variant,50.559865,6.043789,BE-WAL,,
-1973098,-2752795,hydrographic,Zand,Zand,official,51.364795,3.175516,BE-VLG,,
-1972407,-2751795,settlement,Warisoulx,Warisoulx,official,50.535056,4.86402,BE-WAL,,
-1973170,-2752889,hydrographic,Zelebeek,Zelebeek,official,51.093037,4.033874,BE-VLG,,
-1972771,-2752305,settlement,Wijmeneer,Wijmeneer,official,50.792398,3.675804,BE-VLG,,
-1972759,-2743417,administrative_region,Nudorp,Nudorp,variant,50.733333,5.5,BE-WAL,,
-1973075,-2752764,settlement,Yves-Gomezée,Yves-Gomezee,official,50.23926,4.49344,BE-WAL,,
-1972438,-2731296,hydrographic,Elwasmes,Elwasmes,variant,50.45,3.85,BE-WAL,,
-1972442,-2751835,spot,"Ferme des Waspellières","Ferme des Waspellieres",variant,50.583333,3.883333,BE-WAL,,
-1972595,-2752050,settlement,Welriekende,Welriekende,official,50.783333,4.45,BE-BRU,,
-1972692,-2752193,settlement,Wetteran,Wetteran,variant,51.005261,3.88341,BE-VLG,,
-1973154,-2752859,settlement,Zedelgem,Zedelgem,official,51.142355,3.136801,BE-VLG,,
-1972784,-2752713,settlement,Wynstraat,Wynstraat,variant,51.2,4.116667,BE-VLG,,
-1973249,-2753006,settlement,Zittaerd,Zittaerd,variant,50.944798,5.107419,BE-VLG,,
-1972904,-2752487,settlement,Wintham,Wintham,official,51.106546,4.297842,BE-VLG,,
-1972851,-2739065,hydrographic,"La Wiltz","La Wiltz",variant,49.95,6.016667,S1-000,,
-1972659,-2752152,settlement,Westhoek,Westhoek,official,51.021223,3.375112,BE-VLG,,
-1972559,-2752006,spot,Weide,Weide,official,50.7,6.066667,BE-WAL,,
-1972669,-2752163,settlement,Westmalle,Westmalle,official,51.298633,4.690238,BE-VLG,,
-1973348,-2753181,hydrographic,Zwartwaterbeek,Zwartwaterbeek,variant,50.983333,5.066667,BE-VLG,,
-1973302,-2753078,settlement,Zuidhoek,Zuidhoek,official,50.918595,2.66938,BE-VLG,,
-1973102,-2752799,settlement,Zandberg,Zandberg,official,51.068911,4.045436,BE-VLG,,
-1973116,-2747244,settlement,Sandhoeven-heiden,Sandhoeven-heiden,variant,51.254426,4.86442,BE-VLG,,
-1973225,-2752974,settlement,Zevergem,Zevergem,official,50.97931,3.693192,BE-VLG,,
-1972878,-2752446,settlement,Winkelder,Winkelder,variant,51.166667,5.716667,BE-VLG,,
-1972886,-2752452,settlement,Winkelken,Winkelken,variant,50.916667,3.5,BE-VLG,,
-1972574,-2752297,settlement,Wijerken,Wijerken,variant,51.23702,5.303436,BE-VLG,,
-1972826,-2752381,administrative_region,Willebroek,Willebroek,official,51.056104,4.368085,BE-VLG,,
-1972928,-2752519,spot,Withoeve,Withoeve,official,51.183333,4.933333,BE-VLG,,
-1973351,-2753151,settlement,Zwartegat,Zwartegat,official,50.976053,3.658246,BE-VLG,,
-1972830,-2752385,settlement,Willekensberg,Willekensberg,official,50.983333,4.866667,BE-VLG,,
-1972935,-2752529,settlement,"Witte Burg","Witte Burg",official,51.120232,2.678458,BE-VLG,,
-1973163,-2752878,hydrographic,Zegelaarbeek,Zegelaarbeek,official,50.816667,3.783333,BE-VLG,,
-1972703,-2752208,settlement,Weyaux,Weyaux,official,50.571672,3.538248,BE-WAL,,
-1972691,-2752194,administrative_region,Wetteren,Wetteren,official,50.993417,3.872115,BE-VLG,,
-1973149,-2752853,spot,Zavelhof,Zavelhof,official,50.966667,5.083333,BE-VLG,,
-1973195,-2752923,spot,"Zes Honderd","Zes Honderd",official,51.344012,5.061252,BE-VLG,,
-1973251,-2753008,settlement,Zittaert,Zittaert,variant,51.220736,4.813169,BE-VLG,,
-1973047,-2752696,settlement,Wy,Wy,official,50.270815,5.518914,BE-WAL,,
-1972776,-2752313,vegetation,Wijnendaalbos,Wijnendaalbos,official,51.071339,3.045399,BE-VLG,,
-1972563,-2752011,settlement,Weidonk,Weidonk,official,51.2,4.916667,BE-VLG,,
-1973230,-2752979,settlement,Zichem,Zichem,official,50.998655,4.982436,BE-VLG,,
-1973377,-2749253,settlement,Swevezeele,Swevezeele,variant,51.036825,3.211858,BE-VLG,,
-1972863,-2752427,settlement,Windelsteen,Windelsteen,official,50.995843,5.635778,BE-VLG,,
-1973199,-2752933,settlement,Zevecote,Zevecote,official,51.35,3.333333,BE-VLG,,
-1972484,-2751892,settlement,Waterschey,Waterschey,variant,51.002263,5.522355,BE-VLG,,
-1973340,-2730372,hydrographic,"De Zwanebeek","De Zwanebeek",variant,51.233333,4.533333,BE-VLG,,
-1973033,-2752673,settlement,Wulgebroek,Wulgebroek,official,51.166667,3.233333,BE-VLG,,
-1973174,-2752893,spot,Zellaar,Zellaar,official,51.033333,4.544338,BE-VLG,,
-1972710,-2752227,hydrographic,"Étang du Wez des Haches","Etang du Wez des Haches",official,49.933333,5.6,BE-WAL,,
-1972755,-2752282,settlement,Wigny,Wigny,official,50.082472,5.617131,BE-WAL,,
-1972634,-2752103,administrative_region,Wervicq,Wervicq,variant,50.807983,3.057624,BE-VLG,,
-1972923,-2752513,hydrographic,Witgoor,Witgoor,official,51.383333,5.066667,BE-VLG,,
-1972439,-2751832,administrative_region,Wasmes-Audemez-Briffoeil,Wasmes-Audemez-Briffoeil,official,50.55,3.533333,BE-WAL,,
-1972828,-2752383,hydrographic,"Kanaal van Willebroek","Kanaal van Willebroek",official,50.866667,4.366667,BE-000,,
-1972777,-2752707,settlement,Wynendaele,Wynendaele,variant,50.976365,3.11511,BE-VLG,,
-1973153,-2752860,administrative_region,Zedelghem,Zedelghem,variant,51.126165,3.137192,BE-VLG,,
-1972588,-2752043,spot,"Hof te Welle","Hof te Welle",official,50.866667,3.85,BE-VLG,,
-1973303,-2753079,settlement,Zuidhoek,Zuidhoek,official,50.95,3.133333,BE-VLG,,
-1972505,-2751919,vegetation,"Bois de Wauhut","Bois de Wauhut",variant,50.37642,4.12914,BE-WAL,,
-1972585,-2752040,settlement,Welkenraedt,Welkenraedt,official,50.660497,5.970343,BE-WAL,,
-1972947,-2752541,settlement,Witterzée,Witterzee,official,50.644229,4.357375,BE-WAL,,
-1972461,-2751860,spot,Waterhof,Waterhof,official,50.934922,4.903179,BE-VLG,,
-1972622,-2752087,vegetation,"Bois de Weris","Bois de Weris",official,50.332876,5.561581,BE-WAL,,
-1973196,-2752925,settlement,Zeswegen,Zeswegen,official,51.040681,3.189233,BE-VLG,,
-1973311,-2753088,settlement,Zuienkerke,Zuienkerke,official,51.26511,3.155058,BE-VLG,,
-1973182,-2752906,hydrographic,Zelteleed,Zelteleed,official,51.116667,2.733333,BE-VLG,,
-1973045,-2752693,administrative_region,Wuustwezel,Wuustwezel,official,51.4,4.6,BE-VLG,,
-1973189,-2730366,hydrographic,"De Zenne","De Zenne",variant,51.064557,4.429017,BE-VLG,,
-1973276,-2735665,settlement,"Hoge Zonne","Hoge Zonne",variant,51.247587,3.563539,BE-VLG,,
-1972660,-2752153,settlement,Westhoek,Westhoek,official,51.066667,2.733333,BE-VLG,,
-1973215,-2752961,settlement,Zevenhoek,Zevenhoek,official,50.816667,3.95,BE-VLG,,
-1972584,-2752039,administrative_region,Welkenraedt,Welkenraedt,official,50.66334,5.936828,BE-WAL,,
-1972770,-2752703,hydrographic,Wylegemschebeek,Wylegemschebeek,variant,50.866667,3.733333,BE-VLG,,
-1973212,-2752951,administrative_region,Zeveneeken,Zeveneeken,variant,51.1,3.916667,BE-VLG,,
-1973178,-2752899,settlement,Zellick,Zellick,variant,50.886098,4.263365,BE-VLG,,
-1972885,-2752463,settlement,Winksele,Winksele,official,50.898604,4.646067,BE-VLG,,
-1972833,-2733895,hydrographic,"Bassin Guillaume","Bassin Guillaume",variant,51.233333,4.4,BE-VLG,,
-1973274,-2753045,settlement,Zonhoven,Zonhoven,official,50.991126,5.368016,BE-VLG,,
-1972536,-2751971,hypsographic,Weefberg,Weefberg,official,51.026541,4.961104,BE-VLG,,
-1973042,-2752686,administrative_region,Wulveringem,Wulveringem,official,51.016667,2.633333,BE-VLG,,
-1973288,-2748568,settlement,Sottegem,Sottegem,variant,50.869555,3.810522,BE-VLG,,
-1972984,14121378,administrative_region,"Commune de Woluwe-Saint-Lambert","Commune de Woluwe-Saint-Lambert",official,50.848926,4.430938,BE-BRU,,
-1972889,-2730352,settlement,"De Winter","De Winter",variant,51.233333,5.533333,BE-VLG,,
-1972961,-2752559,settlement,Woesten,Woesten,official,50.899709,2.789589,BE-VLG,,
-1972679,-2752175,settlement,"West Rethys Heiken","West Rethys Heiken",variant,51.249855,5.01722,BE-VLG,,
-1972777,-2752317,settlement,Wijnendale,Wijnendale,official,50.976365,3.11511,BE-VLG,,
-1973256,-2753016,settlement,Zoerle-Parwijs,Zoerle-Parwijs,official,51.089691,4.871075,BE-VLG,,
-1972668,-2752162,administrative_region,Westmalle,Westmalle,official,51.3,4.683333,BE-VLG,,
-1972509,-2751924,settlement,Wauthier-Braine,Wauthier-Braine,official,50.686854,4.310087,BE-WAL,,
-1973122,-2752821,hydrographic,Zandstraatbeek,Zandstraatbeek,official,51.183333,3.116667,BE-VLG,,
-1973381,-2753210,settlement,Zwynaerdschedries,Zwynaerdschedries,variant,51.020278,3.724281,BE-VLG,,
-1972551,-2751997,spot,"Château de Wégimont","Chateau de Wegimont",official,50.616667,5.733333,BE-WAL,,
-1972962,-2752560,settlement,Woestijn,Woestijn,official,50.811948,4.075332,BE-VLG,,
-1973044,-2752691,settlement,Wurfelt,Wurfelt,variant,51.092505,5.761239,BE-VLG,,
-1972652,-2752141,settlement,Westergem,Westergem,official,51.080625,3.712224,BE-VLG,,
-1973180,-2752904,hydrographic,Zelsebeek,Zelsebeek,official,51.166667,4.7,BE-VLG,,
-1972473,-2751874,settlement,Waterlooze,Waterlooze,variant,50.829,3.901238,BE-VLG,,
-1973081,-2746914,administrative_region,Saffelaere,Saffelaere,variant,51.133333,3.85,BE-VLG,,
-1972663,-2752128,administrative_region,Westcapelle,Westcapelle,variant,51.316667,3.3,BE-VLG,,
-1973347,-2753160,hydrographic,Zwartengracht,Zwartengracht,variant,51.166667,3.95,BE-VLG,,
-1973377,-2753189,settlement,Zwevezele,Zwevezele,official,51.036825,3.211858,BE-VLG,,
-1972995,-2752615,settlement,Wolvenstraet,Wolvenstraet,variant,50.883333,3.883333,BE-VLG,,
-1973243,-2752994,settlement,Zilverberg,Zilverberg,official,50.920631,3.109557,BE-VLG,,
-1973304,-2753080,hydrographic,Zuidlede,Zuidlede,official,51.149381,3.827866,BE-VLG,,
-1972414,-2751803,settlement,Warmonfosse,Warmonfosse,official,50.433333,5.683333,BE-WAL,,
-1972981,-2752592,settlement,Wolske,Wolske,official,50.933333,5.383333,BE-VLG,,
-1972513,-2751929,administrative_region,Waver,Waver,variant,50.71925,4.59262,BE-WAL,,
-1973210,-2752954,settlement,Zeveneekhoek,Zeveneekhoek,official,51.196519,4.167286,BE-VLG,,
-1973318,-2753099,hydrographic,Zusterkloosterbeek,Zusterkloosterbeek,official,50.95,5.366667,BE-VLG,,
-1973146,-2752850,vegetation,Zavelbos,Zavelbos,official,51.183333,4.866667,BE-VLG,,
-1972456,-2752653,settlement,Woutersbos,Woutersbos,variant,50.733333,4.35,BE-VLG,,
-1972596,-2752052,settlement,"Wemaar Gilde","Wemaar Gilde",official,50.716667,2.9,BE-WAL,,
-1973266,-2753036,administrative_region,Zomergem,Zomergem,official,51.127679,3.555335,BE-VLG,,
-1972872,-2752437,hydrographic,Wingebeek,Wingebeek,official,50.910701,4.866034,BE-VLG,,
-1972666,-2752159,settlement,Westkerke,Westkerke,official,51.164485,3.01084,BE-VLG,,
-1972978,-2752589,vegetation,Wolkeshardt,Wolkeshardt,variant,50.288333,6.033333,BE-WAL,,
-1972518,-2751946,settlement,Wavrielle,Wavrielle,variant,50.121194,5.248309,BE-WAL,,
-1973320,-2749241,administrative_region,Sutendael,Sutendael,variant,50.93505,5.573763,BE-VLG,,
-1972419,-2751809,settlement,Warnant-Dreye,Warnant-Dreye,official,50.595119,5.225605,BE-WAL,,
-1972883,-2752456,settlement,"Winkelomse Heide","Winkelomse Heide",variant,51.149736,4.998689,BE-VLG,,
-1972880,-2752450,spot,Winkelgoed,Winkelgoed,official,51.133333,3.85,BE-VLG,,
-1972781,-2752322,hypsographic,Wijngaardberg,Wijngaardberg,official,50.953269,4.771711,BE-VLG,,
-1973041,-2752683,settlement,Wulvergem,Wulvergem,official,50.760208,2.852427,BE-VLG,,
-1973206,-2752932,settlement,Zevecote,Zevecote,variant,51.2,3.25,BE-VLG,,
-1973361,-2753167,hydrographic,"Zwarte Waterbeek","Zwarte Waterbeek",official,51.033333,4.533333,BE-VLG,,
-1972931,-2752523,spot,Withof,Withof,official,51.233333,4.483333,BE-VLG,,
-1972582,-2752037,settlement,Welden,Welden,official,50.876844,3.654531,BE-VLG,,
-1972670,-2752164,administrative_region,Westmeerbeek,Westmeerbeek,official,51.066667,4.833333,BE-VLG,,
-1973184,-2752908,settlement,Zelzate,Zelzate,official,51.189633,3.80777,BE-VLG,,
-1973297,-2753072,settlement,Zuiddamme,Zuiddamme,official,51.154647,3.349374,BE-VLG,,
-1972955,-2752550,settlement,Wixhon,Wixhon,variant,50.703926,5.691661,BE-WAL,,
-1972643,-2752125,hydrographic,Westbeek,Westbeek,official,51.183333,4.033333,BE-VLG,,
-1973120,-2752819,settlement,Zandstraat,Zandstraat,official,51.183333,4.233333,BE-VLG,,
-1972541,-2751980,administrative_region,Weerde,Weerde,official,50.966667,4.483333,BE-VLG,,
-1973076,-2752765,administrative_region,Yvoir,Yvoir,official,50.328083,4.93917,BE-WAL,,
-1973220,-2752969,spot,"Zeven Torens","Zeven Torens",official,51.183333,3.233333,BE-VLG,,
-1972427,-2751819,settlement,Warquignies,Warquignies,official,50.402204,3.823963,BE-WAL,,
-1973317,-2749240,settlement,Sussen,Sussen,variant,50.797788,5.635021,BE-VLG,,
-1972784,-2752325,settlement,Wijnstraat,Wijnstraat,official,51.2,4.116667,BE-VLG,,
-1972685,11128066,administrative_region,West-Vlaanderen,West-Vlaanderen,variant,51,3,BE-VLG,,
-1972689,-2752191,hypsographic,Wetsberg,Wetsberg,official,51.073743,5.049181,BE-VLG,,
-1972789,-2752719,settlement,Wytschaete,Wytschaete,variant,50.786316,2.883691,BE-VLG,,
-1972922,-2753180,hydrographic,Zwartwater,Zwartwater,variant,51.157456,5.834914,BE-VLG,,
-1972845,-2752404,settlement,Wilrijk,Wilrijk,official,51.169928,4.405754,BE-VLG,,
-1973021,-2752651,settlement,Wout,Wout,official,51.14379,4.835046,BE-VLG,,
-1972564,-2752295,hydrographic,"Wijer Beek","Wijer Beek",variant,50.924247,5.227668,BE-VLG,,
-1972917,-2752507,settlement,Wishagen,Wishagen,official,51.085635,4.768106,BE-VLG,,
-1972527,-2751955,settlement,Ways,Ways,official,50.60999,4.462445,BE-WAL,,
-1972943,-2752537,settlement,Wittenberg,Wittenberg,official,51.266667,5.466667,BE-VLG,,
-1972953,-2752548,hydrographic,Witven,Witven,official,50.966667,5.333333,BE-VLG,,
-1972779,-2752319,spot,Wijngaard,Wijngaard,official,51.25,4.466667,BE-VLG,,
-1973337,-2753131,hydrographic,Zwalmbeek,Zwalmbeek,official,50.816667,3.783333,BE-VLG,,
-1972651,-2752138,settlement,Westende-Bad,Westende-Bad,official,51.169214,2.772778,BE-VLG,,
-1972952,-2752547,settlement,Wittingstraat,Wittingstraat,official,51.2,4,BE-VLG,,
-1972448,-2751843,settlement,Wassenhove,Wassenhove,official,50.877924,3.849255,BE-VLG,,
-1973118,-2752817,settlement,Zandloper,Zandloper,official,51.248685,4.147602,BE-VLG,,
-1972663,-2752130,administrative_region,Westcappelle,Westcappelle,variant,51.316667,3.3,BE-VLG,,
-1973135,-2752837,administrative_region,Zarlardinge,Zarlardinge,official,50.766667,3.816667,BE-VLG,,
-1973078,-2752767,settlement,Yvoy,Yvoy,official,50.363643,4.937693,BE-WAL,,
-1972759,-2743371,administrative_region,Nosdorp,Nosdorp,variant,50.733333,5.5,BE-WAL,,
-1972908,-2752495,settlement,Wippelgem,Wippelgem,official,51.136988,3.722192,BE-VLG,,
-1972664,-2752129,settlement,Westcapelle,Westcapelle,variant,51.31511,3.301699,BE-VLG,,
-1972736,-2752259,settlement,Wiekevorstheide,Wiekevorstheide,official,51.083333,4.8,BE-VLG,,
-1973028,-2752667,settlement,Wuines,Wuines,official,51.033764,4.611632,BE-VLG,,
-1973104,-2752801,vegetation,Zandbergen,Zandbergen,official,51.225103,5.074546,BE-VLG,,
-1972922,-2735313,hydrographic,"Het Zwart Water","Het Zwart Water",variant,51.157456,5.834914,BE-VLG,,
-1973022,-2752656,spot,Woutershof,Woutershof,official,51.033333,5.316667,BE-VLG,,
-1972504,-2751917,settlement,Waugenée,Waugenee,official,50.5745,4.158756,BE-WAL,,
-1973034,-2752674,hydrographic,Wullebeek,Wullebeek,official,51.115085,4.313502,BE-VLG,,
-1972604,-2752066,administrative_region,Wépion,Wepion,official,50.433333,4.866667,BE-WAL,,
-1972567,-2752017,settlement,Weigersberg,Weigersberg,official,51.016667,5.283333,BE-VLG,,
-1973263,-2753032,settlement,Zogge,Zogge,official,51.075364,4.091645,BE-VLG,,
-1972718,-2752114,administrative_region,Wesenbeck,Wesenbeck,variant,50.842852,4.492038,BE-VLG,,
-1972535,-2751963,vegetation,Webergbos,Webergbos,variant,50.836584,4.595097,BE-VLG,,
-1973361,-2733763,hydrographic,"Grote Beek","Grote Beek",variant,51.033333,4.533333,BE-VLG,,
-1972764,-2752210,settlement,Weyer,Weyer,variant,50.898628,5.224464,BE-VLG,,
-1973247,-2752998,settlement,Zingem,Zingem,official,50.904086,3.653046,BE-VLG,,
-1972513,-2751933,administrative_region,Wavre,Wavre,official,50.71925,4.59262,BE-WAL,,
-1972790,-2752332,settlement,Wijtstraat,Wijtstraat,official,51.066667,3.366667,BE-VLG,,
-1972761,-2752697,administrative_region,Wychmael,Wychmael,variant,51.133333,5.4,BE-VLG,,
-1972824,-2752376,administrative_region,Willebringen,Willebringen,official,50.816667,4.833333,BE-VLG,,
-1972578,-2752033,vegetation,Weistervenn,Weistervenn,official,50.256389,6.025278,BE-WAL,,
-1972853,-2752415,hydrographic,Wimbe,Wimbe,official,50.15,5.116667,BE-WAL,,
-1972630,-2752097,settlement,Werpin,Werpin,official,50.261201,5.485503,BE-WAL,,
-1973267,-2753037,settlement,Zomergem,Zomergem,official,51.119936,3.564956,BE-VLG,,
-1972455,-2751851,settlement,Waterbleek,Waterbleek,official,50.977048,5.534757,BE-VLG,,
-1972885,-2752490,settlement,Winxele,Winxele,variant,50.898604,4.646067,BE-VLG,,
-1973181,-2752905,settlement,Zelte,Zelte,official,51.15,2.816667,BE-VLG,,
-1972768,-2752291,settlement,Wijckhuizen,Wijckhuizen,variant,50.916667,4.533333,BE-VLG,,
-1973005,-2752628,settlement,Wondelgem,Wondelgem,official,51.087046,3.709086,BE-VLG,,
-1973336,-2753130,hydrographic,Zwalm,Zwalm,official,50.883333,3.683333,BE-VLG,,
-1972902,-2752484,settlement,Winterslag,Winterslag,official,50.974953,5.483417,BE-VLG,,
-1972821,-2752373,settlement,Willaufosse,Willaufosse,official,50.634485,3.728572,BE-WAL,,
-1972466,-2751866,settlement,Waterkant,Waterkant,official,51.169424,5.605169,BE-VLG,,
-1973088,-2752785,settlement,Zalphenscheheide,Zalphenscheheide,variant,51.254925,4.741363,BE-VLG,,
-1972468,-2751868,settlement,Waterland-Oudeman,Waterland-Oudeman,official,51.288681,3.58987,BE-VLG,,
-1972776,-2752316,vegetation,"Bois de Wijnendaale","Bois de Wijnendaale",variant,51.071339,3.045399,BE-VLG,,
-1973270,-2753040,settlement,Zomerstraat,Zomerstraat,official,51.05,3.916667,BE-VLG,,
-1972509,-2750471,settlement,Vauthter-Braine,Vauthter-Braine,variant,50.686854,4.310087,BE-WAL,,
-1972768,-2752301,settlement,Wijkhuizen,Wijkhuizen,official,50.916667,4.533333,BE-VLG,,
-1972524,-2751951,administrative_region,Wayaux,Wayaux,official,50.483333,4.466667,BE-000,1,
-1973140,-2752843,settlement,Zarrenlinde,Zarrenlinde,official,51.016667,2.95,BE-VLG,,
-1972700,-2752205,settlement,Weverstraat,Weverstraat,official,51,4.133333,BE-VLG,,
-1972717,-2752235,settlement,Wezemaal,Wezemaal,official,50.948926,4.755599,BE-VLG,,
-1973386,-2753205,hydrographic,Zwinnevaart,Zwinnevaart,official,51.3,3.3,BE-VLG,,
-1972471,-2751872,settlement,Waterloos,Waterloos,official,51.095854,5.671225,BE-VLG,,
-1972535,-2751970,vegetation,Weebergbos,Weebergbos,official,50.836584,4.595097,BE-VLG,,
-1972421,-2751543,administrative_region,Waasten,Waasten,variant,50.751816,2.938082,BE-000,1,
-1973285,-2753058,settlement,Zoot,Zoot,official,50.983333,4.916667,BE-VLG,,
-1973292,-2739073,administrative_region,Léau,Leau,variant,50.835408,5.102495,BE-VLG,,
-1973289,-2753023,administrative_region,Zoetenaey,Zoetenaey,variant,51.05,2.75,BE-VLG,,
-1973025,-2751927,settlement,Wauwerdries,Wauwerdries,variant,50.9,4.85,BE-VLG,,
-1972696,-2752201,settlement,Wevelghem,Wevelghem,variant,50.8,3.166667,BE-VLG,,
-1973208,-2752948,spot,Zevenbergsehof,Zevenbergsehof,official,51.143958,4.534124,BE-VLG,,
-1973006,-2752630,administrative_region,Wontergem,Wontergem,official,50.983333,3.433333,BE-VLG,,
-1972777,-2752314,settlement,Wijnendaale,Wijnendaale,variant,50.976365,3.11511,BE-VLG,,
-1973009,-2752635,settlement,Wooz,Wooz,official,50.633333,5.9,BE-WAL,,
-1972467,-2751867,administrative_region,Waterland-Oudeman,Waterland-Oudeman,official,51.283333,3.583333,BE-VLG,,
-1973232,-2747978,administrative_region,Sichen,Sichen,variant,50.8,5.616667,BE-VLG,,
-1973174,-2752894,spot,"Château de Zellaer","Chateau de Zellaer",variant,51.033333,4.544338,BE-VLG,,
-1973357,-2753161,settlement,Zwartenheuvel,Zwartenheuvel,official,51.383333,4.45,BE-VLG,,
-1972827,-2752382,settlement,Willebroek,Willebroek,official,51.060409,4.360193,BE-VLG,,
-1972966,-2752571,spot,Wolfputhof,Wolfputhof,variant,50.833333,4.05,BE-VLG,,
-1973322,-2749182,settlement,Suerbempde,Suerbempde,variant,50.873915,4.973154,BE-VLG,,
-1972865,-2738724,hydrographic,"Lange Kromme","Lange Kromme",variant,51.15,3.833333,BE-VLG,,
-1973286,-2753059,spot,Zorgvliet,Zorgvliet,official,51.169185,4.353309,BE-VLG,,
-1973434,-2740763,hydrographic,"Kanaal van Maastricht naar Luik","Kanaal van Maastricht naar Luik",variant,50.8,5.7,BE-000,,
-1972996,-2752616,administrative_region,Wolvertem,Wolvertem,official,50.983333,4.3,BE-VLG,,
-1972488,-2751896,administrative_region,Watervliet,Watervliet,official,51.283333,3.616667,BE-VLG,,
-1972602,-2752061,hydrographic,"Wenduine Bank","Wenduine Bank",official,51.303801,2.944124,BE-000,,
-1972896,-2752478,hydrographic,Winterbeek,Winterbeek,official,51.060373,5.159536,BE-VLG,,
-1972716,-2752234,administrative_region,Wezemaal,Wezemaal,official,50.95,4.766667,BE-VLG,,
-1972571,-2752022,vegetation,"Bois de Weillen","Bois de Weillen",official,50.254843,4.817403,BE-WAL,,
-1972778,-2752318,settlement,Wijnendale,Wijnendale,official,51.092256,3.066025,BE-VLG,,
-1973026,-2751928,settlement,Wauweringen,Wauweringen,variant,50.735531,4.286344,BE-VLG,,
-1973373,-2753184,spot,Zwartwaterhoeve,Zwartwaterhoeve,official,51.14448,4.708852,BE-VLG,,
-1973042,-2752688,administrative_region,Wulveringhem,Wulveringhem,variant,51.016667,2.633333,BE-VLG,,
-1973118,-2752816,settlement,Zandlooper,Zandlooper,variant,51.248685,4.147602,BE-VLG,,
-1973345,-2753142,settlement,Zwartberg-Cités,Zwartberg-Cites,variant,51.012876,5.51796,BE-VLG,,
-1973343,-2753138,settlement,Zwaneven,Zwaneven,official,51.307741,5.010902,BE-VLG,,
-1972437,-2751830,settlement,Wasmes,Wasmes,official,50.55,3.533333,BE-WAL,,
-1973334,-2753124,settlement,Zwaantjes,Zwaantjes,official,51.183333,4.368585,BE-VLG,,
-1972790,-2750877,settlement,Vijtstraat,Vijtstraat,variant,51.066667,3.366667,BE-VLG,,
-1973349,-2724824,hydrographic,Agatbeek,Agatbeek,variant,51.083333,4.383333,BE-VLG,,
-1972942,-2752536,hydrographic,Wittemoerwatergang,Wittemoerwatergang,official,51.189678,3.413092,BE-VLG,,
-1972788,-2752718,administrative_region,Wytschaete,Wytschaete,variant,50.783333,2.866667,BE-VLG,,
-1973105,-2747252,settlement,Santbergen,Santbergen,variant,50.802785,3.966358,BE-VLG,,
-1972663,-2752156,administrative_region,Westkapelle,Westkapelle,official,51.316667,3.3,BE-VLG,,
-1973325,-2753114,settlement,Zwaan,Zwaan,official,51.207253,3.331664,BE-VLG,,
-1972862,-2752426,settlement,Windbergen,Windbergen,official,50.845351,4.632975,BE-VLG,,
-1973312,-2753091,administrative_region,Zulte,Zulte,official,50.932105,3.472947,BE-VLG,,
-1973472,-2751676,spot,Wallonia,Wallonia,variant,50.266667,4.916667,BE-WAL,,
-1972888,-2752468,settlement,Wintboom,Wintboom,official,50.740863,5.206959,BE-VLG,,
-1973069,-2752751,hydrographic,Yerno,Yerno,variant,50.720595,5.344851,BE-WAL,,
-1973138,-2752841,settlement,Zarren,Zarren,official,51.018437,2.958141,BE-VLG,,
-1972628,-2752093,settlement,Werm,Werm,official,50.833183,5.479299,BE-VLG,,
-1972838,-2752394,administrative_region,Willerzie,Willerzie,official,49.983333,4.833333,BE-WAL,,
-1973064,-2752740,settlement,Xhout-si-Plout,Xhout-si-Plout,official,50.298102,5.727311,BE-WAL,,
-1973225,-2752876,settlement,Zeevergem,Zeevergem,variant,50.97931,3.693192,BE-VLG,,
-1973181,-2730365,settlement,"De Zelte","De Zelte",variant,51.15,2.816667,BE-VLG,,
-1973167,-2752884,settlement,Zeldonckhoek,Zeldonckhoek,variant,51.133333,3.366667,BE-VLG,,
-1973143,-2752847,settlement,Zavelberg,Zavelberg,official,50.766091,4.031432,BE-VLG,,
-1973135,-2747261,administrative_region,Sarlardinge,Sarlardinge,variant,50.766667,3.816667,BE-VLG,,
-1972507,-2751921,settlement,Waulsort,Waulsort,official,50.203554,4.861932,BE-WAL,,
-1973239,-2752990,administrative_region,Zillebeke,Zillebeke,official,50.833333,2.916667,BE-VLG,,
-1972447,-2751842,settlement,Wassen,Wassen,official,50.944082,3.706615,BE-VLG,,
-1973204,-2752931,settlement,Zevecote,Zevecote,variant,51.137722,2.920561,BE-VLG,,
-1972778,-2752706,settlement,Wynendael,Wynendael,variant,51.092256,3.066025,BE-VLG,,
-1972707,-2751956,vegetation,"Haie du Wé","Haie du We",variant,49.933333,5.216667,BE-WAL,,
-1972915,-2752506,settlement,Wisenbach,Wisenbach,variant,49.843775,5.706147,BE-WAL,,
-1972499,-2751908,administrative_region,Wattripont,Wattripont,official,50.716667,3.55,BE-WAL,,
-1973043,-2752687,settlement,Wulveringem,Wulveringem,official,51.014883,2.654534,BE-VLG,,
-1972997,-2752618,settlement,Wolverthem,Wolverthem,variant,50.953553,4.307867,BE-VLG,,
-1973276,-2738407,settlement,"Lage Zon","Lage Zon",variant,51.247587,3.563539,BE-VLG,,
-1972526,-2751954,administrative_region,Ways,Ways,official,50.616667,4.45,BE-WAL,,
-1973219,-2752965,settlement,Zevenster,Zevenster,variant,51.209086,4.123785,BE-VLG,,
-1972877,-2752445,settlement,Winkel,Winkel,official,51.270209,4.947657,BE-VLG,,
-1972664,-2752131,settlement,Westcappelle,Westcappelle,variant,51.31511,3.301699,BE-VLG,,
-1973026,-2751916,settlement,Waueringhen,Waueringhen,variant,50.735531,4.286344,BE-VLG,,
-1972879,-2752449,settlement,Winkelendries,Winkelendries,official,50.8,3.55,BE-VLG,,
-1973260,-2753029,settlement,Zoetendaele,Zoetendaele,variant,51.23521,3.400447,BE-VLG,,
-1972489,-2751897,settlement,Watervliet,Watervliet,official,51.274939,3.625979,BE-VLG,,
-1973226,-2752975,hydrographic,Zeyb,Zeyb,official,50.766667,5.083333,BE-VLG,,
-1972569,-2752020,administrative_region,Weillen,Weillen,official,50.266667,4.816667,BE-WAL,,
-1973154,-2752861,settlement,Zedelghem,Zedelghem,variant,51.142355,3.136801,BE-VLG,,
-1972766,-2752702,settlement,Wygmael,Wygmael,variant,50.926608,4.705456,BE-VLG,,
-1973163,-2752879,hydrographic,Zegelaerbeek,Zegelaerbeek,variant,50.816667,3.783333,BE-VLG,,
-1973188,-2752913,settlement,Zemst,Zemst,official,50.983523,4.461338,BE-VLG,,
-1972998,-2752619,administrative_region,Wommelgem,Wommelgem,official,51.205205,4.520214,BE-VLG,,
-1972924,-2752514,settlement,Witgoor,Witgoor,official,51.233333,5.133333,BE-VLG,,
-1973329,-2753118,spot,Zwaanhof,Zwaanhof,official,50.866667,4.266667,BE-VLG,,
-1972520,-2751947,hydrographic,Waya,Waya,official,50.383333,3.916667,BE-WAL,,
-1972682,-2752183,settlement,Westrozebeke,Westrozebeke,official,50.931775,3.010013,BE-VLG,,
-1972508,-2751923,administrative_region,Wauthier-Braine,Wauthier-Braine,official,50.683333,4.3,BE-WAL,,
-1973383,-2753196,settlement,Zwijndrecht,Zwijndrecht,official,51.216236,4.332182,BE-VLG,,
-1972695,-2752198,administrative_region,Wevelgem,Wevelgem,official,50.832462,3.171775,BE-VLG,,
-1972642,-2752124,settlement,Wesselbend,Wesselbend,official,50.716667,6.1,BE-WAL,,
-1973457,-3140539,hydrographic,"Kanaal Brugge-Oostende","Kanaal Brugge-Oostende",official,51.233333,2.933333,BE-VLG,,
-1973169,-2752888,settlement,Zele,Zele,official,51.065661,4.040296,BE-VLG,,
-1972793,-2752336,settlement,Wijvenheide,Wijvenheide,official,50.986852,5.313826,BE-VLG,,
-1973008,-2752632,settlement,Woo,Woo,official,50.733333,4.533333,BE-WAL,,
-1973069,-2752747,hydrographic,Yerne,Yerne,official,50.720595,5.344851,BE-WAL,,
-1972761,-2752289,administrative_region,Wijchmaal,Wijchmaal,official,51.133333,5.4,BE-VLG,,
-1972566,-2752016,hydrographic,Weierkenbeek,Weierkenbeek,official,50.85,5.6,BE-VLG,,
-1972732,-2752255,administrative_region,Widoye,Widoye,variant,50.766667,5.4,BE-VLG,,
-1973258,-2753020,settlement,Zoersel,Zoersel,official,51.267738,4.709209,BE-VLG,,
-1972868,-2752432,settlement,Windmoleken,Windmoleken,variant,50.746928,4.222428,BE-VLG,,
-1972898,-2752480,settlement,Winterkeer,Winterkeer,official,50.740124,3.967531,BE-VLG,,
-1973287,-2753060,administrative_region,Zottegem,Zottegem,official,50.866215,3.808967,BE-VLG,,
-1973046,-2752666,settlement,Wuestwezel,Wuestwezel,variant,51.391581,4.597794,BE-VLG,,
-1973257,-2753019,administrative_region,Zoersel,Zoersel,official,51.259693,4.671077,BE-VLG,,
-1972894,-2726403,hydrographic,Berkenboschbeek,Berkenboschbeek,variant,51.016667,5.266667,BE-VLG,,
-1972820,-2752372,vegetation,"Bois de Willancourt","Bois de Willancourt",official,49.594619,5.69426,BE-WAL,,
-1973026,-2751926,settlement,Wauveringen,Wauveringen,variant,50.735531,4.286344,BE-VLG,,
-1973164,-2752880,administrative_region,Zegelsem,Zegelsem,official,50.816667,3.716667,BE-VLG,,
-1973269,-2753039,spot,Zomerloos,Zomerloos,official,51.166667,2.95,BE-VLG,,
-1973109,-2752806,settlement,"Zandeke Molen","Zandeke Molen",official,51.05,2.7,BE-VLG,,
-1973250,-2753004,settlement,Zittaart,Zittaart,official,51.120063,5.052095,BE-VLG,,
-1973134,-2752836,hydrographic,Zarenvijver,Zarenvijver,official,51,5.266667,BE-VLG,,
-1972842,-2752401,settlement,Wilmarsdonk,Wilmarsdonk,official,51.283333,4.366667,BE-VLG,,
-1973311,-2753111,settlement,Zuyenkerke,Zuyenkerke,variant,51.26511,3.155058,BE-VLG,,
-1972814,-2752363,settlement,Wildert,Wildert,official,51.425532,4.465644,BE-VLG,,
-1972872,-2752442,hydrographic,Winghebeek,Winghebeek,variant,50.910701,4.866034,BE-VLG,,
-1973208,-2752949,spot,Zevenbergshof,Zevenbergshof,variant,51.143958,4.534124,BE-VLG,,
-1972594,-2752049,settlement,Wellingstraat,Wellingstraat,official,51.133333,3.333333,BE-VLG,,
-1973184,-2747852,settlement,Selzaet,Selzaet,variant,51.189633,3.80777,BE-VLG,,
-1972530,-2751964,administrative_region,Wechelderzande,Wechelderzande,official,51.266667,4.766667,BE-VLG,,
-1972759,-2752286,administrative_region,Wihogne,Wihogne,official,50.733333,5.5,BE-WAL,,
-1972713,-2752230,settlement,Wezelhoek,Wezelhoek,official,50.8,3.15,BE-VLG,,
-1973434,-2740657,hydrographic,"Kanaal Luik-Maastricht","Kanaal Luik-Maastricht",variant,50.8,5.7,BE-000,,
-1972544,-2751987,administrative_region,Weert,Weert,official,51.1,4.183333,BE-VLG,,
-1972607,-2752069,settlement,Werbeek,Werbeek,official,51.258093,5.099518,BE-VLG,,
-1972470,-2751870,settlement,Waterloo,Waterloo,official,50.713504,4.391466,BE-WAL,,
-1972766,-2752299,settlement,Wijgmaal,Wijgmaal,official,50.926608,4.705456,BE-VLG,,
-1973184,-2747854,settlement,Selzaete,Selzaete,variant,51.189633,3.80777,BE-VLG,,
-1973049,-2752723,settlement,Xaimont,Xaimont,official,49.805634,5.540775,BE-WAL,,
-1972450,-2751845,spot,"Ferme de l’Wastez","Ferme de l'Wastez",official,50.616667,4.483333,BE-WAL,,
-1973089,-2752781,settlement,Zallaeken,Zallaeken,variant,50.974251,4.770937,BE-VLG,,
-1972562,-2752009,settlement,Weidig,Weidig,official,50.186687,6.151318,BE-WAL,,
-1972800,-2752346,hydrographic,Wildebeek,Wildebeek,official,50.9,4.05,BE-VLG,,
-1972573,-2752025,spot,"Kasteel van Weininks","Kasteel van Weininks",official,51.15,4.483333,BE-VLG,,
-1973191,-2752917,settlement,Zepperen,Zepperen,official,50.821762,5.247531,BE-VLG,,
-1972624,-2752075,settlement,Wercken,Wercken,variant,51.029404,2.964478,BE-VLG,,
-1972650,-2752139,settlement,Westende-Baden,Westende-Baden,variant,51.15961,2.768704,BE-VLG,,
-1973106,-2752803,administrative_region,Zande,Zande,official,51.116667,2.916667,BE-VLG,,
-1972791,-2752333,hypsographic,"Wijtvliet Polder","Wijtvliet Polder",official,51.266667,4.316667,BE-VLG,,
-1973139,-2752842,hydrographic,Zarrenbeek,Zarrenbeek,official,51.034506,2.928016,BE-VLG,,
-1972967,-2752568,hydrographic,Wolfputbeek,Wolfputbeek,official,50.831287,4.049434,BE-VLG,,
-1972681,-2752182,administrative_region,Westrozebeke,Westrozebeke,official,50.933333,3.016667,BE-VLG,,
-1973125,-2752826,settlement,Zandvliet,Zandvliet,official,51.357748,4.312947,BE-VLG,,
-1973296,-2753071,hydrographic,Zuenbeek,Zuenbeek,official,50.8,4.283333,BE-VLG,,
-1972525,-2751952,settlement,Wayaux,Wayaux,official,50.489818,4.473253,BE-WAL,,
-1972929,-2752521,spot,Withof,Withof,official,51.216667,4.533333,BE-VLG,,
-1973014,-2752643,settlement,Wortel,Wortel,official,51.398274,4.794605,BE-VLG,,
-1972833,-2752388,hydrographic,Willemdok,Willemdok,official,51.233333,4.4,BE-VLG,,
-1972836,-2752392,settlement,Willendries,Willendries,official,50.998159,4.530404,BE-VLG,,
-1973117,-2752815,settlement,Zandkapel,Zandkapel,official,51.125552,4.831801,BE-VLG,,
-1972837,-2752393,settlement,Willeries,Willeries,official,50.65,3.516667,BE-WAL,,
-1973177,-2752900,administrative_region,Zellik,Zellik,official,50.883333,4.266667,BE-VLG,,
-1973379,-2753191,administrative_region,Zwijnaarde,Zwijnaarde,official,51,3.7,BE-VLG,,
-1972844,-2752407,administrative_region,Wilryck,Wilryck,variant,51.166667,4.4,BE-VLG,,
-1973144,-2752848,settlement,Zavelberg,Zavelberg,official,50.798939,5.449218,BE-VLG,,
-1972416,-2751805,administrative_region,Warnant,Warnant,official,50.333333,4.816667,BE-WAL,,
-1972751,-2752278,administrative_region,Wiesme,Wiesme,official,50.15,4.983333,BE-WAL,,
-1972722,-2752242,administrative_region,Wez-Velvain,Wez-Velvain,official,50.55,3.383333,BE-WAL,,
-1972986,14121372,administrative_region,"Commune de Woluwe-Saint-Pierre","Commune de Woluwe-Saint-Pierre",official,50.829341,4.44105,BE-BRU,,
-1972858,-2752421,spot,Wimphoeve,Wimphoeve,official,51.116667,4.966667,BE-VLG,,
-1972511,-2751935,settlement,Wavre,Wavre,variant,50.939522,4.099304,BE-VLG,,
-1972517,-2751938,administrative_region,Wavreille,Wavreille,official,50.116667,5.233333,BE-WAL,,
-1972956,-2752552,administrative_region,Wodecq,Wodecq,official,50.716667,3.75,BE-WAL,,
-1972766,-2751483,settlement,Vygmael,Vygmael,variant,50.926608,4.705456,BE-VLG,,
-1973074,-2752763,administrative_region,Yves-Gomezée,Yves-Gomezee,official,50.233333,4.483333,BE-WAL,,
-1972737,-2752261,settlement,Wieleloup,Wieleloup,official,50.183333,4.416667,BE-WAL,,
-1972871,-2752436,settlement,Winenne,Winenne,official,50.098631,4.898036,BE-WAL,,
-1972743,-2752269,hydrographic,Wiemerbeek,Wiemerbeek,official,50.966667,5.716667,BE-VLG,,
-1973084,-2752776,settlement,Zakstraat,Zakstraat,official,50.966667,4.033333,BE-VLG,,
-1972460,-2751858,settlement,Waterhoek,Waterhoek,official,50.951062,2.786094,BE-VLG,,
-1973367,-2753175,hydrographic,Zwartwater,Zwartwater,official,51.356121,5.021025,BE-VLG,,
-1972481,-2751887,spot,Waterpachthoeve,Waterpachthoeve,official,50.883333,3.15,BE-VLG,,
-1972882,-2752453,settlement,Winkelom,Winkelom,official,51.15,4.983333,BE-VLG,,
-1972575,-2752220,hypsographic,"Weyrkensche Bergen","Weyrkensche Bergen",variant,51.229604,5.274214,BE-VLG,,
-1972869,-2752434,settlement,Winée,Winee,official,50.564074,4.92353,BE-WAL,,
-1972931,-2752525,spot,Withol,Withol,variant,51.233333,4.483333,BE-VLG,,
-1972565,-2752015,settlement,Weierbrug,Weierbrug,official,51.15,5.35,BE-VLG,,
-1972480,-2751886,settlement,Watermolenstraat,Watermolenstraat,official,50.8,3.85,BE-VLG,,
-1972685,11128065,administrative_region,"Flandre Occidentale","Flandre Occidentale",variant,51,3,BE-VLG,,
-1973103,-2747251,administrative_region,Santbergen,Santbergen,variant,50.8,3.95,BE-VLG,,
-1972980,-2752591,settlement,Wolkrange,Wolkrange,official,49.628823,5.79877,BE-WAL,,
-1973340,-2753134,hydrographic,Zwanebeek,Zwanebeek,official,51.233333,4.533333,BE-VLG,,
-1972443,-2751837,settlement,Wassegem,Wassegem,official,50.8,3.833333,BE-VLG,,
-1972600,-2752062,administrative_region,Wenduyne,Wenduyne,variant,51.3,3.066667,BE-VLG,,
-1972459,-2751850,settlement,Watehanendries,Watehanendries,variant,50.75,4.016667,BE-VLG,,
-1973165,-2752881,settlement,Zegelsem,Zegelsem,official,50.818911,3.71775,BE-VLG,,
-1972703,-2751957,settlement,Weaux,Weaux,variant,50.571672,3.538248,BE-WAL,,
-1973236,-2752987,hydrographic,Ziepbeek,Ziepbeek,official,50.954505,5.731093,BE-VLG,,
-1973399,-3140538,hydrographic,"Kanaal Gent-Brugge","Kanaal Gent-Brugge",official,51.05,3.716667,BE-VLG,,
-1972876,-2752461,settlement,Winket,Winket,variant,50.833333,3.916667,BE-VLG,,
-1973080,-2752771,settlement,Zachheide,Zachheide,variant,51.05,4.666667,BE-VLG,,
-1973366,-2752587,hydrographic,Wolfsven,Wolfsven,variant,51.3,5.5,BE-VLG,,
-1972683,-2752184,settlement,Weststraat,Weststraat,official,51.152264,3.585853,BE-VLG,,
-1973093,-2752789,settlement,Zand,Zand,official,50.897256,5.070035,BE-VLG,,
-1972415,-2751804,settlement,Warnach,Warnach,official,49.865659,5.727093,BE-WAL,,
-1973170,-2738550,hydrographic,Lakerenbeek,Lakerenbeek,variant,51.093037,4.033874,BE-VLG,,
-1973376,-2749252,administrative_region,Swevezeele,Swevezeele,variant,51.033333,3.2,BE-VLG,,
-1972576,-2752031,settlement,Weissenbrück,Weissenbruck,official,50.335,6.163056,BE-WAL,,
-1972909,-2744076,settlement,"Ouden Wippendries","Ouden Wippendries",variant,50.968951,4.501586,BE-VLG,,
-1972564,-2752213,hydrographic,Weyerbeek,Weyerbeek,variant,50.924247,5.227668,BE-VLG,,
-1972829,-2752384,hypsographic,Willekensberg,Willekensberg,official,50.984128,5.165728,BE-VLG,,
-1973083,-2724994,hydrographic,"Ancien Canal de Saffelaere","Ancien Canal de Saffelaere",variant,51.15,3.85,BE-VLG,,
-1972804,-2752353,settlement,Wildendriesch,Wildendriesch,variant,50.85,3.95,BE-VLG,,
-1972556,-2752002,hydrographic,Wehagenschebeek,Wehagenschebeek,variant,51.407013,4.651834,BE-VLG,,
-1972614,-2752078,settlement,Werihai,Werihai,variant,50.36254,5.949576,BE-WAL,,
-1972598,-2752056,administrative_region,Wemmel,Wemmel,official,50.90867,4.309858,BE-VLG,,
-1972802,-2752260,spot,Wieldehof,Wieldehof,variant,51.116667,4.45,BE-VLG,,
-1972973,-2752563,settlement,Wolfhagenstraat,Wolfhagenstraat,variant,50.793973,4.626101,BE-VLG,,
-1973072,-2752754,hydrographic,Yperleed,Yperleed,official,51.166667,2.833333,BE-VLG,,
-1972599,-2752057,settlement,Wemmel,Wemmel,official,50.916667,4.3,BE-VLG,,
-1973091,-2752787,settlement,Zammelen,Zammelen,official,50.81401,5.406772,BE-VLG,,
-1972476,-2751882,settlement,Watermaal-Bosvoorde,Watermaal-Bosvoorde,official,50.8,4.4,BE-BRU,,
-1973349,-2753148,hydrographic,Zwartebeek,Zwartebeek,official,51.083333,4.383333,BE-VLG,,
-1972715,-2752233,settlement,Wezelseheide,Wezelseheide,official,51.05,4.933333,BE-VLG,,
-1973152,-2747373,settlement,Saventhem,Saventhem,variant,50.884766,4.469973,BE-VLG,,
-1973249,-2753003,settlement,Zittaard,Zittaard,official,50.944798,5.107419,BE-VLG,,
-1972661,-2752154,settlement,Westhoek,Westhoek,official,51.199072,3.929819,BE-VLG,,
-1972796,-2752341,settlement,Wilbeauroux,Wilbeauroux,official,50.448708,4.389108,BE-WAL,,
-1973328,-2753117,settlement,Zwaanhoek,Zwaanhoek,official,51.017131,3.785963,BE-VLG,,
-1973043,-2752689,settlement,Wulveringhem,Wulveringhem,variant,51.014883,2.654534,BE-VLG,,
-1972533,-2751967,settlement,Wedden,Wedden,official,50.428216,6.158778,BE-WAL,,
-1972883,-2752454,settlement,Winkelomheide,Winkelomheide,official,51.149736,4.998689,BE-VLG,,
-1973113,-2752810,settlement,Zandhoeven,Zandhoeven,official,51.133333,4.833333,BE-VLG,,
-1973068,-2752746,settlement,Yernawe,Yernawe,official,50.59203,5.341479,BE-WAL,,
-1972498,-2751907,settlement,Wattines,Wattines,official,50.618723,3.684584,BE-WAL,,
-1972681,-2752180,administrative_region,Westroozebeke,Westroozebeke,variant,50.933333,3.016667,BE-VLG,,
-1973204,-2752940,settlement,Zevekote,Zevekote,official,51.137722,2.920561,BE-VLG,,
-1972428,-2751820,settlement,Warre,Warre,official,50.36492,5.46505,BE-WAL,,
-1972802,-2752348,spot,Wildehoef,Wildehoef,variant,51.116667,4.45,BE-VLG,,
-1973381,-2753193,settlement,Zwijnaardsedries,Zwijnaardsedries,official,51.020278,3.724281,BE-VLG,,
-1973344,-2753139,settlement,Zwankendamme,Zwankendamme,official,51.309801,3.196107,BE-VLG,,
-1973057,-2752732,settlement,Xhierfomont,Xhierfomont,official,50.405814,5.777273,BE-WAL,,
-1973365,-2753171,settlement,Zwartpaard,Zwartpaard,official,51.016667,2.666667,BE-VLG,,
-1972608,-2752070,administrative_region,Werbomont,Werbomont,official,50.383333,5.683333,BE-WAL,,
-1973128,-2752829,settlement,Zandvoorde,Zandvoorde,official,50.81303,2.981363,BE-VLG,,
-1972561,-2752701,settlement,Wydendreft,Wydendreft,variant,50.916667,2.9,BE-VLG,,
-1972844,-2752406,administrative_region,Wilrych,Wilrych,variant,51.166667,4.4,BE-VLG,,
-1973021,-2752647,settlement,Woud,Woud,variant,51.14379,4.835046,BE-VLG,,
-1972765,-2752294,spot,"Kasteel van Wijer","Kasteel van Wijer",official,50.85,5.5,BE-VLG,,
-1973087,-2752779,hydrographic,Zalfensebeek,Zalfensebeek,official,51.258744,4.734404,BE-VLG,,
-1973168,-2752887,administrative_region,Zele,Zele,official,51.067006,4.034922,BE-VLG,,
-1972601,-2752060,settlement,Wenduine,Wenduine,official,51.298301,3.082129,BE-VLG,,
-1972867,-2752431,spot,Windhalmhof,Windhalmhof,official,50.919824,5.309787,BE-VLG,,
-1972510,-2751925,settlement,Wautiénaut,Wautienaut,official,49.783333,5.366667,BE-WAL,,
-1972475,-2751880,administrative_region,Watermaal-Bosvoorde,Watermaal-Bosvoorde,official,50.795174,4.422955,BE-BRU,,
-1973130,-2752831,settlement,Zandvoordebrug,Zandvoordebrug,official,51.189775,2.99473,BE-VLG,,
-1972973,-2752580,settlement,Wolfshagenstraat,Wolfshagenstraat,variant,50.793973,4.626101,BE-VLG,,
-1973056,-2752731,settlement,Xhénorie,Xhenorie,official,50.633333,5.883333,BE-WAL,,
-1973322,-2749181,settlement,Suerbemde,Suerbemde,variant,50.873915,4.973154,BE-VLG,,
-1972555,-2752001,settlement,Wehagen,Wehagen,official,51.383333,4.65,BE-VLG,,
-1972451,-2751846,spot,Wastinelle,Wastinelle,official,50.655095,3.928444,BE-WAL,,
-1972984,14121377,administrative_region,"Gemeente Sint-Lambrechts-Woluwe","Gemeente Sint-Lambrechts-Woluwe",official,50.848926,4.430938,BE-BRU,,
-1973171,-2752890,administrative_region,Zelem,Zelem,official,50.983333,5.1,BE-VLG,,
-1972674,-2752170,settlement,Westoutre,Westoutre,variant,50.797216,2.746467,BE-VLG,,
-1972995,-2752614,settlement,Wolvenstraat,Wolvenstraat,official,50.883333,3.883333,BE-VLG,,
-1972475,14121357,administrative_region,"Gemeente Watermaal-Bosvoorde","Gemeente Watermaal-Bosvoorde",official,50.795174,4.422955,BE-BRU,,
-1973065,-2752742,settlement,Xhovémont,Xhovemont,official,50.65404,5.556886,BE-WAL,,
-1972913,-2752502,hydrographic,Wisbecq,Wisbecq,official,50.698771,4.151152,BE-WAL,,
-1973152,-2752857,settlement,Zaventem,Zaventem,official,50.884766,4.469973,BE-VLG,,
-1973059,-2752734,settlement,Xhoffraix,Xhoffraix,official,50.459126,6.07165,BE-WAL,,
-1972973,-2752578,settlement,Wolfshaegen,Wolfshaegen,variant,50.793973,4.626101,BE-VLG,,
-1973288,-2753061,settlement,Zottegem,Zottegem,official,50.869555,3.810522,BE-VLG,,
-1972864,-2752428,settlement,Windgat,Windgat,official,50.933101,3.875751,BE-VLG,,
-1973085,-2752777,settlement,Zalesberg,Zalesberg,official,50.776849,5.364836,BE-VLG,,
-1973209,-2752950,spot,Zevenbunder,Zevenbunder,official,51.083333,4.45,BE-VLG,,
-1973067,-2752745,settlement,Ychippe,Ychippe,official,50.25089,5.123037,BE-WAL,,
-1972851,-2725853,hydrographic,"Ruisseau de Bastogne","Ruisseau de Bastogne",variant,49.95,6.016667,S1-000,,
-1972619,-2752083,spot,"Château de Werihet","Chateau de Werihet",official,50.566667,5.633333,BE-WAL,,
-1973052,-2752727,settlement,Xhendelesse,Xhendelesse,official,50.603338,5.768747,BE-WAL,,
-1973457,-2743956,hydrographic,"Canal d’Ostende à Bruges","Canal d'Ostende a Bruges",variant,51.233333,2.933333,BE-VLG,,
-1972505,-2751918,vegetation,"Bois de Wauhu","Bois de Wauhu",official,50.37642,4.12914,BE-WAL,,
-1972987,-2752603,settlement,Woluwé-Saint-Pierre,Woluwe-Saint-Pierre,official,50.83134,4.443946,BE-BRU,,
-1972682,-2752179,settlement,Westroosebeke,Westroosebeke,variant,50.931775,3.010013,BE-VLG,,
-1972718,-2752236,administrative_region,Wezembeek-Oppem,Wezembeek-Oppem,official,50.842852,4.492038,BE-VLG,,
-1973330,-2753129,settlement,Zwaenge,Zwaenge,variant,51.02866,2.64454,BE-VLG,,
-1972412,-2751801,spot,Warmhandhoeve,Warmhandhoeve,official,51.201428,4.726804,BE-VLG,,
-1972726,-2752247,vegetation,"Bois de Wibrin","Bois de Wibrin",official,50.190781,5.708387,BE-WAL,,
-1972410,-2751798,settlement,Warloche,Warloche,official,50.677255,3.668544,BE-WAL,,
-1973024,-2752659,hydrographic,"Wouwendonkse Beek","Wouwendonkse Beek",official,51.1,4.5,BE-VLG,,
-1973010,-2752637,spot,Worfthoeve,Worfthoeve,official,51.2,4.95,BE-VLG,,
-1972647,-2752133,hydrographic,Westdiep,Westdiep,official,51.163492,2.610387,BE-000,,
-1972406,-2751794,administrative_region,Warisoulx,Warisoulx,official,50.533333,4.866667,BE-WAL,,
-1973040,-2752684,administrative_region,Wulverghem,Wulverghem,variant,50.766667,2.833333,BE-VLG,,
-1972409,-2751797,settlement,Warizy,Warizy,official,50.200288,5.522049,BE-WAL,,
-1972459,-2751857,settlement,Waterhanendries,Waterhanendries,official,50.75,4.016667,BE-VLG,,
-1973189,-2752915,hydrographic,Senne,Senne,official,51.064557,4.429017,BE-VLG,,
-1973291,-2753065,settlement,Zoutkeet,Zoutkeet,official,51.316667,4.216667,BE-VLG,,
-1972794,-2752722,hydrographic,Wyzenbeek,Wyzenbeek,variant,50.741705,3.927612,BE-VLG,,
-1973353,-2753154,settlement,Zwarteleen,Zwarteleen,official,50.826375,2.928945,BE-VLG,,
-1973199,-2752943,settlement,Zevekote,Zevekote,variant,51.35,3.333333,BE-VLG,,
-1972552,-2751998,vegetation,Wegmeerheide,Wegmeerheide,official,51.4,4.966667,BE-VLG,,
-1972476,-2751877,settlement,Watermaal-Boschvoorde,Watermaal-Boschvoorde,variant,50.8,4.4,BE-BRU,,
-1972521,-2751948,settlement,Wayai,Wayai,official,50.506887,5.944628,BE-WAL,,
-1973108,-2752805,settlement,Zande,Zande,official,51.12045,2.921542,BE-VLG,,
-1972485,-2751893,settlement,Waterschoot,Waterschoot,official,51.133797,4.095358,BE-VLG,,
-1973132,-2752834,settlement,Zandzee,Zandzee,official,51.05,5.016667,BE-VLG,,
-1972828,-2752380,hydrographic,"Kanaal van Willebroeck","Kanaal van Willebroeck",variant,50.866667,4.366667,BE-000,,
-1972715,-2752108,settlement,"Weselsche Heide","Weselsche Heide",variant,51.05,4.933333,BE-VLG,,
-1972848,-2752410,settlement,Wilsele,Wilsele,official,50.894481,4.69816,BE-VLG,,
-1973175,-2752896,spot,Zellar,Zellar,official,51.033333,5.55,BE-VLG,,
-1973123,-2752823,hydrographic,"Zand Ven","Zand Ven",official,51.366667,4.933333,BE-VLG,,
-1972939,-2752533,spot,"Witte Hoeve","Witte Hoeve",official,51,5.1,BE-VLG,,
-1972545,-2751988,settlement,Weert,Weert,official,50.82908,5.536664,BE-VLG,,
-1972511,-2751931,settlement,Waver,Waver,official,50.939522,4.099304,BE-VLG,,
-1973346,-2753144,spot,"Zwarte Arend","Zwarte Arend",official,51.216667,4.483333,BE-VLG,,
-1972430,-2751985,administrative_region,Weerst,Weerst,variant,50.733333,5.766667,BE-WAL,,
-1973300,-2753076,settlement,Zuidhoek,Zuidhoek,official,50.838972,3.025124,BE-VLG,,
-1973232,-2749239,administrative_region,Sussen,Sussen,variant,50.8,5.616667,BE-VLG,,
-1973336,-2730371,hydrographic,"De Zwalm","De Zwalm",variant,50.883333,3.683333,BE-VLG,,
-1973202,-2752935,settlement,Zevekoot,Zevekoot,variant,50.933333,3.966667,BE-VLG,,
-1972654,-2752143,settlement,Westerlo,Westerlo,official,51.090486,4.915439,BE-VLG,,
-1973372,-2753182,vegetation,Zwartwaterbossen,Zwartwaterbossen,official,51.15,4.7,BE-VLG,,
-1972711,-2752107,settlement,Wesel,Wesel,variant,51.046462,4.918243,BE-VLG,,
-1973276,-2738408,settlement,"Lage Zonne","Lage Zonne",variant,51.247587,3.563539,BE-VLG,,
-1973173,-2752892,settlement,Zelk,Zelk,official,50.958358,5.08591,BE-VLG,,
-1972899,-2752481,spot,"’t Hof Winterpoel","'t Hof Winterpoel",official,51.033333,4.283333,BE-VLG,,
-1973346,-2753143,spot,"Château de Zwarte Aren","Chateau de Zwarte Aren",variant,51.216667,4.483333,BE-VLG,,
-1973305,-2753081,administrative_region,Zuidschote,Zuidschote,official,50.916667,2.833333,BE-VLG,,
-1972865,-2752429,hydrographic,Windgracht,Windgracht,official,51.15,3.833333,BE-VLG,,
-1973161,-2752873,settlement,Zeepvaartbrug,Zeepvaartbrug,variant,51.133333,3.683333,BE-VLG,,
-1973295,-2753103,settlement,Zuun,Zuun,variant,50.791628,4.277573,BE-VLG,,
-1972540,-2751977,settlement,Weelde,Weelde,official,51.415036,4.99094,BE-VLG,,
-1973175,-2752895,spot,"Château de Zellaer","Chateau de Zellaer",variant,51.033333,5.55,BE-VLG,,
-1973066,-2752743,settlement,Xhurdebise,Xhurdebise,official,50.407723,6.014949,BE-WAL,,
-1972944,-2752538,hydrographic,"Witte Nete","Witte Nete",official,51.24017,5.01164,BE-VLG,,
-1973383,-2753212,settlement,Zwyndrecht,Zwyndrecht,variant,51.216236,4.332182,BE-VLG,,
-1972894,-2752476,hydrographic,Winterbeek,Winterbeek,official,51.016667,5.266667,BE-VLG,,
-1973232,-2752983,administrative_region,Zichen-Zussen-Bolder,Zichen-Zussen-Bolder,official,50.8,5.616667,BE-VLG,,
-1973136,-2752838,settlement,Zarlardinge,Zarlardinge,official,50.762135,3.828495,BE-VLG,,
-1972430,-2751823,administrative_region,Warsage,Warsage,official,50.733333,5.766667,BE-WAL,,
-1972686,-2752187,administrative_region,Westvleteren,Westvleteren,official,50.933333,2.716667,BE-000,1,
-1972478,-2751884,hydrographic,Watermolenbeek,Watermolenbeek,official,50.805183,3.874481,BE-VLG,,
-1973130,-2752832,settlement,Zandvoordebrugge,Zandvoordebrugge,variant,51.189775,2.99473,BE-VLG,,
-1973335,-2753121,settlement,Zwaantjehoek,Zwaantjehoek,variant,50.90208,3.330336,BE-VLG,,
-1972602,-2752064,hydrographic,"Wenduyne bank","Wenduyne bank",variant,51.303801,2.944124,BE-000,,
-1973268,-2753038,settlement,Zomergemboven,Zomergemboven,official,51.112876,3.557131,BE-VLG,,
-1973306,-2753109,settlement,Zuydschoote,Zuydschoote,variant,50.915889,2.837439,BE-VLG,,
-1972560,-2751968,spot,"Hof te Wedem","Hof te Wedem",variant,50.766667,4.2,BE-VLG,,
-1972422,-2751544,settlement,Waasten,Waasten,variant,50.752619,2.948545,BE-WAL,,
-1973051,-2752726,administrative_region,Xhendelesse,Xhendelesse,official,50.6,5.766667,BE-WAL,,
-1973077,-2752766,settlement,Yvoir,Yvoir,official,50.327304,4.876215,BE-WAL,,
-1972991,-2752610,settlement,Wolvenhoek,Wolvenhoek,official,50.783333,3.966667,BE-VLG,,
-1972615,-2752079,settlement,Werihet,Werihet,official,50.55,5.2,BE-WAL,,
-1973250,-2753007,settlement,Zittaert,Zittaert,variant,51.120063,5.052095,BE-VLG,,
-1973339,-2753133,hydrographic,Zwaluwbeek,Zwaluwbeek,official,51.183333,4.333333,BE-VLG,,
-1972423,-2751813,vegetation,"Bois de Warnoumont","Bois de Warnoumont",official,50.495332,5.689079,BE-WAL,,
-1972579,-2752034,settlement,Weistraat,Weistraat,official,50.8,3.7,BE-VLG,,
-1973122,-2752822,hydrographic,Zandstraatbeke,Zandstraatbeke,variant,51.183333,3.116667,BE-VLG,,
-1973310,-2753110,administrative_region,Zuyenkerke,Zuyenkerke,variant,51.252478,3.136134,BE-VLG,,
-1972629,-2752095,spot,Wermerbosch,Wermerbosch,variant,50.866667,5.433333,BE-VLG,,
-1973294,-2752844,settlement,Zauwerstraat,Zauwerstraat,variant,51.05,3.95,BE-VLG,,
-1972787,-2752328,settlement,Wijshagen,Wijshagen,official,51.107403,5.554678,BE-VLG,,
-1973313,-2753092,settlement,Zulte,Zulte,official,50.91954,3.448586,BE-VLG,,
-1972687,-2752188,settlement,Westvleteren,Westvleteren,official,50.92744,2.716885,BE-VLG,,
-1972729,-2752250,settlement,Wicher,Wicher,official,50.049029,4.209374,BE-WAL,,
-1972958,-2752554,hydrographic,"Ruisseau de Wodecq","Ruisseau de Wodecq",official,50.716667,3.783333,BE-WAL,,
-1973325,-2753128,settlement,Zwaene,Zwaene,variant,51.207253,3.331664,BE-VLG,,
-1972806,-2752355,settlement,Wilder,Wilder,official,50.934665,4.589233,BE-VLG,,
-1973200,-2752930,administrative_region,Zevecote,Zevecote,variant,51.133333,2.9,BE-VLG,,
-1973129,-2752830,settlement,Zandvoorde,Zandvoorde,official,51.199418,2.972196,BE-VLG,,
-1972418,-2751808,administrative_region,Warnant-Dreye,Warnant-Dreye,official,50.6,5.233333,BE-WAL,,
-1973247,-2749257,settlement,Syngem,Syngem,variant,50.904086,3.653046,BE-VLG,,
-1973035,-2752675,hydrographic,Wullebosbeek,Wullebosbeek,official,51.183333,3.983333,BE-VLG,,
-1972484,-2751891,settlement,Waterscheide,Waterscheide,variant,51.002263,5.522355,BE-VLG,,
-1973386,-2753215,hydrographic,"Zwyn Vaert","Zwyn Vaert",variant,51.3,3.3,BE-VLG,,
-1973279,-2753051,settlement,Zonnebergen,Zonnebergen,official,50.783333,3.333333,BE-VLG,,
-1972502,-2751913,administrative_region,Waudrez,Waudrez,official,50.416667,4.133333,BE-WAL,,
-1972999,-2752622,settlement,Wommelghem,Wommelghem,variant,51.2,4.522278,BE-VLG,,
-1973399,-2728103,hydrographic,"Canal de Bruges à Gand","Canal de Bruges a Gand",variant,51.05,3.716667,BE-VLG,,
-1972573,-2752218,spot,Weyninckxhof,Weyninckxhof,variant,51.15,4.483333,BE-VLG,,
-1972828,-2728212,hydrographic,"Canal Maritime de Bruxelles au Rupel","Canal Maritime de Bruxelles au Rupel",variant,50.866667,4.366667,BE-000,,
-1973315,-2753095,settlement,Zurenborg,Zurenborg,official,51.2,4.433333,BE-VLG,,
-1972633,-2752101,settlement,Wervehoef,Wervehoef,variant,51.233333,4.516667,BE-VLG,,
-1973264,-2753033,administrative_region,Zolder,Zolder,official,51.016667,5.3,BE-VLG,,
-1972632,-2745436,hydrographic,Puttenbeek,Puttenbeek,variant,50.966667,4.216667,BE-VLG,,
-1972733,-2752254,settlement,Widooie,Widooie,official,50.771941,5.407765,BE-VLG,,
-1972770,-2752303,hydrographic,Wijlegemsebeek,Wijlegemsebeek,official,50.866667,3.733333,BE-VLG,,
-1973053,-2752728,administrative_region,Xhendremael,Xhendremael,official,50.7,5.483333,BE-WAL,,
-1972411,-2751799,hydrographic,Warmbeek,Warmbeek,official,51.3,5.483333,BE-VLG,,
-1972908,-2752496,settlement,Wippelghem,Wippelghem,variant,51.136988,3.722192,BE-VLG,,
-1972645,-2752127,settlement,Westbeke,Westbeke,official,51.095367,3.666593,BE-VLG,,
-1973290,-2753064,settlement,Zoutenaaie,Zoutenaaie,official,51.048181,2.754511,BE-VLG,,
-1972565,-2752296,settlement,Wijerbrug,Wijerbrug,variant,51.15,5.35,BE-VLG,,
-1973366,-2753174,hydrographic,Zwartven,Zwartven,official,51.3,5.5,BE-VLG,,
-1973372,-2753185,vegetation,"Zwart Watersche Bosschen","Zwart Watersche Bosschen",variant,51.15,4.7,BE-VLG,,
-1973384,-2753197,spot,"Fort van Zwijndrecht","Fort van Zwijndrecht",official,51.208728,4.308227,BE-VLG,,
-1972558,-2752005,vegetation,"Weid Busch","Weid Busch",official,49.64742,5.683897,BE-WAL,,
-1972685,-2752146,administrative_region,West-Flandern,West-Flandern,variant,51,3,BE-VLG,,
-1972966,-2752567,spot,Wolfput,Wolfput,official,50.833333,4.05,BE-VLG,,
-1972537,-2751973,settlement,Weegschede,Weegschede,official,50.966667,2.666667,BE-VLG,,
-1972809,-2752358,administrative_region,Wilderen,Wilderen,official,50.816667,5.133333,BE-VLG,,
-1973095,-2752791,settlement,Zand,Zand,official,51.038826,3.854234,BE-VLG,,
-1973192,-2752918,administrative_region,Zerkegem,Zerkegem,official,51.166667,3.066667,BE-VLG,,
-1972636,-2752116,settlement,Wesomont,Wesomont,official,50.366667,5.666667,BE-WAL,,
-1972818,-2752370,spot,Willambroux,Willambroux,official,50.583333,4.3,BE-WAL,,
-1972522,-2751949,hydrographic,Wayai,Wayai,official,50.483333,5.833333,BE-WAL,,
-1972906,-2752489,settlement,Winville,Winville,official,49.88314,5.631549,BE-WAL,,
-1972823,-2752375,settlement,Willaupuis,Willaupuis,official,50.56774,3.602741,BE-WAL,,
-1972711,-2752228,settlement,Wezel,Wezel,official,51.046462,4.918243,BE-VLG,,
-1973013,-2752642,administrative_region,Wortel,Wortel,official,51.4,4.783333,BE-VLG,,
-1972454,-2751849,spot,"Ferme de la Wastinne","Ferme de la Wastinne",official,50.666667,3.9,BE-WAL,,
-1972550,-2751995,hydrographic,Weeterbeek,Weeterbeek,official,51.05,5.2,BE-VLG,,
-1973157,-2752865,spot,Zeedijk,Zeedijk,official,51.333333,4.283333,BE-VLG,,
-1973225,-2747834,settlement,Seevergem,Seevergem,variant,50.97931,3.693192,BE-VLG,,
-1972786,-2752327,administrative_region,Wijshagen,Wijshagen,official,51.1,5.55,BE-VLG,,
-1972453,-2751848,settlement,Wastines,Wastines,official,50.669809,4.804575,BE-WAL,,
-1972985,-2752600,settlement,Sint-Lambrechts-Woluwe,Sint-Lambrechts-Woluwe,official,50.847804,4.428474,BE-BRU,,
-1972457,-2751855,hydrographic,Waterbroekloop,Waterbroekloop,official,51.174642,5.045559,BE-VLG,,
-1973321,-2753102,settlement,Zutendaal,Zutendaal,official,50.931676,5.572036,BE-VLG,,
-1972969,-2752572,spot,Wolfrothof,Wolfrothof,official,50.908833,4.224885,BE-VLG,,
-1973105,-2752802,settlement,Zandbergen,Zandbergen,official,50.802785,3.966358,BE-VLG,,
-1973246,-2752997,administrative_region,Zingem,Zingem,official,50.910671,3.622531,BE-VLG,,
-1973359,-2753163,settlement,"Zwarten Ruiter","Zwarten Ruiter",official,51.18782,3.974017,BE-VLG,,
-1972858,-2752422,spot,Wimphof,Wimphof,variant,51.116667,4.966667,BE-VLG,,
-1972575,-2752027,hypsographic,Weirkensebergen,Weirkensebergen,official,51.229604,5.274214,BE-VLG,,
-1972774,-2752705,settlement,Wyneghem,Wyneghem,variant,51.227866,4.518947,BE-VLG,,
-1973206,-2752942,settlement,Zevekote,Zevekote,official,51.2,3.25,BE-VLG,,
-1973224,-2752973,administrative_region,Zevergem,Zevergem,official,50.983333,3.683333,BE-VLG,,
-1973387,-2753206,spot,Zwonderbeek,Zwonderbeek,official,51.116667,4.433333,BE-VLG,,
-1972706,-2752223,settlement,"Weywertzer Heck","Weywertzer Heck",official,50.460327,6.157705,BE-WAL,,
-1973293,-2753067,settlement,Zoutleeuw,Zoutleeuw,official,50.833162,5.103757,BE-VLG,,
-1972519,-2751945,settlement,Wavreumont,Wavreumont,official,50.406287,5.972307,BE-WAL,,
-1973345,-2753141,settlement,Zwartberg,Zwartberg,official,51.012876,5.51796,BE-VLG,,
-1973190,-2752916,administrative_region,Zepperen,Zepperen,official,50.816667,5.233333,BE-VLG,,
-1972812,-2752361,spot,"Kasteel Wilderhof","Kasteel Wilderhof",official,50.843743,4.759052,BE-VLG,,
-1972866,-2752430,hydrographic,"Windhalm Beek","Windhalm Beek",official,50.916667,5.3,BE-VLG,,
-1973082,-2752774,settlement,Zaffelare,Zaffelare,official,51.133849,3.863573,BE-VLG,,
-1972890,-2752470,hydrographic,Winterbeek,Winterbeek,official,50.833333,2.7,BE-VLG,,
-1972840,-2752396,settlement,Williaupont,Williaupont,official,50.601997,4.036712,BE-WAL,,
-1972728,-2752249,settlement,Wichelen,Wichelen,official,51.005261,3.976834,BE-VLG,,
-1973259,-2753021,spot,Zoerselhof,Zoerselhof,official,51.25,4.7,BE-VLG,,
-1972705,-2752216,settlement,Weyler,Weyler,official,49.656813,5.823844,BE-WAL,,
-1973251,-2753005,settlement,Zittaart,Zittaart,official,51.220736,4.813169,BE-VLG,,
-1973223,-2752972,settlement,Zeveren,Zeveren,official,50.996434,3.499037,BE-VLG,,
-1972762,-2752698,settlement,Wychmael,Wychmael,variant,51.134581,5.420111,BE-VLG,,
-1972782,-2752323,settlement,Wijngaardberg,Wijngaardberg,official,50.991444,4.928856,BE-VLG,,
-1973189,-2752914,hydrographic,Zenne,Zenne,official,51.064557,4.429017,BE-VLG,,
-1972681,-2752178,administrative_region,Westroosebeke,Westroosebeke,variant,50.933333,3.016667,BE-VLG,,
-1973180,-2743435,hydrographic,Nylenbeek,Nylenbeek,variant,51.166667,4.7,BE-VLG,,
-1972707,-2752224,vegetation,"Haie de Wez","Haie de Wez",official,49.933333,5.216667,BE-WAL,,
-1972477,-2751883,settlement,Watermolen,Watermolen,official,50.840043,3.248858,BE-VLG,,
-1973382,-2753195,administrative_region,Zwijndrecht,Zwijndrecht,official,51.223938,4.320959,BE-VLG,,
-1972624,-2752089,settlement,Werken,Werken,official,51.029404,2.964478,BE-VLG,,
-1973376,-2753188,administrative_region,Zwevezele,Zwevezele,official,51.033333,3.2,BE-VLG,,
-1973246,-2749256,administrative_region,Syngem,Syngem,variant,50.910671,3.622531,BE-VLG,,
-1972786,-2752715,administrative_region,Wyshagen,Wyshagen,variant,51.1,5.55,BE-VLG,,
-1973271,-2753041,settlement,Zondereigen,Zondereigen,official,51.406103,4.89284,BE-VLG,,
-1973079,-2740712,hydrographic,L’Yivenne,L'Yivenne,variant,50.183333,5,BE-WAL,,
-1973262,-2753031,settlement,Zoetwater,Zoetwater,official,51.2,4.2,BE-VLG,,
-1972735,-2752258,settlement,Wiekevorst,Wiekevorst,official,51.107958,4.792399,BE-VLG,,
-1972990,-2752608,settlement,Wolvendaal,Wolvendaal,official,50.932565,4.281029,BE-VLG,,
-1973133,-2752835,spot,"Château de Zangerhei","Chateau de Zangerhei",official,50.883333,5.55,BE-VLG,,
-1972699,-2752222,settlement,Weywertz,Weywertz,variant,50.43427,6.165855,BE-WAL,,
-1972878,-2752447,settlement,Winkelderven,Winkelderven,official,51.166667,5.716667,BE-VLG,,
-1972581,-2752036,administrative_region,Welden,Welden,official,50.866667,3.65,BE-VLG,,
-1972685,-2731918,administrative_region,"Province de Flandre Occidentale","Province de Flandre Occidentale",variant,51,3,BE-VLG,,
-1973134,-2752770,hydrographic,Zaarenvijver,Zaarenvijver,variant,51,5.266667,BE-VLG,,
-1972752,-2752279,settlement,Wiesme,Wiesme,official,50.148415,4.977211,BE-WAL,,
-1973176,-2752897,settlement,Zelle,Zelle,official,51.155151,4.769808,BE-VLG,,
-1972542,-2751981,settlement,Weerde,Weerde,official,50.972884,4.478829,BE-VLG,,
-1972927,-2752518,settlement,Withimont,Withimont,official,50.047905,5.694846,BE-WAL,,
-1973151,-2752856,administrative_region,Zaventem,Zaventem,official,50.869325,4.48458,BE-VLG,,
-1973116,-2752811,settlement,Zandhoeven,Zandhoeven,variant,51.254426,4.86442,BE-VLG,,
-1973374,-2753186,administrative_region,Zwevegem,Zwevegem,official,50.782973,3.376712,BE-VLG,,
-1972482,-2751888,settlement,Waterschap,Waterschap,official,51.198929,4.665525,BE-VLG,,
-1972963,-2752562,settlement,Wolfert,Wolfert,official,50.450439,6.331893,BE-WAL,,
-1972756,-2752283,administrative_region,Wihéries,Wiheries,official,50.383333,3.75,BE-WAL,,
-1973141,-2752845,settlement,Zavel,Zavel,official,50.896648,5.410299,BE-VLG,,
-1973314,-2753094,settlement,Zulzeke,Zulzeke,official,50.791653,3.57053,BE-VLG,,
-1973379,-2753208,administrative_region,Zwynaerde,Zwynaerde,variant,51,3.7,BE-VLG,,
-1973036,-2752677,settlement,Wulmersom,Wulmersom,official,50.788865,4.961509,BE-VLG,,
-1973125,-2747255,settlement,Santvliet,Santvliet,variant,51.357748,4.312947,BE-VLG,,
-1973164,-2747836,administrative_region,Segelsem,Segelsem,variant,50.816667,3.716667,BE-VLG,,
-1973370,-2753178,hydrographic,"Zwart Water","Zwart Water",official,50.967801,5.089006,BE-VLG,,
-1973193,-2752921,settlement,Zerkeghem,Zerkeghem,variant,51.166449,3.069941,BE-VLG,,
-1972640,-2752122,settlement,Wespes,Wespes,official,50.387664,4.32989,BE-WAL,,
-1973099,-2752796,hydrographic,Zandbeek,Zandbeek,official,50.8,4.3,BE-VLG,,
-1973374,-2749250,administrative_region,Sweveghem,Sweveghem,variant,50.782973,3.376712,BE-VLG,,
-1972934,-2752527,settlement,Witry,Witry,official,49.859402,5.612788,BE-WAL,,
-1972529,-2751958,settlement,Webbecom,Webbecom,variant,50.972375,5.071797,BE-VLG,,
-1972804,-2752352,settlement,Wildendries,Wildendries,official,50.85,3.95,BE-VLG,,
-1973280,-2753053,administrative_region,Zonnegem,Zonnegem,official,50.933333,3.9,BE-VLG,,
-1972798,-2752344,settlement,Wilde,Wilde,official,51.056339,3.597425,BE-VLG,,
-1973156,-2752864,spot,Zeecrabbe,Zeecrabbe,official,50.8,4.35,BE-BRU,,
-1973142,-2752846,settlement,Zavel,Zavel,official,51.009986,4.917512,BE-VLG,,
-1973165,-2747837,settlement,Segelsem,Segelsem,variant,50.818911,3.71775,BE-VLG,,
-1972503,-2751914,settlement,Waudrez,Waudrez,official,50.414007,4.149671,BE-WAL,,
-1973369,-2753177,settlement,Zwartwater,Zwartwater,official,51.008536,5.043113,BE-VLG,,
-1973348,-2730373,hydrographic,"De Zwartwaterbeek","De Zwartwaterbeek",variant,50.983333,5.066667,BE-VLG,,
-1972968,-2752569,spot,Wolfputhoef,Wolfputhoef,variant,51.033333,4.233333,BE-VLG,,
-1973379,-2753194,administrative_region,Zwijnaerde,Zwijnaerde,variant,51,3.7,BE-VLG,,
-1972955,-2752551,settlement,Wixhou,Wixhou,official,50.703926,5.691661,BE-WAL,,
-1973083,-2752775,hydrographic,Zaffelarevaardeken,Zaffelarevaardeken,official,51.15,3.85,BE-VLG,,
-1973179,-2752902,settlement,Zelm,Zelm,official,51.2,5.083333,BE-VLG,,
-1972714,-2752231,hydrographic,Wezelscheloop,Wezelscheloop,variant,51.216667,4.533333,BE-VLG,,
-1972993,-2752612,settlement,Wolvenhoek,Wolvenhoek,official,50.866667,3.85,BE-VLG,,
-1972641,-2752123,hydrographic,"Étang Wespion","Etang Wespion",official,50.266667,5.15,BE-WAL,,
-1973293,-2739074,settlement,Léau,Leau,variant,50.833162,5.103757,BE-VLG,,
-1972632,-2752099,hydrographic,Wersbeek,Wersbeek,official,50.966667,4.216667,BE-VLG,,
-1972905,-2752488,spot,"Sluis van Wintham","Sluis van Wintham",official,51.1,4.316667,BE-VLG,,
-1973003,-2752626,settlement,Wonck,Wonck,official,50.766865,5.622503,BE-WAL,,
-1972773,-2752308,administrative_region,Wijnegem,Wijnegem,official,51.229686,4.517021,BE-VLG,,
-1972887,-2752467,settlement,Winner,Winner,official,51.165578,5.392793,BE-VLG,,
-1972656,-2752149,settlement,Westhoek,Westhoek,official,50.85,2.95,BE-VLG,,
-1972747,-2752273,administrative_region,Wiers,Wiers,official,50.5,3.533333,BE-WAL,,
-1973338,-2753132,settlement,Zwalmstraat,Zwalmstraat,official,50.783333,3.716667,BE-VLG,,
-1973116,-2752814,settlement,"Zandhoven Heide","Zandhoven Heide",official,51.254426,4.86442,BE-VLG,,
-1973324,-2753126,settlement,Zwaen,Zwaen,variant,50.731065,5.825513,BE-VLG,,
-1973323,-2753106,settlement,Zuuressen,Zuuressen,official,51,4.55,BE-VLG,,
-1972413,-2751802,settlement,Warmifontaine,Warmifontaine,official,49.829847,5.390494,BE-WAL,,
-1973255,-2753017,administrative_region,Zoerle-Parwys,Zoerle-Parwys,variant,51.083333,4.866667,BE-VLG,,
-1973314,-2749190,settlement,Sulsique,Sulsique,variant,50.791653,3.57053,BE-VLG,,
-1973086,-2752778,settlement,Zalfen,Zalfen,official,51.275492,4.741512,BE-VLG,,
-1973232,-2747980,administrative_region,Sichen-Sussen-et-Bolré,Sichen-Sussen-et-Bolre,variant,50.8,5.616667,BE-VLG,,
-1972720,-2752238,settlement,Wezepoel,Wezepoel,official,51.066977,4.024172,BE-VLG,,
-1972873,-2752438,administrative_region,Wingene,Wingene,official,51.056791,3.252592,BE-VLG,,
-1972936,-2752530,settlement,Wittegevel,Wittegevel,official,51.116667,4.333333,BE-VLG,,
-1973384,-2753213,spot,"Fort de Zwyndrecht","Fort de Zwyndrecht",variant,51.208728,4.308227,BE-VLG,,
-1972685,-2752147,administrative_region,"West Flanders","West Flanders",variant,51,3,BE-VLG,,
-1972718,-2752113,administrative_region,Wesembeek-Ophem,Wesembeek-Ophem,variant,50.842852,4.492038,BE-VLG,,
-1973240,-2752991,settlement,Zillebeke,Zillebeke,official,50.834642,2.922487,BE-VLG,,
-1972639,-2752120,settlement,Wespelaerenhoek,Wespelaerenhoek,variant,50.960708,4.62352,BE-VLG,,
-1973185,-2747855,spot,Selzaetehoef,Selzaetehoef,variant,51.2,4.533333,BE-VLG,,
-1973361,-2733602,hydrographic,Grootebeek,Grootebeek,variant,51.033333,4.533333,BE-VLG,,
-1972682,-2752181,settlement,Westroozebeke,Westroozebeke,variant,50.931775,3.010013,BE-VLG,,
-1973254,-2753014,settlement,"Zoerle Berg","Zoerle Berg",official,51.083333,4.883333,BE-VLG,,
-1972629,-2752096,spot,Wermerboshoeve,Wermerboshoeve,official,50.866667,5.433333,BE-VLG,,
-1972553,-2751999,administrative_region,Wegnez,Wegnez,official,50.583333,5.816667,BE-WAL,,
-1972538,-2751972,settlement,Weegsche,Weegsche,variant,51.116667,3.65,BE-VLG,,
-1972575,-2752298,hypsographic,"Wijerkense Bergen","Wijerkense Bergen",variant,51.229604,5.274214,BE-VLG,,
-1973172,-2752867,settlement,Zeelhem,Zeelhem,variant,50.977389,5.106874,BE-VLG,,
-1972434,-2751827,settlement,Warzée,Warzee,official,50.45,5.426195,BE-WAL,,
-1972644,-2752126,hydrographic,Westbeek,Westbeek,official,51.102855,2.941256,BE-VLG,,
-1972742,-2752268,settlement,Wieltje,Wieltje,official,50.871379,2.918952,BE-VLG,,
-1972616,-2752080,settlement,Werihet,Werihet,official,50.583333,5.216667,BE-WAL,,
-1972654,-2752145,settlement,Westerloo,Westerloo,variant,51.090486,4.915439,BE-VLG,,
-1973253,-2753013,settlement,Zobbroek,Zobbroek,official,50.808352,4.241878,BE-VLG,,
-1972771,-2752306,settlement,Wijmier,Wijmier,variant,50.792398,3.675804,BE-VLG,,
-1973305,-2753108,administrative_region,Zuydschoote,Zuydschoote,variant,50.916667,2.833333,BE-VLG,,
-1972473,-2751871,settlement,Waterloos,Waterloos,variant,50.829,3.901238,BE-VLG,,
-1972676,-2752172,administrative_region,Westrem,Westrem,official,50.966667,3.85,BE-VLG,,
-1973399,-2732501,hydrographic,"Canal de Gand","Canal de Gand",variant,51.05,3.716667,BE-VLG,,
