wgdPlaceId,wgdId,type,name,fullName,nameType,latitude,longitude,administrationGroup,isHistorical,isCapital
-1204022,-1769512,hypsographic,"Point Marianne","Point Marianne",variant,-7.312784,72.433041,IO-000,,
-1203987,-1769500,hypsographic,"Gunners Coign","Gunners Coign",variant,-5.427791,71.881169,IO-000,,
-1204015,-1769505,hypsographic,"Île Longue","Ile Longue",official,-5.269374,71.869397,IO-000,,
-1204025,-1769516,settlement,"Minni Minni","Minni Minni",official,-7.316926,72.482918,IO-000,,
-1204064,-1769560,hypsographic,"West Island","West Island",official,-7.248096,72.384715,IO-000,,
-1204018,10824925,hypsographic,"Île Manoël","Ile Manoel",variant,-5.259373,71.922461,IO-000,,
-1204055,-1769550,hydrographic,"Spur Reef","Spur Reef",official,-7.235083,72.406151,IO-000,,
-1204022,10809462,hypsographic,"Pointe Marianne","Pointe Marianne",official,-7.312784,72.433041,IO-000,,
-1204062,-1769558,hypsographic,"Île Verte","Ile Verte",official,-5.328901,71.743409,IO-000,,
-1203983,-1769466,hypsographic,"Île Carre Pate","Ile Carre Pate",official,-6.678076,71.363225,IO-000,,
-1204048,-1769542,hypsographic,"Île Saint-Brandon","Ile Saint-Brandon",variant,-5.248408,71.833974,IO-000,,
-1203990,-1769476,hypsographic,Danger,Danger,official,-6.383333,71.265278,IO-000,,
-1204049,-1769543,hypsographic,"Salomon Islands","Salomon Islands",official,-5.328894,72.244606,IO-000,,
-1204066,19908429,hypsographic,"Île Yēyē","Ile Yeye",variant,-5.24302,71.962352,IO-000,,
-1203976,-1769459,hydrographic,"Barton Pass","Barton Pass",variant,-7.225295,72.431697,IO-000,,
-1204023,-1769513,hypsographic,"Middle Island","Middle Island",official,-7.228612,72.408546,IO-000,,
-1204026,-1769517,hydrographic,"Minni Minni Patch","Minni Minni Patch",official,-7.309997,72.471074,IO-000,,
-1204008,-1769497,hypsographic,"Grande Île Mapou","Grande Ile Mapou",official,-5.265438,71.750875,IO-000,,
-1203986,-1769472,hypsographic,"Île du Coin","Ile du Coin",official,-5.453976,71.766186,IO-000,,
-1203985,-1769469,hypsographic,Chagos,Chagos,variant,-6,72,IO-000,,
-1203989,-1769475,hypsographic,"Cust Point","Cust Point",official,-7.290236,72.493014,IO-000,,
-1204037,-1769530,hypsographic,"Peros Banhos","Peros Banhos",official,-5.332494,71.8502,IO-000,,
-1203978,-1769461,hydrographic,"Benares Shoals","Benares Shoals",official,-5.25777,71.672444,IO-000,,
-1204028,-1769519,hypsographic,"Moresby Islands","Moresby Islands",official,-5.237162,71.826577,IO-000,,
-1204039,-1769533,hypsographic,"Petite Île de la Passe","Petite Ile de la Passe",short,-5.233427,71.817279,IO-000,,
-1204060,-1769556,hypsographic,"Île Vache Marine","Ile Vache Marine",official,-5.424321,71.829625,IO-000,,
-1203990,-1769477,hypsographic,"Danger Island","Danger Island",official,-6.383333,71.265278,IO-000,,
-1204002,-1769491,hypsographic,"Île Finon","Ile Finon",official,-5.332105,71.744834,IO-000,,
-1204065,-1769563,hydrographic,"Wiglit Bank","Wiglit Bank",variant,-7.414397,71.525386,IO-000,,
-1204058,-1769553,hypsographic,"Île Tattamucca","Ile Tattamucca",official,-6.681843,71.367602,IO-000,,
-1204017,10809460,hydrographic,"Main Passage","Main Passage",official,-7.239553,72.385121,IO-000,,
-1203975,-1769458,hypsographic,"Île Anglaise","Ile Anglaise",official,-5.439638,71.753424,IO-000,,
-1203987,-1769473,hypsographic,"Coin du Mire","Coin du Mire",official,-5.427791,71.881169,IO-000,,
-1204038,-1769532,hypsographic,"Petite Île Coquillage","Petite Ile Coquillage",official,-5.339544,71.973144,IO-000,,
-1204059,-1769555,hypsographic,"Three Brothers Islands","Three Brothers Islands",variant,-6.153609,71.521031,IO-000,,
-1204033,-1769526,hypsographic,"Ile Parasole","Ile Parasole",variant,-5.263767,71.843939,IO-000,,
-1204000,-1769489,hypsographic,"Egmont Islands","Egmont Islands",official,-6.654428,71.350282,IO-000,,
-1203976,10809459,hydrographic,"Barton Passage","Barton Passage",official,-7.225295,72.431697,IO-000,,
-1204000,-1769548,hypsographic,"Six Islands","Six Islands",variant,-6.654428,71.350282,IO-000,,
-1204057,-1769552,hypsographic,"Île Takamaka","Ile Takamaka",official,-5.331085,72.271122,IO-000,,
-1204034,-1769527,hydrographic,"Parry Patch","Parry Patch",official,-7.286099,72.452813,IO-000,,
-1204007,-1769496,hypsographic,"Grande Île Coquillage","Grande Ile Coquillage",official,-5.372748,71.969889,IO-000,,
-1203977,-1769460,hypsographic,"Barton Point","Barton Point",official,-7.233193,72.434522,IO-000,,
-1203988,-1769474,hydrographic,"Colvocoresses Reef","Colvocoresses Reef",official,-4.889658,72.6177,IO-000,,
-1204005,-1769494,hypsographic,"Île Gabrielle","Ile Gabrielle",official,-5.423026,71.749627,IO-000,,
-1203991,-1769478,hydrographic,"Danger Shoals","Danger Shoals",official,-5.413909,71.807057,IO-000,,
-1203974,-1769457,hypsographic,"Île Anglaise","Ile Anglaise",official,-5.325905,72.222527,IO-000,,
-1203997,-1769486,hypsographic,"East Point","East Point",official,-7.352744,72.464003,IO-000,,
-1204061,-1769557,hydrographic,"Vancleve Shoal","Vancleve Shoal",official,-7.264414,72.383525,IO-000,,
-1204051,-1769545,hypsographic,"Île Sepulture","Ile Sepulture",official,-5.349216,72.253645,IO-000,,
-1203979,-1769462,hydrographic,"Blenheim Reef","Blenheim Reef",official,-5.213072,72.471846,IO-000,,
-1204053,-1769547,hypsographic,"Île Sipaille","Ile Sipaille",official,-6.655712,71.316402,IO-000,,
-1203993,-1769480,hypsographic,"Île Diamant","Ile Diamant",official,-5.253436,71.763203,IO-000,,
-1203995,-1769483,hypsographic,"Eagle Islands","Eagle Islands",official,-6.211944,71.33,IO-000,,
-1204065,-1769562,hydrographic,"Wight Bank","Wight Bank",official,-7.414397,71.525386,IO-000,,
-1204045,-1769539,hypsographic,"Île Poule","Ile Poule",official,-5.405713,71.750788,IO-000,,
-1204016,-1769506,hypsographic,"Île Lubine","Ile Lubine",official,-6.668231,71.331021,IO-000,,
-1203999,-1769488,hypsographic,"Eclipse Point","Eclipse Point",official,-7.258052,72.379614,IO-000,,
-1203980,-1769463,hypsographic,"Île Boddam","Ile Boddam",official,-5.35928,72.205692,IO-000,,
-1204021,-1769511,hypsographic,"Mapou de Î’ile du Coin","Mapou de I'ile du Coin",official,-5.462431,71.792811,IO-000,,
-1204040,-1769534,hypsographic,"Petite Île Mapou","Petite Ile Mapou",official,-5.273355,71.747018,IO-000,,
-1203984,-1769467,hydrographic,"Cauvin Bank","Cauvin Bank",official,-6.816998,72.350629,IO-000,,
-1203995,-1769482,hypsographic,Eagle,Eagle,official,-6.211944,71.33,IO-000,,
-1204066,-1769564,hypsographic,"Île Yeye","Ile Yeye",variant,-5.24302,71.962352,IO-000,,
-1204004,-1769493,hypsographic,"Île Fouquet","Ile Fouquet",official,-5.462947,71.811198,IO-000,,
-1204041,-1769535,hypsographic,"Petite Soeur","Petite Soeur",official,-5.363794,71.755294,IO-000,,
-1204059,-1769554,hypsographic,"Three Brothers","Three Brothers",official,-6.153609,71.521031,IO-000,,
-1204032,-1769524,hydrographic,"Owen Bank","Owen Bank",official,-6.8,70.25,IO-000,,
-1204006,-1769495,hydrographic,"Ganges Bank","Ganges Bank",official,-7.382,70.967174,IO-000,,
-1204020,-1769510,hypsographic,"Île Mapou","Ile Mapou",official,-5.31134,72.264829,IO-000,,
-1204018,19908432,hypsographic,"Île Manöel","Ile Manoel",official,-5.259373,71.922461,IO-000,,
-1204050,-1769544,hypsographic,"Île du Sel","Ile du Sel",official,-5.354779,72.226851,IO-000,,
-1203981,-1769464,administrative_region,"British Indian Ocean Territory","British Indian Ocean Territory",official,-6,72,IO-000,,
-1204029,-1769520,hypsographic,"Nelson Island","Nelson Island",variant,-5.681554,72.315678,IO-000,,
-1204064,-1769561,hypsographic,"West Islet","West Islet",variant,-7.248096,72.384715,IO-000,,
-1204043,-1769537,hydrographic,"Pitt Bank","Pitt Bank",official,-7.063414,71.341484,IO-000,,
-1204014,-1769504,hypsographic,"Leconte Point","Leconte Point",official,-7.269841,72.460782,IO-000,,
-1204030,-1769522,hypsographic,"Observatory Point","Observatory Point",official,-7.239081,72.434972,IO-000,,
-1204035,-1769528,hypsographic,"Île de la Passe","Ile de la Passe",official,-5.242146,71.815944,IO-000,,
-1203985,18385637,hypsographic,"Oil Islands","Oil Islands",variant,-6,72,IO-000,,
-1204036,-1769529,hypsographic,"Île de la Passe","Ile de la Passe",official,-5.302371,72.253261,IO-000,,
-1204033,-1769525,hypsographic,"Île Parasol","Ile Parasol",official,-5.263767,71.843939,IO-000,,
-1204066,19908428,hypsographic,"Île Yéyé","Ile Yeye",official,-5.24302,71.962352,IO-000,,
-1203985,-1769470,hypsographic,"Chagos Archipelago","Chagos Archipelago",official,-6,72,IO-000,,
-1204046,-1769540,hydrographic,"Rambler Bay","Rambler Bay",official,-7.29351,72.472304,IO-000,,
-1204024,10809455,hydrographic,"Middle Passage","Middle Passage",official,-7.22224,72.411938,IO-000,,
-1204052,-1769546,hypsographic,"Simpson Point","Simpson Point",official,-7.270859,72.354503,IO-000,,
-1204009,-1769498,hypsographic,"Grande Soeur","Grande Soeur",official,-5.345125,71.749774,IO-000,,
-1204029,-1769521,hypsographic,"Nelsons Island","Nelsons Island",official,-5.681554,72.315678,IO-000,,
-1204011,-1769501,hypsographic,"Horsburgh Point","Horsburgh Point",official,-7.381116,72.492804,IO-000,,
-1204031,-1769523,hydrographic,"Orient Bay","Orient Bay",official,-7.247675,72.440052,IO-000,,
-1203992,-1769479,hypsographic,"Île Diable","Ile Diable",official,-5.346119,72.203896,IO-000,,
-1204027,-1769518,hypsographic,"Île Monpatre","Ile Monpatre",official,-5.423793,71.751651,IO-000,,
-1204013,-1769503,hydrographic,"Jennifer Shoal","Jennifer Shoal",short,-7.283605,72.433622,IO-000,,
-1204003,-1769492,hypsographic,"Île Fouquet","Ile Fouquet",official,-5.341636,72.266332,IO-000,,
-1203996,-1769485,hypsographic,"East Islet","East Islet",variant,-7.226826,72.419263,IO-000,,
-1204029,19908431,hypsographic,"Nelson’s Island","Nelson's Island",variant,-5.681554,72.315678,IO-000,,
-1204000,571236,hypsographic,Egmont,Egmont,official,-6.654428,71.350282,IO-000,,
-1204024,-1769515,hydrographic,"Middle Pass","Middle Pass",variant,-7.22224,72.411938,IO-000,,
-1204044,-1769538,hypsographic,"Île Poule","Ile Poule",official,-5.358878,72.221059,IO-000,,
-1204054,-1769549,hydrographic,"Speakers Bank","Speakers Bank",official,-4.901199,72.350871,IO-000,,
-1204010,571238,hydrographic,"Great Chagos","Great Chagos",official,-6.314722,71.902222,IO-000,,
-1204010,-1769499,hydrographic,"Great Chagos Bank","Great Chagos Bank",official,-6.314722,71.902222,IO-000,,
-1204001,-1769490,hypsographic,"Elder Rock","Elder Rock",short,-7.299767,72.450069,IO-000,,
-1204047,-1769541,hypsographic,"Île des Rats","Ile des Rats",official,-6.645419,71.313523,IO-000,,
-1203996,-1769484,hypsographic,"East Island","East Island",official,-7.226826,72.419263,IO-000,,
-1204019,-1769509,hypsographic,"Île Manon","Ile Manon",official,-5.314944,71.73641,IO-000,,
-1204056,-1769551,hypsographic,"Île Sudest","Ile Sudest",official,-6.687772,71.387853,IO-000,,
-1203998,-1769487,hydrographic,"Eclipse Bay","Eclipse Bay",official,-7.267206,72.380454,IO-000,,
-1204042,-1769536,hypsographic,"Île Pierre","Ile Pierre",official,-5.295177,71.736778,IO-000,,
-1203994,-1769481,hypsographic,"Diego Garcia","Diego Garcia",official,-7.312645,72.451611,IO-000,,
-1204012,-1769502,hypsographic,"Île Jacobin","Ile Jacobin",official,-5.350446,72.245451,IO-000,,
-1204018,-1769508,hypsographic,"Île Manoel","Ile Manoel",variant,-5.259373,71.922461,IO-000,,
-1204063,-1769559,hydrographic,"Victory Bank","Victory Bank",official,-5.534726,72.230408,IO-000,,
-1204017,-1769507,hydrographic,"Main Pass","Main Pass",variant,-7.239553,72.385121,IO-000,,
-1204048,19908430,hypsographic,"Île Saint Brandon","Ile Saint Brandon",official,-5.248408,71.833974,IO-000,,
-1203982,-1769465,spot,"Camp Cummins","Camp Cummins",official,-7.25,72.383333,IO-000,,
-1204037,-1769531,hypsographic,"Peros Banhos Island","Peros Banhos Island",variant,-5.332494,71.8502,IO-000,,
-1203985,-1769471,hypsographic,"Chagos Islands","Chagos Islands",variant,-6,72,IO-000,,
-1204023,-1769514,hypsographic,"Middle Islet","Middle Islet",variant,-7.228612,72.408546,IO-000,,
10366647,10809246,hydrographic,"Turtle Bay","Turtle Bay",official,-7.426369,72.437603,IO-000,,
10366649,19908433,spot,"Pol Pier","Pol Pier",variant,-7.29293,72.41115,IO-000,,
10366649,10809250,spot,"Skarda Pier","Skarda Pier",official,-7.29293,72.41115,IO-000,,
10366646,10809245,hypsographic,"South Point","South Point",official,-7.443054,72.425914,IO-000,,
10366648,10809248,hydrographic,"Barochois Sylvaine","Barochois Sylvaine",official,-7.431011,72.431092,IO-000,,
10366747,10809349,hypsographic,"Anniversary Island","Anniversary Island",official,-7.237888,72.403358,IO-000,,
10373852,10823372,hydrographic,"Passe de I'Île Poule","Passe de I'Ile Poule",official,-5.382975,71.754225,IO-000,,
10373853,10824868,hypsographic,"Grande Île Bois Mangue","Grande Ile Bois Mangue",official,-5.269828,71.896036,IO-000,,
10373854,10824869,hypsographic,"Petite Île Bois Mangue","Petite Ile Bois Mangue",official,-5.270975,71.885514,IO-000,,
10375824,10829349,settlement,"East Point Settlement","East Point Settlement",official,-7.3529,72.467769,IO-000,,
10375823,10829348,settlement,Carcasse,Carcasse,official,-7.374491,72.481325,IO-000,,
10375822,10829347,hydrographic,"Barachois Maurice","Barachois Maurice",official,-7.380442,72.480375,IO-000,,
10375825,10829350,hypsographic,"Cannon Point","Cannon Point",official,-7.259336,72.372901,IO-000,,
10398756,10873819,spot,Bolt,Bolt,official,-7.277132,72.468838,IO-000,,
10398758,10873821,settlement,Downtown,Downtown,official,-7.262287,72.376758,IO-000,,
10398757,10873820,hydrographic,"Catalina Bay","Catalina Bay",official,-7.373462,72.472187,IO-000,,
15029847,19904821,hypsographic,"Cow Island","Cow Island",official,-6.23551,71.294571,IO-000,,
15029848,19904822,hypsographic,"North Island","North Island",official,-6.136943,71.503284,IO-000,,
15029849,19904823,hypsographic,"Middle Brother","Middle Brother",official,-6.155327,71.516654,IO-000,,
15029852,19908426,hypsographic,"Eagle Island","Eagle Island",official,-6.190509,71.325869,IO-000,,
15029851,19908425,hypsographic,"Resurgent Island","Resurgent Island",official,-6.163407,71.529436,IO-000,,
15029853,19908427,hydrographic,"Moresby Channel","Moresby Channel",official,-5.245912,71.803663,IO-000,,
15029850,19908424,hypsographic,"South Brother","South Brother",official,-6.171246,71.541037,IO-000,,