wgdPlaceId,wgdId,type,name,fullName,nameType,latitude,longitude,administrationGroup,isHistorical,isCapital
-3741290,-4972288,hydrographic,Olifei,Olifei,official,9.530278,138.158889,FM-YAP,,
-3741135,-4973143,park,Tafuyat,Tafuyat,official,5.3,163.016667,FM-KSA,,
-3740222,-4971499,park,Loal,Loal,official,5.350833,162.966667,FM-KSA,,
-3740591,-5098340,settlement,Ngof,Ngof,variant,9.475278,138.076944,FM-YAP,,
-3740221,-4971498,hypsographic,Liyeeg,Liyeeg,official,9.55,138.183333,FM-YAP,,
-3740649,-4972223,settlement,Numdul,Numdul,official,9.587778,138.175833,FM-YAP,,
-3740581,-4972103,hypsographic,Ngariki,Ngariki,official,3.85,155,FM-PNI,,
-3739635,-4970495,settlement,Bulwol,Bulwol,official,9.63,138.152778,FM-YAP,,
-3740943,-4973555,hypsographic,Umel,Umel,variant,9.5825,138.131111,FM-YAP,,
-3740219,-4971496,hypsographic,Lipow,Lipow,official,9.566667,138.2,FM-YAP,,
-3740763,-4970432,settlement,Beken,Beken,variant,7.3,151.883333,FM-TRK,,
-3740580,-4972099,park,Newot,Newot,official,5.276111,162.949444,FM-KSA,,
-3740666,-4972261,hydrographic,Ochonap,Ochonap,official,7.6025,151.685278,FM-TRK,,
-3740220,-4971497,hypsographic,Liqeg,Liqeg,official,9.533333,138.166667,FM-YAP,,
-3742663,-4977637,park,Micronesia,Micronesia,colloquial,9,155,S1-000,,
-3741611,-5071678,hydrographic,Rotto-ko,Rotto-ko,variant,6.795833,158.297222,FM-PNI,,
-3741532,-4973911,park,Yoal,Yoal,official,5.329444,162.951389,FM-KSA,,
-3741407,-5074108,hypsographic,Moen,Moen,variant,7.441111,151.853333,FM-TRK,,
-3741461,-4973790,hypsographic,"Infal Wiyu","Infal Wiyu",official,9.5375,138.183889,FM-YAP,,
-3741443,-4973771,hypsographic,Winipou,Winipou,official,7.293611,151.821667,FM-TRK,,
-3741454,-4973662,hypsographic,Vidolap,Vidolap,variant,7.383889,151.708333,FM-TRK,,
-3741409,-4973723,hypsographic,Weok,Weok,official,7.383333,151.866667,FM-TRK,,
-3741531,-5087545,settlement,Inuf,Inuf,variant,9.490833,138.102222,FM-YAP,,
-3741545,-4973932,hydrographic,"Zowariyau Channel","Zowariyau Channel",official,9.872778,139.608889,FM-YAP,,
-3741690,-4973670,hypsographic,"Vinimorr Krater","Vinimorr Krater",variant,7.368611,151.624444,FM-TRK,,
-3741519,-4973896,hypsographic,"Yenei Island","Yenei Island",variant,5.334722,163.02,FM-KSA,,
-3741446,-4973524,hypsographic,"Uijec Island","Uijec Island",variant,7.162778,151.935833,FM-TRK,,
-3741587,-5078772,hypsographic,"Point Garnot","Point Garnot",official,5.287778,163.024444,FM-KSA,,
-3741462,-4973797,hypsographic,Wolauna,Wolauna,official,6.826667,157.918889,FM-PNI,,
-3741432,-4973758,hypsographic,Winimas,Winimas,official,7.3375,151.588889,FM-TRK,,
-3741501,-5078825,hypsographic,Uap,Uap,variant,9.516667,138.1,FM-YAP,,
-3741670,-4973067,hydrographic,Rukoey,Rukoey,official,9.633333,138.145556,FM-YAP,,
-3741615,-4971596,administrative_region,Malam,Malam,variant,5.283333,163.016667,FM-KSA,,
-3741607,-4971444,hypsographic,Lejeune-Spitze,Lejeune-Spitze,variant,5.3,163.033333,FM-KSA,,
-3741511,-4973886,hydrographic,"Infal Yekula","Infal Yekula",official,5.368056,163.004167,FM-KSA,,
-3741556,-5065037,hypsographic,Kosrae,Kosrae,official,5.315278,162.980556,FM-KSA,,
-3741434,-5088634,hypsographic,Ulilen,Ulilen,variant,7.171389,151.948056,FM-TRK,,
-3741482,-5084059,settlement,Worwoq,Worwoq,official,9.509167,138.128333,FM-YAP,,
-3741505,-4973876,hydrographic,Yariboru,Yariboru,official,9.966667,139.65,FM-YAP,,
-3741464,-4973800,hypsographic,Woleai,Woleai,official,7.375556,143.913889,FM-YAP,,
-3741472,-5098265,hydrographic,"Tomil Harbor Entrance","Tomil Harbor Entrance",variant,9.488611,138.138611,FM-YAP,,
-3741475,-4973815,settlement,Wonip,Wonip,official,7.331667,151.606667,FM-TRK,,
-3741638,-5056639,hypsographic,Nigaruyaru,Nigaruyaru,official,8.606389,144.534444,FM-YAP,,
-3741633,-5071692,settlement,Nankomw,Nankomw,short,6.966667,158.216667,FM-PNI,,
-3741406,-4973719,hypsographic,Wenen,Wenen,variant,7.295,151.526944,FM-TRK,,
-3741611,-5071675,hydrographic,"Lod Hafen","Lod Hafen",variant,6.795833,158.297222,FM-PNI,,
-3741442,-5089258,hypsographic,"Berg Viniboat","Berg Viniboat",variant,7.339167,151.619722,FM-TRK,,
-3741488,-4973834,hypsographic,Wunup,Wunup,official,9.533333,138.083333,FM-YAP,,
-3741484,-5098302,settlement,Wgem,Wgem,variant,9.450833,138.069167,FM-YAP,,
-3741542,-4973927,hydrographic,Zoniparegoku-Suido,Zoniparegoku-Suido,variant,8.4,137.376667,FM-YAP,,
-3741621,-5098391,hypsographic,Pyghella,Pyghella,variant,8.087778,147.635556,FM-YAP,,
-3741446,-5074067,hypsographic,"Jacquinot Island","Jacquinot Island",variant,7.162778,151.935833,FM-TRK,,
-3741464,-4971073,hypsographic,Furarappu,Furarappu,variant,7.375556,143.913889,FM-YAP,,
-3741452,-4973780,hypsographic,Witipwon,Witipwon,official,7.291667,151.875278,FM-TRK,,
-3741682,-4973406,settlement,Weno,Weno,official,7.445833,151.85,FM-TRK,,
-3741464,-5096627,hypsographic,"Insel Oleai","Insel Oleai",variant,7.375556,143.913889,FM-YAP,,
-3741538,-4973921,hydrographic,Yunearawëy,Yunearawey,official,9.571667,138.165556,FM-YAP,,
-3741414,-4972556,hypsographic,Pigailoe,Pigailoe,variant,8.089167,146.741111,FM-YAP,,
-3741584,-4973887,settlement,Yela,Yela,official,5.329444,162.944444,FM-KSA,,
-3741404,-4973715,hydrographic,Weltot,Weltot,official,5.321944,163.021944,FM-KSA,,
-3741587,-4971129,hypsographic,Garnot-Spitze,Garnot-Spitze,variant,5.287778,163.024444,FM-KSA,,
-3741415,-4973732,hydrographic,"West Lagoon","West Lagoon",official,7.348889,143.859444,FM-YAP,,
-3741407,-5087399,hypsographic,"Wela Insel","Wela Insel",variant,7.441111,151.853333,FM-TRK,,
-3741438,-4973766,hydrographic,"Mochun Winion","Mochun Winion",official,7.236667,152.007222,FM-TRK,,
-3741486,-4973830,park,Wul,Wul,official,9.536111,138.183333,FM-YAP,,
-3741623,-4971725,hypsographic,"Merten’s Monument","Merten's Monument",variant,5.329722,162.97,FM-KSA,,
-3741501,-5078821,hypsographic,Eap,Eap,variant,9.516667,138.1,FM-YAP,,
-3741621,-4971706,hypsographic,Pikelot,Pikelot,official,8.087778,147.635556,FM-YAP,,
-3741403,-4973711,hypsographic,Weey,Weey,official,8.616667,150.366667,FM-TRK,,
-3741582,-5079243,hydrographic,Faleasits,Faleasits,variant,7.174167,151.843333,FM-TRK,,
-3741503,-4973871,hypsographic,"Yap Islands","Yap Islands",official,9.533333,138.133333,FM-YAP,,
-3741468,-5079564,hypsographic,Wolmat,Wolmat,variant,9.552778,138.150278,FM-YAP,,
-3741529,-5087541,settlement,Jin,Jin,variant,9.580556,138.123333,FM-YAP,,
-3741477,-5079566,hypsographic,Wonno,Wonno,official,7.328056,151.947778,FM-TRK,,
-3741495,-4973847,hydrographic,Yaatarao,Yaatarao,official,9.983333,139.716667,FM-YAP,,
-3741490,-5098309,spot,Wupwpa’,Wupwpa',variant,9.516667,138.083333,FM-YAP,,
-3741442,-5089260,hypsographic,"Mount Tumuital","Mount Tumuital",variant,7.339167,151.619722,FM-TRK,,
-3741538,-5096630,hydrographic,Yuneroway,Yuneroway,variant,9.571667,138.165556,FM-YAP,,
-3741435,-5074096,hydrographic,"Tukomat Durchfahrt","Tukomat Durchfahrt",variant,7.169444,151.945,FM-TRK,,
-3741556,-4973690,hypsographic,Walan,Walan,variant,5.315278,162.980556,FM-KSA,,
-3741617,-4971631,hypsographic,"Mant Inseln","Mant Inseln",variant,6.983333,158.283333,FM-PNI,,
-3741415,-5078789,hydrographic,Pihg,Pihg,variant,7.348889,143.859444,FM-YAP,,
-3741435,14163426,hydrographic,Udidan,Udidan,variant,7.169444,151.945,FM-TRK,,
-3741482,-4973674,settlement,Vorovo,Vorovo,variant,9.509167,138.128333,FM-YAP,,
-3741520,-4971837,settlement,Motanrikku,Motanrikku,variant,5.340833,163.031111,FM-KSA,,
-3741476,-4973672,settlement,Volip,Volip,variant,7.376667,151.731389,FM-TRK,,
-3741569,-4970593,hypsographic,"Deahna Island","Deahna Island",variant,3.827778,154.968333,FM-PNI,,
-3741621,-5098392,hypsographic,"La Coquille","La Coquille",variant,8.087778,147.635556,FM-YAP,,
-3741556,-4973102,hypsographic,"Strong Island","Strong Island",variant,5.315278,162.980556,FM-KSA,,
-3741437,-4973765,settlement,Wininis,Wininis,official,7.355833,151.848056,FM-TRK,,
-3741595,-4971231,hydrographic,Ikaafuto,Ikaafuto,variant,5.350556,162.954444,FM-KSA,,
-3741449,-4973778,hypsographic,Wisop,Wisop,official,7.371667,151.725833,FM-TRK,,
-3741478,-4973818,settlement,Wonpiepi,Wonpiepi,official,7.383889,151.879167,FM-TRK,,
-3741543,-4973929,hydrographic,Zoniyarangachieru-Suido,Zoniyarangachieru-Suido,variant,8.393611,137.415,FM-YAP,,
-3741691,-5040585,settlement,Unikappi,Unikappi,official,7.333333,151.556667,FM-TRK,,
-3741445,-4973664,spot,Vilisi,Vilisi,short,7.333333,151.6,FM-TRK,,
-3741465,-5087635,hypsographic,Mereyon-tō,Mereyon-to,variant,7.35,143.866667,FM-YAP,,
-3741413,-5079229,hypsographic,"West Fayu Atoll","West Fayu Atoll",official,8.088889,146.728611,FM-YAP,,
-3741576,-5085799,hypsographic,"Foko Lik","Foko Lik",official,5.329722,163.034444,FM-KSA,,
-3741447,-4973775,hypsographic,Wisenet,Wisenet,official,7.368611,151.875833,FM-TRK,,
-3741611,-5071674,hydrographic,Lod,Lod,variant,6.795833,158.297222,FM-PNI,,
-3741486,-5098303,park,Ul,Ul,variant,9.536111,138.183333,FM-YAP,,
-3741536,-4973919,hydrographic,Yotochibo,Yotochibo,official,9.933333,139.616667,FM-YAP,,
-3741556,-4973311,hypsographic,Teyoa,Teyoa,variant,5.315278,162.980556,FM-KSA,,
-3741546,-4973935,hydrographic,Zowariyoru-Suido,Zowariyoru-Suido,variant,9.856944,139.635556,FM-YAP,,
-3741496,-5088719,settlement,Yevotj,Yevotj,variant,9.496389,138.074167,FM-YAP,,
-3741629,-4973566,hydrographic,"Mochun Unen","Mochun Unen",official,7.541111,151.636389,FM-TRK,,
-3741481,-5098297,hypsographic,Woriing,Woriing,variant,9.546389,138.120833,FM-YAP,,
-3741468,-5079565,hypsographic,Wolmad,Wolmad,variant,9.552778,138.150278,FM-YAP,,
-3741573,-5085811,hypsographic,Tolemarawai,Tolemarawai,variant,6.88,158.264444,FM-PNI,,
-3741458,-4973787,hypsographic,Wiya,Wiya,official,9.546667,138.141111,FM-YAP,,
-3741555,-4970339,settlement,"Anipein Powe","Anipein Powe",variant,6.811111,158.223611,FM-PNI,,
-3741621,-5098394,hypsographic,Pigoualao,Pigoualao,variant,8.087778,147.635556,FM-YAP,,
-3741690,-4973542,hypsographic,"Berg Ulivar","Berg Ulivar",variant,7.368611,151.624444,FM-TRK,,
-3741487,-4973831,settlement,Wuluuq,Wuluuq,official,9.573333,138.135833,FM-YAP,,
-3741611,-5071737,hydrographic,"Kapidau en Nahlap en Lohd","Kapidau en Nahlap en Lohd",variant,6.795833,158.297222,FM-PNI,,
-3741641,-4972237,hypsographic,"Oa Hana","Oa Hana",variant,6.918056,158.321667,FM-PNI,,
-3741480,-5098293,settlement,Orira,Orira,variant,9.5825,138.155556,FM-YAP,,
-3741476,-4972316,settlement,Onip,Onip,variant,7.376667,151.731389,FM-TRK,,
-3741407,-4973722,hypsographic,Weno,Weno,official,7.441111,151.853333,FM-TRK,,
-3741426,-4973751,hypsographic,Winifouror,Winifouror,official,7.437222,151.853333,FM-TRK,,
-3741578,-4970701,hydrographic,Ekarotrusu,Ekarotrusu,variant,5.350278,162.953333,FM-KSA,,
-3741435,-5071735,hydrographic,"Mwoocun Winiinen","Mwoocun Winiinen",variant,7.169444,151.945,FM-TRK,,
-3741584,-5089955,settlement,Era,Era,variant,5.329444,162.944444,FM-KSA,,
-3741611,-4971501,hydrographic,"Kepidau en Lohd","Kepidau en Lohd",official,6.795833,158.297222,FM-PNI,,
-3741472,-5098263,hydrographic,Wuneedaay,Wuneedaay,variant,9.488611,138.138611,FM-YAP,,
-3741482,-4973610,settlement,Uoruuoru,Uoruuoru,variant,9.509167,138.128333,FM-YAP,,
-3741444,-4973772,settlement,Winisi,Winisi,official,7.4075,151.661389,FM-TRK,,
-3741529,-5087542,settlement,Yn,Yn,variant,9.580556,138.123333,FM-YAP,,
-3741611,-5071677,hydrographic,"Ponatik Hafen","Ponatik Hafen",variant,6.795833,158.297222,FM-PNI,,
-3741586,-5088220,hypsographic,"Fukiru Point","Fukiru Point",official,5.333333,163.025833,FM-KSA,,
-3741526,-4973905,hypsographic,Yiluuy,Yiluuy,official,9.468611,138.065833,FM-YAP,,
-3741427,-4973668,hypsographic,Vinifauren,Vinifauren,variant,7.443611,151.855556,FM-TRK,,
-3741524,-4973903,park,Yesron,Yesron,official,5.283333,162.966667,FM-KSA,,
-3741501,-5072842,hypsographic,Waqab,Waqab,variant,9.516667,138.1,FM-YAP,,
-3741667,-4972963,settlement,Sapota,Sapota,variant,7.344444,151.843056,FM-TRK,,
-3741439,-4973767,hypsographic,"Unun en Winipi","Unun en Winipi",official,7.357778,151.851944,FM-TRK,,
-3741482,-4970868,settlement,Fanbatear,Fanbatear,official,9.509167,138.128333,FM-YAP,,
-3741482,-4973675,settlement,Vorvor,Vorvor,variant,9.509167,138.128333,FM-YAP,,
-3741429,-4973753,hypsographic,Winikäp,Winikap,official,7.35,151.783333,FM-TRK,,
-3741400,-4973705,hypsographic,Wathir,Wathir,official,9.55,138.116667,FM-YAP,,
-3741584,-5089954,settlement,Berado,Berado,variant,5.329444,162.944444,FM-KSA,,
-3741446,-5074065,hypsographic,Uji-shima,Uji-shima,variant,7.162778,151.935833,FM-TRK,,
-3741621,-5098381,hypsographic,Pigerotto-tō,Pigerotto-to,variant,8.087778,147.635556,FM-YAP,,
-3741455,-4973530,hypsographic,Uitonap,Uitonap,variant,7.318056,151.842778,FM-TRK,,
-3741611,-5071673,hydrographic,"Bunatik Hafen","Bunatik Hafen",variant,6.795833,158.297222,FM-PNI,,
-3741465,-4973712,hypsographic,Weleeya,Weleeya,variant,7.35,143.866667,FM-YAP,,
-3741576,-5074089,hypsographic,"D’Urville Point","D'Urville Point",variant,5.329722,163.034444,FM-KSA,,
-3741446,-4973774,hypsographic,Wisas,Wisas,official,7.162778,151.935833,FM-TRK,,
-3741414,-5078777,hypsographic,"West Fayu","West Fayu",variant,8.089167,146.741111,FM-YAP,,
-3741526,-5079559,hypsographic,Yiluy,Yiluy,variant,9.468611,138.065833,FM-YAP,,
-3741436,-4973510,hypsographic,"Udidan Pass","Udidan Pass",variant,7.338889,151.569444,FM-TRK,,
-3741434,-5088635,hypsographic,"Uchida To","Uchida To",variant,7.171389,151.948056,FM-TRK,,
-3741621,-5098384,hypsographic,Faliao,Faliao,variant,8.087778,147.635556,FM-YAP,,
-3741442,-4973534,hypsographic,Ulibis,Ulibis,variant,7.339167,151.619722,FM-TRK,,
-3741430,-4973755,hypsographic,Winikeikei,Winikeikei,official,7.314167,151.869444,FM-TRK,,
-3741440,-5088636,hypsographic,Uliperu,Uliperu,variant,7.296667,151.547778,FM-TRK,,
-3741398,-5084034,hypsographic,Wato-To,Wato-To,variant,5.821944,157.353333,FM-PNI,,
-3741483,-4973827,hydrographic,Wudbung,Wudbung,official,9.569444,138.102778,FM-YAP,,
-3741621,-5098382,hypsographic,"Coquille Island","Coquille Island",variant,8.087778,147.635556,FM-YAP,,
-3741531,-5087546,settlement,Inufu,Inufu,variant,9.490833,138.102222,FM-YAP,,
-3741465,-4973801,hypsographic,"Woleai Atoll","Woleai Atoll",official,7.35,143.866667,FM-YAP,,
-3741676,-4973285,settlement,Teate,Teate,variant,6.861389,158.323333,FM-PNI,,
-3741478,-5077061,settlement,Wonpiedi,Wonpiedi,variant,7.383889,151.879167,FM-TRK,,
-3741465,-5087646,hypsographic,"Woleai Islands","Woleai Islands",variant,7.35,143.866667,FM-YAP,,
-3741438,-5074058,hydrographic,"Vinion Durchfahrt","Vinion Durchfahrt",variant,7.236667,152.007222,FM-TRK,,
-3741492,-5098312,hypsographic,Wurur,Wurur,variant,9.558889,138.158611,FM-YAP,,
-3741690,-5074087,hypsographic,Winimor,Winimor,official,7.368611,151.624444,FM-TRK,,
-3741641,-4972248,hypsographic,"Oa Point","Oa Point",variant,6.918056,158.321667,FM-PNI,,
-3741639,-4972138,hydrographic,"Dauen Pakein","Dauen Pakein",official,6.798611,158.194444,FM-PNI,,
-3741509,-4973883,park,Yawal,Yawal,official,5.283333,162.966667,FM-KSA,,
-3741424,-4972931,hypsographic,"Sakaki To","Sakaki To",variant,7.326944,151.843056,FM-TRK,,
-3741417,-5087551,hypsographic,"Mount Vinifei","Mount Vinifei",variant,7.329444,151.632778,FM-TRK,,
-3741449,-4973776,hypsographic,"Oror en Wisenif","Oror en Wisenif",official,7.371667,151.725833,FM-TRK,,
-3741615,-5087474,administrative_region,Malem,Malem,official,5.283333,163.016667,FM-KSA,,
-3741480,-4973821,settlement,Woriiläg,Woriilag,official,9.5825,138.155556,FM-YAP,,
-3741465,-5087645,hypsographic,Ullea,Ullea,variant,7.35,143.866667,FM-YAP,,
-3741473,-5098267,hypsographic,Wone-Onei,Wone-Onei,variant,7.385278,151.599444,FM-TRK,,
-3741501,-4972898,hypsographic,Rull,Rull,variant,9.516667,138.1,FM-YAP,,
-3741423,-4973747,hypsographic,Winifirer,Winifirer,official,7.495,151.903056,FM-TRK,,
-3741641,-4972233,hypsographic,Oa,Oa,variant,6.918056,158.321667,FM-PNI,,
-3741429,-5072864,hypsographic,"Unun en Winikai","Unun en Winikai",variant,7.35,151.783333,FM-TRK,,
-3741501,-5078827,hypsographic,Uyap,Uyap,variant,9.516667,138.1,FM-YAP,,
-3741621,-5098389,hypsographic,Pij,Pij,variant,8.087778,147.635556,FM-YAP,,
-3741460,-4973789,hydrographic,Wiyu,Wiyu,official,5.320833,162.938611,FM-KSA,,
-3741501,-4973864,hypsographic,Yap,Yap,official,9.516667,138.1,FM-YAP,,
-3741547,-4973931,hydrographic,Zowabatu-suidō,Zowabatu-suido,variant,9.848889,139.706667,FM-YAP,,
-3741405,-4973717,hypsographic,Wenasr,Wenasr,official,9.6,138.166667,FM-YAP,,
-3741465,-5087637,hypsographic,Oleei,Oleei,variant,7.35,143.866667,FM-YAP,,
-3741474,-5098268,hypsographic,Wangachug,Wangachug,variant,9.584722,138.121111,FM-YAP,,
-3741487,-5098306,settlement,Ulu,Ulu,variant,9.573333,138.135833,FM-YAP,,
-3741634,-5083685,hydrographic,Foumwa,Foumwa,official,7.406389,151.840833,FM-TRK,,
-3741463,-4972342,hypsographic,Orauna,Orauna,official,9.568889,138.170278,FM-YAP,,
-3741632,-4971961,hypsographic,"Madol Peidi","Madol Peidi",official,6.8375,158.326111,FM-PNI,,
-3741472,-5098264,hydrographic,Oneday,Oneday,variant,9.488611,138.138611,FM-YAP,,
-3741529,-4973908,settlement,Yin,Yin,official,9.580556,138.123333,FM-YAP,,
-3741484,-5098301,settlement,Ugem,Ugem,variant,9.450833,138.069167,FM-YAP,,
-3741477,14163365,hypsographic,Onna,Onna,variant,7.328056,151.947778,FM-TRK,,
-3741515,-4973891,hydrographic,Yelpong,Yelpong,official,5.326389,163.019167,FM-KSA,,
-3741525,-4973904,hypsographic,"Foko Yewak","Foko Yewak",official,5.2925,163.031389,FM-KSA,,
-3741570,-5083157,hypsographic,"Point De Blois","Point De Blois",official,5.352778,163.021389,FM-KSA,,
-3741543,-4973928,hydrographic,"Zoniyarangachieru Passage","Zoniyarangachieru Passage",official,8.393611,137.415,FM-YAP,,
-3741424,-5087169,hypsographic,Winifewuno,Winifewuno,variant,7.326944,151.843056,FM-TRK,,
-3741577,-4970694,hypsographic,Urur,Urur,official,7.654722,151.866944,FM-TRK,,
-3741446,-5074072,hypsographic,Uijec,Uijec,variant,7.162778,151.935833,FM-TRK,,
-3741623,-5088226,hypsographic,Fuinwokaat,Fuinwokaat,variant,5.329722,162.97,FM-KSA,,
-3741475,-4972315,settlement,Onip,Onip,variant,7.331667,151.606667,FM-TRK,,
-3741424,-4973748,hypsographic,Winifouno,Winifouno,official,7.326944,151.843056,FM-TRK,,
-3741625,-5089948,hydrographic,"Middle Reef","Middle Reef",variant,5.333333,163.033333,FM-KSA,,
-3741434,-4973762,hypsographic,Wininen,Wininen,official,7.171389,151.948056,FM-TRK,,
-3741490,-5098310,spot,Wuppa’,Wuppa',variant,9.516667,138.083333,FM-YAP,,
-3741623,-5074090,hypsographic,Mertens,Mertens,official,5.329722,162.97,FM-KSA,,
-3741446,-5074070,hypsographic,"Uji To","Uji To",variant,7.162778,151.935833,FM-TRK,,
-3741504,-4973875,hypsographic,Yareruwachichi,Yareruwachichi,official,10.066667,139.65,FM-YAP,,
-3741562,-4972249,settlement,Oarmoar,Oarmoar,variant,6.935278,158.168056,FM-PNI,,
-3741501,-4973869,hypsographic,"Yap Island","Yap Island",variant,9.516667,138.1,FM-YAP,,
-3741503,-4973868,hypsographic,"Yap Group","Yap Group",variant,9.533333,138.133333,FM-YAP,,
-3741441,-4973665,park,Vinepis,Vinepis,variant,7.45,151.883333,FM-TRK,,
-3741611,-5071672,hydrographic,"Lot Harbor","Lot Harbor",variant,6.795833,158.297222,FM-PNI,,
-3741464,-5096621,hypsographic,Mereyon,Mereyon,variant,7.375556,143.913889,FM-YAP,,
-3741708,-4973832,hypsographic,Wúneyiro,Wuneyiro,variant,7.369722,151.718056,FM-TRK,,
-3741471,-4973811,hypsographic,Wonachaw,Wonachaw,official,7.366944,151.7275,FM-TRK,,
-3741502,14097906,administrative_region,Yap,Yap,official,9,142,FM-YAP,,
-3741438,-5074054,hydrographic,"Sara Jima Suido","Sara Jima Suido",variant,7.236667,152.007222,FM-TRK,,
-3741491,-4973841,hypsographic,Wuruq,Wuruq,official,9.536111,138.131389,FM-YAP,,
-3741633,-4972005,settlement,Nanukum,Nanukum,variant,6.966667,158.216667,FM-PNI,,
-3741453,-4973782,hydrographic,Witon,Witon,official,7.591667,151.689444,FM-TRK,,
-3741472,-5098262,hydrographic,Woneday,Woneday,variant,9.488611,138.138611,FM-YAP,,
-3741493,-5098313,hypsographic,Wief,Wief,variant,9.55,138.15,FM-YAP,,
-3741474,-5098269,hypsographic,Wongachug,Wongachug,variant,9.584722,138.121111,FM-YAP,,
-3741615,-5087475,administrative_region,"Malem Municipality","Malem Municipality",variant,5.283333,163.016667,FM-KSA,,
-3741491,-5098311,hypsographic,Wuru,Wuru,variant,9.536111,138.131389,FM-YAP,,
-3741440,-5088638,hypsographic,"Uliberu Island","Uliberu Island",variant,7.296667,151.547778,FM-TRK,,
-3741512,-4970127,hydrographic,Mutokku-ko,Mutokku-ko,variant,6.764722,158.270833,FM-PNI,,
-3741500,-4973860,hypsographic,Yannechiki,Yannechiki,official,8.3025,137.505833,FM-YAP,,
-3741399,-5084035,hypsographic,Uat,Uat,official,9.533333,138.116667,FM-YAP,,
-3741531,-4973910,settlement,Yinuuf,Yinuuf,official,9.490833,138.102222,FM-YAP,,
-3741501,-5085414,hypsographic,Yapa,Yapa,variant,9.516667,138.1,FM-YAP,,
-3741629,-4971928,hydrographic,"Mwo’o’cun Anaw","Mwo'o'cun Anaw",variant,7.541111,151.636389,FM-TRK,,
-3741499,-4973856,hypsographic,Yangëy,Yangey,official,9.551944,138.195833,FM-YAP,,
-3741607,-4979305,hypsographic,"Point Lejeune","Point Lejeune",official,5.3,163.033333,FM-KSA,,
-3741501,-5078823,hypsographic,Heap,Heap,variant,9.516667,138.1,FM-YAP,,
-3741434,-5088631,hypsographic,Uchida-shima,Uchida-shima,variant,7.171389,151.948056,FM-TRK,,
-3741497,-4973850,hydrographic,Yagirigare,Yagirigare,official,9.933333,139.616667,FM-YAP,,
-3741503,-5085417,hypsographic,Guap,Guap,variant,9.533333,138.133333,FM-YAP,,
-3741512,-4970120,hydrographic,"Mudok Harbor","Mudok Harbor",official,6.764722,158.270833,FM-PNI,,
-3741412,-4973733,hydrographic,"West Pass","West Pass",variant,7.555556,155.159444,FM-PNI,,
-3741403,-4973721,hypsographic,"Weniot Island","Weniot Island",variant,8.616667,150.366667,FM-TRK,,
-3741407,-5087402,hypsographic,Moenn,Moenn,variant,7.441111,151.853333,FM-TRK,,
-3741443,-4973589,hypsographic,Unipot,Unipot,variant,7.293611,151.821667,FM-TRK,,
-3741621,-5098393,hypsographic,Pihg,Pihg,variant,8.087778,147.635556,FM-YAP,,
-3741653,-5085806,hypsographic,"Lele Point","Lele Point",official,5.346667,163.028611,FM-KSA,,
-3741582,-5079242,hydrographic,"Falasit Reef","Falasit Reef",variant,7.174167,151.843333,FM-TRK,,
-3741631,-5087383,hydrographic,Gosta’,Gosta',variant,9.510556,138.150833,FM-YAP,,
-3741401,-4973707,settlement,Weach,Weach,official,9.618333,138.165278,FM-YAP,,
-3741520,-4971677,settlement,Matanluk,Matanluk,variant,5.340833,163.031111,FM-KSA,,
-3741441,-4973588,park,Unipis,Unipis,variant,7.45,151.883333,FM-TRK,,
-3741427,-5072863,hypsographic,"Vinifauren Ridge","Vinifauren Ridge",variant,7.443611,151.855556,FM-TRK,,
-3741433,-4973578,hypsographic,Unimas,Unimas,variant,7.301389,151.879444,FM-TRK,,
-3741625,-4971778,hydrographic,Mittel-riff,Mittel-riff,variant,5.333333,163.033333,FM-KSA,,
-3741529,-5087540,settlement,Yuin,Yuin,variant,9.580556,138.123333,FM-YAP,,
-3741595,-5084058,hydrographic,Ekaafuto,Ekaafuto,official,5.350556,162.954444,FM-KSA,,
-3741446,-5074069,hypsographic,Uilek,Uilek,variant,7.162778,151.935833,FM-TRK,,
-3741556,-4973031,hypsographic,Shiraau,Shiraau,variant,5.315278,162.980556,FM-KSA,,
-3741417,-4973738,hypsographic,Wichuk,Wichuk,official,7.329444,151.632778,FM-TRK,,
-3741421,-4973739,settlement,Wichukuna,Wichukuna,variant,7.333333,151.65,FM-TRK,,
-3741465,-5087652,hypsographic,Unney,Unney,variant,7.35,143.866667,FM-YAP,,
-3741555,-5071740,settlement,"Enipeihn Powe","Enipeihn Powe",official,6.811111,158.223611,FM-PNI,,
-3741562,-5086777,settlement,Oaunoar,Oaunoar,variant,6.935278,158.168056,FM-PNI,,
-3741454,-5037375,hypsographic,Witan,Witan,variant,7.383889,151.708333,FM-TRK,,
-3741582,-5071733,hydrographic,Ochofat,Ochofat,official,7.174167,151.843333,FM-TRK,,
-3741636,-4972037,settlement,Neipeima,Neipeima,variant,6.966667,158.216667,FM-PNI,,
-3741691,-4973743,settlement,Winakapi,Winakapi,variant,7.333333,151.556667,FM-TRK,,
-3741467,-4973803,hypsographic,Wol’fangöl,Wol'fangol,official,9.541111,138.133889,FM-YAP,,
-3741419,-4970793,hypsographic,Faitruk-Berg,Faitruk-Berg,variant,7.35,151.666667,FM-TRK,,
-3741508,-4973880,hydrographic,Yaruguchieru,Yaruguchieru,official,9.816667,139.683333,FM-YAP,,
-3741462,-4973798,hypsographic,"Wolauna Island","Wolauna Island",variant,6.826667,157.918889,FM-PNI,,
-3741507,-4973879,hydrographic,Yariregu,Yariregu,official,9.95,139.683333,FM-YAP,,
-3741621,-5098380,hypsographic,"Pikelot Island","Pikelot Island",variant,8.087778,147.635556,FM-YAP,,
-3741562,-5086776,settlement,Aumar,Aumar,variant,6.935278,158.168056,FM-PNI,,
-3741406,-5087395,hypsographic,"Olei Island","Olei Island",variant,7.295,151.526944,FM-TRK,,
-3741482,-5087375,settlement,Wurwo’,Wurwo',variant,9.509167,138.128333,FM-YAP,,
-3741709,-5098373,hypsographic,Motanrikku,Motanrikku,variant,5.333333,163.028889,FM-KSA,,
-3741419,-4973741,hypsographic,Wichukuno,Wichukuno,official,7.35,151.666667,FM-TRK,,
-3741432,-5087142,hypsographic,"Vinimas Berg","Vinimas Berg",variant,7.3375,151.588889,FM-TRK,,
-3741424,-5087166,hypsographic,"Farther Rock Place","Farther Rock Place",variant,7.326944,151.843056,FM-TRK,,
-3741576,-5085798,hypsographic,"D’Urville Spitze","D'Urville Spitze",variant,5.329722,163.034444,FM-KSA,,
-3741407,-4973794,hypsographic,Wola,Wola,variant,7.441111,151.853333,FM-TRK,,
-3741576,-4970678,hypsographic,"D’Vrville Point","D'Vrville Point",variant,5.329722,163.034444,FM-KSA,,
-3741469,-4973807,hypsographic,"Wolomwin Island","Wolomwin Island",variant,7.054722,157.830833,FM-PNI,,
-3741531,-5087547,settlement,Yunuf,Yunuf,variant,9.490833,138.102222,FM-YAP,,
-3741482,-4973822,settlement,Worowa,Worowa,variant,9.509167,138.128333,FM-YAP,,
-3741556,-4973691,hypsographic,Walang,Walang,variant,5.315278,162.980556,FM-KSA,,
-3741682,-5088625,settlement,Moen,Moen,variant,7.445833,151.85,FM-TRK,,
-3741471,-4973809,hypsographic,Wonachau,Wonachau,variant,7.366944,151.7275,FM-TRK,,
-3741582,-5079245,hydrographic,"Fealeasicz Reef","Fealeasicz Reef",variant,7.174167,151.843333,FM-TRK,,
-3741503,-5087624,hypsographic,Yappu-tō,Yappu-to,variant,9.533333,138.133333,FM-YAP,,
-3741447,-5074066,hypsographic,Uji,Uji,variant,7.368611,151.875833,FM-TRK,,
-3741573,-4973436,hypsographic,"Toremaraui Mountain","Toremaraui Mountain",variant,6.88,158.264444,FM-PNI,,
-3741708,-5074080,hypsographic,Uneiro,Uneiro,official,7.369722,151.718056,FM-TRK,,
-3741616,-4971597,settlement,Pelusrik,Pelusrik,official,5.4,162.963611,FM-KSA,,
-3741414,-5079230,hypsographic,"West Fayu Island","West Fayu Island",official,8.089167,146.741111,FM-YAP,,
-3741464,-5096626,hypsographic,"Insel Flalap","Insel Flalap",variant,7.375556,143.913889,FM-YAP,,
-3741484,-4973828,settlement,Wugeem,Wugeem,official,9.450833,138.069167,FM-YAP,,
-3741452,-5074078,hypsographic,Wiiton,Wiiton,variant,7.291667,151.875278,FM-TRK,,
-3741534,-5087548,hypsographic,Yogaay,Yogaay,variant,9.547778,138.106389,FM-YAP,,
-3741556,-4971380,hypsographic,Kusae-To,Kusae-To,variant,5.315278,162.980556,FM-KSA,,
-3741556,-5065038,hypsographic,"Kosrae Island","Kosrae Island",variant,5.315278,162.980556,FM-KSA,,
-3741439,-5074057,hypsographic,Vinien,Vinien,variant,7.357778,151.851944,FM-TRK,,
-3741494,-4973846,spot,"Xavier High School","Xavier High School",official,7.445,151.883889,FM-TRK,,
-3741444,-4973666,settlement,Vinibau,Vinibau,variant,7.4075,151.661389,FM-TRK,,
-3741584,-5089956,settlement,Hala,Hala,variant,5.329444,162.944444,FM-KSA,,
-3741402,-4970797,hypsographic,Fal,Fal,official,9.6,138.183333,FM-YAP,,
-3741450,-4973786,hypsographic,Witynokis,Witynokis,variant,7.440556,151.866111,FM-TRK,,
-3741438,-5074051,hydrographic,"Mat Ruk I Salat","Mat Ruk I Salat",variant,7.236667,152.007222,FM-TRK,,
-3741556,-4971384,hypsographic,Kuseie,Kuseie,variant,5.315278,162.980556,FM-KSA,,
-3741562,-4972251,settlement,Oaumoar,Oaumoar,variant,6.935278,158.168056,FM-PNI,,
-3741470,-4973810,hypsographic,Wonachaw,Wonachaw,official,7.357222,151.626667,FM-TRK,,
-3741473,-4973813,hypsographic,Wonei,Wonei,official,7.385278,151.599444,FM-TRK,,
-3741451,-4973779,hypsographic,Witipon,Witipon,official,7.440556,151.866111,FM-TRK,,
-3741401,-4973515,settlement,Uenfra,Uenfra,variant,9.618333,138.165278,FM-YAP,,
-3741520,-4973898,settlement,Yepan,Yepan,official,5.340833,163.031111,FM-KSA,,
-3741573,-4970635,hypsographic,Dolmerewi,Dolmerewi,variant,6.88,158.264444,FM-PNI,,
-3741450,-5074075,hypsographic,Witipwon,Witipwon,official,7.440556,151.866111,FM-TRK,,
-3741406,-4973718,hypsographic,Wenchaw,Wenchaw,official,7.295,151.526944,FM-TRK,,
-3741448,-4973671,spot,Vitoton,Vitoton,official,7.322778,151.6225,FM-TRK,,
-3741398,-4973703,hypsographic,Wat,Wat,official,5.821944,157.353333,FM-PNI,,
-3741454,-4973783,hypsographic,Witonap,Witonap,official,7.383889,151.708333,FM-TRK,,
-3741433,-5074095,hypsographic,"Berg Ulivar","Berg Ulivar",official,7.301389,151.879444,FM-TRK,,
-3741641,-5086193,hypsographic,"Cape Oa","Cape Oa",official,6.918056,158.321667,FM-PNI,,
-3741442,-5089261,hypsographic,Viniboat,Viniboat,variant,7.339167,151.619722,FM-TRK,,
-3741611,-5071676,hydrographic,"Ponatik Einfahrt","Ponatik Einfahrt",variant,6.795833,158.297222,FM-PNI,,
-3741430,-5072865,hypsographic,Winikeyikey,Winikeyikey,variant,7.314167,151.869444,FM-TRK,,
-3741556,-4972808,hypsographic,Quolan,Quolan,variant,5.315278,162.980556,FM-KSA,,
-3741635,-4972033,hydrographic,"Mae Shoal","Mae Shoal",official,5.330556,153.733611,FM-TRK,,
-3741556,-4970358,hypsographic,Armstrong,Armstrong,variant,5.315278,162.980556,FM-KSA,,
-3741615,-5098379,administrative_region,Mechlwem,Mechlwem,variant,5.283333,163.016667,FM-KSA,,
-3741500,-4973859,hypsographic,Yannechiiki-To,Yannechiiki-To,variant,8.3025,137.505833,FM-YAP,,
-3741474,-4973814,hypsographic,Wongaachug,Wongaachug,official,9.584722,138.121111,FM-YAP,,
-3741479,-5098271,hypsographic,Wuror,Wuror,variant,9.536111,138.112222,FM-YAP,,
-3741480,-5098296,settlement,Uvilee,Uvilee,variant,9.5825,138.155556,FM-YAP,,
-3741432,-4973757,hypsographic,"Unun en Winikot","Unun en Winikot",official,7.3375,151.588889,FM-TRK,,
-3741503,-4973865,hypsographic,Yap,Yap,official,9.533333,138.133333,FM-YAP,,
-3741490,-4973840,spot,Wup’paaq,Wup'paaq,official,9.516667,138.083333,FM-YAP,,
-3741464,-5096625,hypsographic,Anangai,Anangai,variant,7.375556,143.913889,FM-YAP,,
-3741442,-5089262,hypsographic,"Yumital Berg","Yumital Berg",variant,7.339167,151.619722,FM-TRK,,
-3741638,-5072820,hypsographic,"Nigaruyaru Island","Nigaruyaru Island",variant,8.606389,144.534444,FM-YAP,,
-3741489,-4973835,hypsographic,Wunuun’,Wunuun',official,9.549167,138.130278,FM-YAP,,
-3741629,-5074147,hydrographic,"Mwoocun Anaw","Mwoocun Anaw",variant,7.541111,151.636389,FM-TRK,,
-3741541,-5043286,hydrographic,Zohhoiiyoru,Zohhoiiyoru,variant,9.870833,139.9575,FM-YAP,,
-3741621,-5098387,hypsographic,Pigelot,Pigelot,variant,8.087778,147.635556,FM-YAP,,
-3741626,-5074109,settlement,Muanun,Muanun,variant,7.375,151.881667,FM-TRK,,
-3741672,-5079552,settlement,Tabnifiy,Tabnifiy,official,9.468611,138.076111,FM-YAP,,
-3741401,-4973710,settlement,Weenfaraq,Weenfaraq,official,9.618333,138.165278,FM-YAP,,
-3741413,-4972149,hypsographic,Nishi,Nishi,variant,8.088889,146.728611,FM-YAP,,
-3741438,-4972923,hydrographic,Sabotiu,Sabotiu,variant,7.236667,152.007222,FM-TRK,,
-3741691,-4972289,settlement,"Cap Oligabi","Cap Oligabi",variant,7.333333,151.556667,FM-TRK,,
-3741468,-4973804,hypsographic,Wol’maed,Wol'maed,official,9.552778,138.150278,FM-YAP,,
-3741440,-4973768,hypsographic,Winipiru,Winipiru,official,7.296667,151.547778,FM-TRK,,
-3741401,-4973516,settlement,Uenfura,Uenfura,variant,9.618333,138.165278,FM-YAP,,
-3741438,-5074050,hydrographic,Kiisanat,Kiisanat,variant,7.236667,152.007222,FM-TRK,,
-3741653,-4972419,hypsographic,"Palm Point","Palm Point",variant,5.346667,163.028611,FM-KSA,,
-3741621,-5098385,hypsographic,Lydia,Lydia,variant,8.087778,147.635556,FM-YAP,,
-3741480,-5098295,settlement,Vorile,Vorile,variant,9.5825,138.155556,FM-YAP,,
-3741496,-4973848,settlement,Yabach,Yabach,official,9.496389,138.074167,FM-YAP,,
-3741407,-5087398,hypsographic,"Uola Insel","Uola Insel",variant,7.441111,151.853333,FM-TRK,,
-3741487,-5098307,settlement,Wuluu,Wuluu,variant,9.573333,138.135833,FM-YAP,,
-3741676,-5065036,settlement,Diadi,Diadi,official,6.861389,158.323333,FM-PNI,,
-3741465,-5087643,hypsographic,Uleai,Uleai,variant,7.35,143.866667,FM-YAP,,
-3741424,-5087168,hypsographic,Vinifoula,Vinifoula,variant,7.326944,151.843056,FM-TRK,,
-3741452,-5074076,hypsographic,"Mount Vidon","Mount Vidon",variant,7.291667,151.875278,FM-TRK,,
-3741502,-4973867,administrative_region,"Yap District","Yap District",variant,9,142,FM-YAP,,
-3741556,-4970783,hypsographic,Experiment,Experiment,variant,5.315278,162.980556,FM-KSA,,
-3741446,-5074071,hypsographic,Uisas,Uisas,variant,7.162778,151.935833,FM-TRK,,
-3741522,-4973901,hydrographic,"Foko Yeseng","Foko Yeseng",official,5.274722,163.0225,FM-KSA,,
-3741516,-4973892,park,Yemulil,Yemulil,official,5.283333,162.9,FM-KSA,,
-3741421,-4973745,settlement,Winifei,Winifei,official,7.333333,151.65,FM-TRK,,
-3741556,-4971385,hypsographic,Kussai,Kussai,variant,5.315278,162.980556,FM-KSA,,
-3741416,-4972152,hydrographic,Nishi-Suido,Nishi-Suido,variant,8.305556,137.4825,FM-YAP,,
-3741421,-4973568,settlement,Unifei,Unifei,variant,7.333333,151.65,FM-TRK,,
-3741562,-4970393,settlement,Aumoar,Aumoar,variant,6.935278,158.168056,FM-PNI,,
-3741480,-4972345,settlement,Orila,Orila,variant,9.5825,138.155556,FM-YAP,,
-3741673,-4973150,spot,Tabithow,Tabithow,short,9.584444,138.193889,FM-YAP,,
-3741479,-4973820,hypsographic,Woraed,Woraed,official,9.536111,138.112222,FM-YAP,,
-3741419,-4973740,hypsographic,Wichukuno,Wichukuno,official,7.35,151.666667,FM-TRK,,
-3741423,-4972925,hypsographic,"Cape Sabuk","Cape Sabuk",variant,7.495,151.903056,FM-TRK,,
-3741556,-4972809,hypsographic,"Quollen Island","Quollen Island",variant,5.315278,162.980556,FM-KSA,,
-3741436,-5079562,hypsographic,"Legilim Berg","Legilim Berg",official,7.338889,151.569444,FM-TRK,,
-3741434,-4973761,hypsographic,Winimor,Winimor,official,7.171389,151.948056,FM-TRK,,
-3741465,-5087636,hypsographic,Wolea,Wolea,variant,7.35,143.866667,FM-YAP,,
-3741573,-5085812,hypsographic,"Dolen Merewi","Dolen Merewi",official,6.88,158.264444,FM-PNI,,
-3741530,-5087544,hydrographic,Yinbinaw,Yinbinaw,variant,9.608889,138.168889,FM-YAP,,
-3741672,-4973131,settlement,Tabunifi,Tabunifi,variant,9.468611,138.076111,FM-YAP,,
-3741407,-5087394,hypsographic,Welen,Welen,variant,7.441111,151.853333,FM-TRK,,
-3741465,19801277,hypsographic,Woleai,Woleai,official,7.35,143.866667,FM-YAP,,
-3741485,-4973829,hypsographic,Wul,Wul,official,9.521389,138.104444,FM-YAP,,
-3741438,-5074056,hydrographic,"Ulion Pass","Ulion Pass",variant,7.236667,152.007222,FM-TRK,,
-3741440,-4973538,hypsographic,"Uliperu Island","Uliperu Island",variant,7.296667,151.547778,FM-TRK,,
-3741408,-5087400,hydrographic,Iros,Iros,official,5.323611,163.027778,FM-KSA,,
-3741569,-5052529,hypsographic,Deahna,Deahna,official,3.827778,154.968333,FM-PNI,,
-3741501,-5078824,hypsographic,Ouap,Ouap,variant,9.516667,138.1,FM-YAP,,
-3741584,-5089957,settlement,Jola,Jola,variant,5.329444,162.944444,FM-KSA,,
-3741412,-4973728,hydrographic,"West Channel","West Channel",official,7.555556,155.159444,FM-PNI,,
-3741625,-5089947,hydrographic,Eripou,Eripou,official,5.333333,163.033333,FM-KSA,,
-3741565,-4972521,hypsographic,Pesin,Pesin,variant,5.338333,163.019167,FM-KSA,,
-3741438,-4972938,hydrographic,"Salat Passage","Salat Passage",variant,7.236667,152.007222,FM-TRK,,
-3741586,-4971068,hypsographic,"Fukuri Point","Fukuri Point",variant,5.333333,163.025833,FM-KSA,,
-3741582,-5079244,hydrographic,Fanaasic,Fanaasic,variant,7.174167,151.843333,FM-TRK,,
-3741464,-4973799,hypsographic,Wol’barach,Wol'barach,official,7.375556,143.913889,FM-YAP,,
-3741410,-4972151,hypsographic,Nishi-Misake,Nishi-Misake,variant,8.588333,149.656667,FM-TRK,,
-3741412,-4973727,hydrographic,"West Channel","West Channel",official,7.555556,155.159444,FM-PNI,,
-3741534,-4973914,hypsographic,Yoogoy,Yoogoy,official,9.547778,138.106389,FM-YAP,,
-3741570,-4971163,hypsographic,"Grosses Kap","Grosses Kap",variant,5.352778,163.021389,FM-KSA,,
-3741477,-4972317,hypsographic,"Onna Island","Onna Island",variant,7.328056,151.947778,FM-TRK,,
-3741403,-4973720,hypsographic,Weniot,Weniot,variant,8.616667,150.366667,FM-TRK,,
-3741435,-5088633,hydrographic,Uliden,Uliden,variant,7.169444,151.945,FM-TRK,,
-3741473,-5098266,hypsographic,Woney,Woney,variant,7.385278,151.599444,FM-TRK,,
-3741556,-4970354,hypsographic,Arao,Arao,variant,5.315278,162.980556,FM-KSA,,
-3741500,-4973861,hypsographic,"Yannechiki Island","Yannechiki Island",variant,8.3025,137.505833,FM-YAP,,
-3741433,-4973585,hypsographic,"Mount Unimor","Mount Unimor",variant,7.301389,151.879444,FM-TRK,,
-3741438,-5074055,hydrographic,Sarashima-suidō,Sarashima-suido,variant,7.236667,152.007222,FM-TRK,,
-3741556,-4971387,hypsographic,Kuthiu,Kuthiu,variant,5.315278,162.980556,FM-KSA,,
-3741429,-4973754,hypsographic,"Unun en Winikei","Unun en Winikei",official,7.35,151.783333,FM-TRK,,
-3741446,-4973773,hypsographic,"Oror en Wirong","Oror en Wirong",official,7.162778,151.935833,FM-TRK,,
-3741631,-4971958,hydrographic,Goostaa,Goostaa,official,9.510556,138.150833,FM-YAP,,
-3741465,-5087639,hypsographic,Olnea,Olnea,variant,7.35,143.866667,FM-YAP,,
-3741556,-4972368,hypsographic,"Island of Oualan","Island of Oualan",variant,5.315278,162.980556,FM-KSA,,
-3741521,-4973900,park,Yeseng,Yeseng,official,5.276944,163.011111,FM-KSA,,
-3741667,-5083678,settlement,Sapata,Sapata,official,7.344444,151.843056,FM-TRK,,
-3741407,-4971803,hypsographic,"Moen Island","Moen Island",variant,7.441111,151.853333,FM-TRK,,
-3741465,-5087641,hypsographic,Oulevai,Oulevai,variant,7.35,143.866667,FM-YAP,,
-3741556,-4973501,hypsographic,Ualang,Ualang,variant,5.315278,162.980556,FM-KSA,,
-3741469,-4973806,hypsographic,Wolomwin,Wolomwin,official,7.054722,157.830833,FM-PNI,,
-3741565,-4972644,hypsographic,Pisin,Pisin,variant,5.338333,163.019167,FM-KSA,,
-3741670,-5087384,hydrographic,Rukoy,Rukoy,variant,9.633333,138.145556,FM-YAP,,
-3741556,-4971382,hypsographic,"Insel Kusaie","Insel Kusaie",variant,5.315278,162.980556,FM-KSA,,
-3741446,-5074068,hypsographic,Uijas,Uijas,variant,7.162778,151.935833,FM-TRK,,
-3741489,-5098308,hypsographic,Wunun,Wunun,variant,9.549167,138.130278,FM-YAP,,
-3741541,-4973925,hydrographic,"Zohhoiiyoru Bank","Zohhoiiyoru Bank",official,9.870833,139.9575,FM-YAP,,
-3741544,-4970653,hydrographic,Doroppu-Suido,Doroppu-Suido,variant,8.3675,137.465833,FM-YAP,,
-3741621,-5098383,hypsographic,Bigali,Bigali,variant,8.087778,147.635556,FM-YAP,,
-3741420,-4973737,settlement,Wichuk,Wichuk,variant,7.35,151.616667,FM-TRK,,
-3741503,-5078829,hypsographic,Yapa,Yapa,variant,9.533333,138.133333,FM-YAP,,
-3741565,-5085807,hypsographic,"Bezin Point","Bezin Point",official,5.338333,163.019167,FM-KSA,,
-3741465,-5087640,hypsographic,Ouleai,Ouleai,variant,7.35,143.866667,FM-YAP,,
-3741503,-4973870,hypsographic,"Yap Island","Yap Island",variant,9.533333,138.133333,FM-YAP,,
-3741514,-5079561,spot,"Kosrae Airport","Kosrae Airport",short,5.3675,162.976389,FM-KSA,,
-3741518,-4973894,hypsographic,"Yenas Island","Yenas Island",variant,5.338611,163.023889,FM-KSA,,
-3741634,-4972019,hydrographic,"Unun en Neauwo","Unun en Neauwo",variant,7.406389,151.840833,FM-TRK,,
-3741542,-4973926,hydrographic,"Zoniparegoku Passage","Zoniparegoku Passage",official,8.4,137.376667,FM-YAP,,
-3741407,-4973795,hypsographic,"Wola Haru","Wola Haru",variant,7.441111,151.853333,FM-TRK,,
-3741406,-4972283,hypsographic,"Olel Island","Olel Island",variant,7.295,151.526944,FM-TRK,,
-3741435,-5071736,hydrographic,"Tukomat Pass","Tukomat Pass",variant,7.169444,151.945,FM-TRK,,
-3741403,-4973519,hypsographic,Uerunijato,Uerunijato,variant,8.616667,150.366667,FM-TRK,,
-3741709,-5085805,hypsographic,"Yepan Point","Yepan Point",official,5.333333,163.028889,FM-KSA,,
-3741501,-5078826,hypsographic,Unawb,Unawb,variant,9.516667,138.1,FM-YAP,,
-3741424,-5087170,hypsographic,Winifourer,Winifourer,variant,7.326944,151.843056,FM-TRK,,
-3741428,-5087171,hypsographic,Winifourer,Winifourer,official,7.355556,151.610278,FM-TRK,,
-3741477,-4973817,hypsographic,Wönnö,Wonno,variant,7.328056,151.947778,FM-TRK,,
-3741465,-5087647,hypsographic,"Wolea Inseln","Wolea Inseln",variant,7.35,143.866667,FM-YAP,,
-3741556,-4971386,hypsographic,Kussiu,Kussiu,variant,5.315278,162.980556,FM-KSA,,
-3741571,-4970621,hydrographic,"Dauen Angesek","Dauen Angesek",official,7.35,151.6,FM-PNI,,
-3741636,-5071693,settlement,Nipeimei,Nipeimei,short,6.966667,158.216667,FM-PNI,,
-3741546,-4973934,hydrographic,"Zowariyoru Channel","Zowariyoru Channel",official,9.856944,139.635556,FM-YAP,,
-3741406,14163375,hypsographic,Olel,Olel,variant,7.295,151.526944,FM-TRK,,
-3741424,-4970622,hypsographic,Djukusamau,Djukusamau,variant,7.326944,151.843056,FM-TRK,,
-3741438,-5074052,hydrographic,"Salat Pass","Salat Pass",variant,7.236667,152.007222,FM-TRK,,
-3741503,-5072843,hypsographic,Waqab,Waqab,variant,9.533333,138.133333,FM-YAP,,
-3741432,-5087141,hypsographic,Lemunufau,Lemunufau,variant,7.3375,151.588889,FM-TRK,,
-3741441,-5088637,park,Ō-iwa,O-iwa,variant,7.45,151.883333,FM-TRK,,
-3741427,-4973752,hypsographic,Winifouror,Winifouror,official,7.443611,151.855556,FM-TRK,,
-3741562,-4970392,settlement,Aumaru,Aumaru,variant,6.935278,158.168056,FM-PNI,,
-3741556,-4972806,hypsographic,Qualan,Qualan,variant,5.315278,162.980556,FM-KSA,,
-3741565,-4970448,hypsographic,Besin,Besin,variant,5.338333,163.019167,FM-KSA,,
-3741423,-4972943,hypsographic,"Sand Island","Sand Island",variant,7.495,151.903056,FM-TRK,,
-3741507,-4973878,hydrographic,Yarireegu,Yarireegu,variant,9.95,139.683333,FM-YAP,,
-3741450,-4973661,hypsographic,Vidiboen,Vidiboen,variant,7.440556,151.866111,FM-TRK,,
-3741626,-5074110,settlement,Muanon,Muanon,official,7.375,151.881667,FM-TRK,,
-3741582,-4970814,hydrographic,"Faleasioz Reef","Faleasioz Reef",variant,7.174167,151.843333,FM-TRK,,
-3741438,-5074059,hydrographic,Winiyon,Winiyon,variant,7.236667,152.007222,FM-TRK,,
-3741570,-4970596,hypsographic,"De Blois Spitze","De Blois Spitze",variant,5.352778,163.021389,FM-KSA,,
-3741556,-4971379,hypsographic,Kusae,Kusae,variant,5.315278,162.980556,FM-KSA,,
-3741547,-4973937,hydrographic,Zowatabu-Suido,Zowatabu-Suido,variant,9.848889,139.706667,FM-YAP,,
-3741623,-5087362,hypsographic,"Sono Peak","Sono Peak",variant,5.329722,162.97,FM-KSA,,
-3741417,-5087552,hypsographic,"Berg Vinifei","Berg Vinifei",variant,7.329444,151.632778,FM-TRK,,
-3741441,-4973769,park,Winipis,Winipis,official,7.45,151.883333,FM-TRK,,
-3741407,-5087401,hypsographic,Wono,Wono,variant,7.441111,151.853333,FM-TRK,,
-3741498,-4973852,hydrographic,"Yagura Shoal","Yagura Shoal",official,5.373611,153.634722,FM-TRK,,
-3741562,-5086775,settlement,Oumoar,Oumoar,official,6.935278,158.168056,FM-PNI,,
-3741434,-4973509,hypsographic,"Udidan Island","Udidan Island",variant,7.171389,151.948056,FM-TRK,,
-3741506,-4973877,hydrographic,Yarigon,Yarigon,official,9.9,139.616667,FM-YAP,,
-3741527,-4973906,spot,Yimuch,Yimuch,official,9.516667,138.166667,FM-YAP,,
-3741611,-5071679,hydrographic,"Kapidau En Lohd","Kapidau En Lohd",variant,6.795833,158.297222,FM-PNI,,
-3741456,-4973784,hypsographic,Witunumo,Witunumo,official,7.45,151.866667,FM-TRK,,
-3741573,-5085809,hypsographic,"Dollen Merewi","Dollen Merewi",variant,6.88,158.264444,FM-PNI,,
-3741471,-4973009,hypsographic,Sele,Sele,variant,7.366944,151.7275,FM-TRK,,
-3741626,-4971830,settlement,Moron,Moron,variant,7.375,151.881667,FM-TRK,,
-3741612,-4971540,hydrographic,"Dauen Pahnseiuh","Dauen Pahnseiuh",official,6.804167,158.201389,FM-PNI,,
-3741465,-5087642,hypsographic,Ulea,Ulea,variant,7.35,143.866667,FM-YAP,,
-3741576,-4970674,hypsographic,"Duperrey Spitze","Duperrey Spitze",variant,5.329722,163.034444,FM-KSA,,
-3741621,-5098390,hypsographic,Pikela,Pikela,variant,8.087778,147.635556,FM-YAP,,
-3741487,-5098305,settlement,Wulu’,Wulu',variant,9.573333,138.135833,FM-YAP,,
-3741503,-5078830,hypsographic,Jap-Insel,Jap-Insel,variant,9.533333,138.133333,FM-YAP,,
-3741407,-5087397,hypsographic,"Spring Island","Spring Island",variant,7.441111,151.853333,FM-TRK,,
-3741398,-4973706,hypsographic,"Wat Island","Wat Island",variant,5.821944,157.353333,FM-PNI,,
-3741464,-5096622,hypsographic,Ouleai,Ouleai,variant,7.375556,143.913889,FM-YAP,,
-3741482,-5098298,settlement,Woruworu,Woruworu,variant,9.509167,138.128333,FM-YAP,,
-3741556,-4971381,hypsographic,Kusaie,Kusaie,variant,5.315278,162.980556,FM-KSA,,
-3741540,-4973923,hydrographic,"Zau Channel","Zau Channel",official,9.938611,139.681111,FM-YAP,,
-3741520,-5084016,settlement,Lejut,Lejut,variant,5.340833,163.031111,FM-KSA,,
-3741631,-5087382,hydrographic,Goostaaq,Goostaaq,variant,9.510556,138.150833,FM-YAP,,
-3741533,-4973912,hypsographic,Yogoroporapu,Yogoroporapu,official,10.079444,139.751667,FM-YAP,,
-3741500,-4973862,hypsographic,Yannechiki-To,Yannechiki-To,variant,8.3025,137.505833,FM-YAP,,
-3741420,-4973742,settlement,Wichukuno,Wichukuno,official,7.35,151.616667,FM-TRK,,
-3741479,-5098272,hypsographic,Worad,Worad,variant,9.536111,138.112222,FM-YAP,,
-3741709,-4973899,hypsographic,"Yepan Spitze","Yepan Spitze",variant,5.333333,163.028889,FM-KSA,,
-3741510,-4973885,settlement,Yekula,Yekula,official,5.366389,163.003889,FM-KSA,,
-3741517,-4973893,hydrographic,"Infal Yemulil","Infal Yemulil",official,5.266667,162.9,FM-KSA,,
-3741462,-4973793,hypsographic,Wogölk’aed,Wogolk'aed,official,6.826667,157.918889,FM-PNI,,
-3741618,-4971670,hydrographic,Nankoaros,Nankoaros,official,6.802778,158.15,FM-PNI,,
-3741494,-5098315,spot,"Saint Xaviers Academy","Saint Xaviers Academy",variant,7.445,151.883889,FM-TRK,,
-3741480,-5098294,settlement,Orile,Orile,variant,9.5825,138.155556,FM-YAP,,
-3741423,-4972945,hypsographic,"Sand Islet","Sand Islet",variant,7.495,151.903056,FM-TRK,,
-3741676,-4973329,settlement,Tiati,Tiati,variant,6.861389,158.323333,FM-PNI,,
-3741502,-4973866,administrative_region,"State of Yap","State of Yap",official,9,142,FM-YAP,,
-3741496,-5088717,settlement,Yaboch,Yaboch,variant,9.496389,138.074167,FM-YAP,,
-3741556,-4972367,hypsographic,Oualan,Oualan,variant,5.315278,162.980556,FM-KSA,,
-3741503,-5085416,hypsographic,Eap,Eap,variant,9.533333,138.133333,FM-YAP,,
-3741484,-5098300,settlement,Wugem,Wugem,variant,9.450833,138.069167,FM-YAP,,
-3741492,-4973842,hypsographic,Wuruur,Wuruur,official,9.558889,138.158611,FM-YAP,,
-3741465,-5087653,hypsographic,"Wolai Islands","Wolai Islands",variant,7.35,143.866667,FM-YAP,,
-3741475,-4972294,settlement,Olip,Olip,variant,7.331667,151.606667,FM-TRK,,
-3741434,-5088632,hypsographic,Binilen,Binilen,variant,7.171389,151.948056,FM-TRK,,
-3741442,-4973770,hypsographic,Winipot,Winipot,official,7.339167,151.619722,FM-TRK,,
-3741545,-4973933,hydrographic,Zowariyau-Suido,Zowariyau-Suido,variant,9.872778,139.608889,FM-YAP,,
-3741435,-5081023,hydrographic,Moz-en-Udidan,Moz-en-Udidan,variant,7.169444,151.945,FM-TRK,,
-3741403,-4973716,hypsographic,"Weltot Island","Weltot Island",variant,8.616667,150.366667,FM-TRK,,
-3741544,-4973930,hydrographic,"Zoroppu Passage","Zoroppu Passage",official,8.3675,137.465833,FM-YAP,,
-3741691,-4973572,settlement,Unikapi,Unikapi,variant,7.333333,151.556667,FM-TRK,,
-3741410,-4973724,hypsographic,Weonukon,Weonukon,official,8.588333,149.656667,FM-TRK,,
-3741537,-4973920,hypsographic,Yoweereg,Yoweereg,official,9.6,138.166667,FM-YAP,,
-3741482,-4972358,settlement,Orowoo,Orowoo,variant,9.509167,138.128333,FM-YAP,,
-3741589,-5089916,settlement,Guroor,Guroor,official,9.446111,138.073611,FM-YAP,,
-3741435,-5071734,hydrographic,"Moz En Udidan","Moz En Udidan",variant,7.169444,151.945,FM-TRK,,
-3741417,-4972150,hypsographic,Nishi,Nishi,variant,7.329444,151.632778,FM-TRK,,
-3741496,-5088718,settlement,Yeboch,Yeboch,variant,9.496389,138.074167,FM-YAP,,
-3741501,-5078822,hypsographic,Guap,Guap,variant,9.516667,138.1,FM-YAP,,
-3741587,-5078773,hypsographic,"Point Garnet","Point Garnet",variant,5.287778,163.024444,FM-KSA,,
-3741430,-4973573,hypsographic,"Unun en Unikei","Unun en Unikei",variant,7.314167,151.869444,FM-TRK,,
-3741534,-5087549,hypsographic,Yogoy,Yogoy,variant,9.547778,138.106389,FM-YAP,,
-3741493,-5098314,hypsographic,Wuyef,Wuyef,variant,9.55,138.15,FM-YAP,,
-3741416,-4973734,hydrographic,"West Passage","West Passage",official,8.305556,137.4825,FM-YAP,,
-3741512,-4970438,hydrographic,"Mutok Hafen","Mutok Hafen",variant,6.764722,158.270833,FM-PNI,,
-3741547,-4973936,hydrographic,"Zowatabu Channel","Zowatabu Channel",official,9.848889,139.706667,FM-YAP,,
-3741565,-4970449,hypsographic,"Besin Point","Besin Point",variant,5.338333,163.019167,FM-KSA,,
-3741422,-4973567,hypsographic,Unife,Unife,variant,7.45,151.916667,FM-TRK,,
-3741530,-5087543,hydrographic,Yinbinau,Yinbinau,variant,9.608889,138.168889,FM-YAP,,
-3741621,-5098388,hypsographic,Pigouelao,Pigouelao,variant,8.087778,147.635556,FM-YAP,,
-3741512,-4970131,hydrographic,"Panian Hafen","Panian Hafen",variant,6.764722,158.270833,FM-PNI,,
-3741519,-4973897,hypsographic,"Yen Yen","Yen Yen",official,5.334722,163.02,FM-KSA,,
-3741681,-4973398,hypsographic,"Nan Angesek","Nan Angesek",official,6.933333,158.1375,FM-PNI,,
-3741619,-4971671,hydrographic,"Soun Lierpwater","Soun Lierpwater",official,6.7875,158.164444,FM-PNI,,
-3741449,-5074073,hypsographic,"Mount Uitjap","Mount Uitjap",variant,7.371667,151.725833,FM-TRK,,
-3741497,-4973851,hydrographic,Yagirigaree,Yagirigaree,variant,9.933333,139.616667,FM-YAP,,
-3741578,-5084057,hydrographic,Ekarotrosu,Ekarotrosu,official,5.350278,162.953333,FM-KSA,,
-3741416,-4973731,hydrographic,"West Laggon","West Laggon",variant,8.305556,137.4825,FM-YAP,,
-3741466,-5087625,hypsographic,Wolemaut,Wolemaut,variant,9.541111,138.201667,FM-YAP,,
-3741426,-4973749,hypsographic,Winifoup,Winifoup,official,7.437222,151.853333,FM-TRK,,
-3741465,-5087638,hypsographic,Olie,Olie,variant,7.35,143.866667,FM-YAP,,
-3741523,-4973902,hydrographic,"Infal Yeseng","Infal Yeseng",official,5.274444,163.020833,FM-KSA,,
-3741437,-4973764,settlement,Wininin,Wininin,official,7.355833,151.848056,FM-TRK,,
-3741493,-4973845,hypsographic,Wuyeef,Wuyeef,official,9.55,138.15,FM-YAP,,
-3741589,-4971157,settlement,Gorror,Gorror,variant,9.446111,138.073611,FM-YAP,,
-3741513,-4973888,hydrographic,"Infal Yela","Infal Yela",official,5.324722,162.945278,FM-KSA,,
-3741556,-4971203,hypsographic,Hope,Hope,variant,5.315278,162.980556,FM-KSA,,
-3741482,-4973791,settlement,Woarowoq,Woarowoq,variant,9.509167,138.128333,FM-YAP,,
-3741556,-4971383,hypsographic,Kusai-tō,Kusai-to,variant,5.315278,162.980556,FM-KSA,,
-3741438,-5074053,hydrographic,"Sanat Pass","Sanat Pass",variant,7.236667,152.007222,FM-TRK,,
-3741431,-5072866,hypsographic,Vunigeigei,Vunigeigei,official,7.331111,151.851389,FM-TRK,,
-3741465,-5087651,hypsographic,Uneay,Uneay,variant,7.35,143.866667,FM-YAP,,
-3741626,-4971780,settlement,Moalol,Moalol,variant,7.375,151.881667,FM-TRK,,
-3741398,-4973689,hypsographic,"Wahd Island","Wahd Island",variant,5.821944,157.353333,FM-PNI,,
-3741638,-4972124,hypsographic,Nigaruyaru-To,Nigaruyaru-To,variant,8.606389,144.534444,FM-YAP,,
-3741459,-5074079,park,Wief,Wief,official,5.314722,162.938611,FM-KSA,,
-3741407,-4973808,hypsographic,Wona,Wona,variant,7.441111,151.853333,FM-TRK,,
-3741555,-5071741,settlement,"Enipein Pah","Enipein Pah",variant,6.811111,158.223611,FM-PNI,,
-3741617,-4971633,hypsographic,"Mant Islands","Mant Islands",official,6.983333,158.283333,FM-PNI,,
-3741453,-4973781,hydrographic,Witon,Witon,official,7.591667,151.689444,FM-TRK,,
-3741528,-4973907,hypsographic,Yimuch,Yimuch,official,9.562222,138.178889,FM-YAP,,
-3741450,-5074074,hypsographic,Wiisópw,Wiisopw,variant,7.440556,151.866111,FM-TRK,,
-3741691,-4973574,settlement,"Unun en Unikopi","Unun en Unikopi",variant,7.333333,151.556667,FM-TRK,,
-3741539,-4973922,hydrographic,Yuub,Yuub,official,9.533333,138.15,FM-YAP,,
-3741464,-4970787,hypsographic,Faelalap,Faelalap,variant,7.375556,143.913889,FM-YAP,,
-3741530,-4973909,hydrographic,Yinbinaew,Yinbinaew,official,9.608889,138.168889,FM-YAP,,
-3741674,-4973151,spot,"Ulithi Airport","Ulithi Airport",short,10.020278,139.79,FM-YAP,,
-3741533,-4973913,hypsographic,Yogoroporapu-To,Yogoroporapu-To,variant,10.079444,139.751667,FM-YAP,,
-3741482,-4973824,settlement,Woruworu,Woruworu,variant,9.509167,138.128333,FM-YAP,,
-3741573,-5085810,hypsographic,Toremaraui-san,Toremaraui-san,variant,6.88,158.264444,FM-PNI,,
-3741518,-4973895,hypsographic,Yenasr,Yenasr,official,5.338611,163.023889,FM-KSA,,
-3741438,-5074049,hydrographic,"Dish Island Channel","Dish Island Channel",variant,7.236667,152.007222,FM-TRK,,
-3741614,-4971570,hypsographic,"Madol Peidak","Madol Peidak",official,6.841944,158.33,FM-PNI,,
-3741482,-5098299,settlement,Worwor,Worwor,variant,9.509167,138.128333,FM-YAP,,
-3741435,-4973763,hydrographic,"Mochun Wininen","Mochun Wininen",official,7.169444,151.945,FM-TRK,,
-3741503,-5085418,hypsographic,"Arricifes Carolina","Arricifes Carolina",variant,9.533333,138.133333,FM-YAP,,
-3741535,-4973916,hydrographic,Yorugachi,Yorugachi,official,10.05,139.7,FM-YAP,,
-3741425,-5087167,hydrographic,Vinifaula,Vinifaula,official,7.283333,151.816667,FM-TRK,,
-3741411,-4973726,hydrographic,"West Cape","West Cape",official,7.343611,143.837222,FM-YAP,,
-3741556,-4973502,hypsographic,"Ualan Island","Ualan Island",variant,5.315278,162.980556,FM-KSA,,
-3741520,-4971442,settlement,Leijut,Leijut,variant,5.340833,163.031111,FM-KSA,,
-3741440,-5096628,hypsographic,"Unun Win","Unun Win",variant,7.296667,151.547778,FM-TRK,,
-3741670,-5087385,hydrographic,Ruukoey,Ruukoey,variant,9.633333,138.145556,FM-YAP,,
-3741501,-5078828,hypsographic,Yapputo,Yapputo,variant,9.516667,138.1,FM-YAP,,
-3741690,-5074088,hypsographic,"Mount Unimor","Mount Unimor",variant,7.368611,151.624444,FM-TRK,,
-3741466,-4973802,hypsographic,Wol’eamaqut,Wol'eamaqut,official,9.541111,138.201667,FM-YAP,,
-3741418,-5087550,hypsographic,Unifei,Unifei,official,7.308611,151.873056,FM-TRK,,
-3741467,-5079563,hypsographic,Wolfangol,Wolfangol,variant,9.541111,138.133889,FM-YAP,,
-3741472,-4973812,hydrographic,Woneedaey,Woneedaey,official,9.488611,138.138611,FM-YAP,,
-3741464,-5096624,hypsographic,Wolea,Wolea,variant,7.375556,143.913889,FM-YAP,,
-3741426,-4973750,hypsographic,Winifourer,Winifourer,variant,7.437222,151.853333,FM-TRK,,
-3741452,-5074077,hypsographic,Vindon,Vindon,variant,7.291667,151.875278,FM-TRK,,
-3741584,-5089953,settlement,Berard,Berard,variant,5.329444,162.944444,FM-KSA,,
-3741500,-5079228,hypsographic,"Yanneichiki Island","Yanneichiki Island",variant,8.3025,137.505833,FM-YAP,,
-3741442,-5089259,hypsographic,"Mount Tumintal","Mount Tumintal",variant,7.339167,151.619722,FM-TRK,,
-3741476,-4973816,settlement,Wonip,Wonip,official,7.376667,151.731389,FM-TRK,,
-3741621,-5098386,hypsographic,Pigali,Pigali,variant,8.087778,147.635556,FM-YAP,,
-3741481,-4973823,hypsographic,Worqing,Worqing,official,9.546389,138.120833,FM-YAP,,
-3741442,-4973587,hypsographic,Unipät,Unipat,variant,7.339167,151.619722,FM-TRK,,
-3741465,-5087644,hypsographic,Uleay,Uleay,variant,7.35,143.866667,FM-YAP,,
-3741455,-4973667,hypsographic,Vinifaula,Vinifaula,official,7.318056,151.842778,FM-TRK,,
-3741407,-5087396,hypsographic,Haru-shima,Haru-shima,variant,7.441111,151.853333,FM-TRK,,
-3741457,-4973785,settlement,Witynokis,Witynokis,official,5.367222,163,FM-KSA,,
-3741407,-5087403,hypsographic,Röra,Rora,variant,7.441111,151.853333,FM-TRK,,
-3741573,-5085808,hypsographic,Tolemarawi,Tolemarawi,variant,6.88,158.264444,FM-PNI,,
-3741573,-4971721,hypsographic,"Dol Merewi","Dol Merewi",variant,6.88,158.264444,FM-PNI,,
-3741422,-4973746,hypsographic,"Unun en Winifeisu","Unun en Winifeisu",official,7.45,151.916667,FM-TRK,,
-3741465,-5087648,hypsographic,"Anangai Islands","Anangai Islands",variant,7.35,143.866667,FM-YAP,,
-3741458,-4973788,hypsographic,Wiyef,Wiyef,official,9.546667,138.141111,FM-YAP,,
-3741623,-5087361,hypsographic,Sono,Sono,variant,5.329722,162.97,FM-KSA,,
-3741413,-5078776,hypsographic,"West Fayu","West Fayu",variant,8.088889,146.728611,FM-YAP,,
-3741465,-5087650,hypsographic,"Ulie Inseln","Ulie Inseln",variant,7.35,143.866667,FM-YAP,,
-3741486,-5098304,park,Ull,Ull,variant,9.536111,138.183333,FM-YAP,,
-3740506,-4973636,hypsographic,U-saki,U-saki,variant,6.957222,158.273611,FM-PNI,,
-3741263,-4972672,hypsographic,"Poaipoai Mountain","Poaipoai Mountain",variant,6.855556,158.211111,FM-PNI,,
-3740646,-4972187,hypsographic,"Nugoro To","Nugoro To",variant,3.8575,154.938333,FM-PNI,,
-3740906,-5089925,settlement,Adevue,Adevue,variant,9.544444,138.105,FM-YAP,,
-3741106,-4973172,hypsographic,Takai-To,Takai-To,variant,6.221389,160.683611,FM-PNI,,
-3741225,-4971423,hypsographic,"Lap Island","Lap Island",variant,7.661667,151.851944,FM-TRK,,
-3741220,-4973300,hypsographic,"Unun en Tenio","Unun en Tenio",variant,7.366667,151.65,FM-TRK,,
-3740961,-4972832,hypsographic,"Refinery Point","Refinery Point",official,9.769167,140.518056,FM-YAP,,
-3741363,-5087659,hypsographic,Uraku-tō,Uraku-to,variant,6.655556,159.775,FM-PNI,,
-3740804,-4972657,hypsographic,"Pis Island","Pis Island",variant,7.675,151.761111,FM-TRK,,
-3740827,-5088675,spot,"Truk Airport","Truk Airport",variant,7.459722,151.838889,FM-TRK,,
-3740855,-5088911,hypsographic,Faounaoupei,Faounaoupei,variant,6.906944,158.2325,FM-PNI,,
-3741082,-4973066,spot,"Nite One","Nite One",official,7.369444,151.872222,FM-TRK,,
-3741081,-4973065,hypsographic,"Ununen Soni","Ununen Soni",official,7.36,151.860556,FM-TRK,,
-3741276,-5088594,hypsographic,Tonatau,Tonatau,variant,7.454722,151.846111,FM-TRK,,
-3740644,-5085360,hypsographic,Lukulefau,Lukulefau,variant,7.389722,151.707778,FM-TRK,,
-3740744,-4972454,hypsographic,"Pau Island","Pau Island",variant,9.933333,139.822778,FM-YAP,,
-3741337,-5087286,hypsographic,Unap,Unap,variant,7.369722,151.718056,FM-TRK,,
-3741322,-4971819,hypsographic,"Monday Island","Monday Island",variant,7.376667,151.714444,FM-TRK,,
-3741218,-5071701,hypsographic,Tauche,Tauche,variant,6.845833,158.322222,FM-PNI,,
-3740995,-4972894,settlement,Rueechayaam,Rueechayaam,official,9.586667,138.133333,FM-YAP,,
-3741320,-4973505,hypsographic,"Uataluk Island","Uataluk Island",variant,5.806389,157.313333,FM-PNI,,
-3741199,-5087497,hypsographic,Tathethay,Tathethay,variant,9.539167,138.183056,FM-YAP,,
-3740762,-5086804,settlement,Petiw,Petiw,official,7.438056,151.871667,FM-TRK,,
-3740592,-5098341,hypsographic,Guchuth,Guchuth,variant,9.511389,138.077222,FM-YAP,,
-3740665,-4972260,hydrographic,Ochoitiw,Ochoitiw,official,7.619444,151.9125,FM-TRK,,
-3740828,-4972635,hydrographic,"Ochen Pisemew","Ochen Pisemew",official,7.676389,151.783333,FM-TRK,,
-3740923,-4972786,hypsographic,Qarmiilog,Qarmiilog,official,9.584722,138.172222,FM-YAP,,
-3740983,-5055169,hydrographic,"Rohn Kiti","Rohn Kiti",variant,6.7825,158.157778,FM-PNI,,
-3741381,-4973680,hypsographic,Wachëq,Wacheq,official,9.526944,138.119444,FM-YAP,,
-3740755,-4972466,hypsographic,P’eethm’uuth,P'eethm'uuth,official,9.604167,138.283333,FM-YAP,,
-3740899,-4970477,settlement,Boenne,Boenne,variant,7.365278,151.8625,FM-TRK,,
-3741039,-4972975,settlement,Sapotiw,Sapotiw,official,7.316667,151.85,FM-TRK,,
-3740506,-4973499,hypsographic,"Cape U","Cape U",variant,6.957222,158.273611,FM-PNI,,
-3740783,-4972525,hydrographic,"Piaanu Passage","Piaanu Passage",variant,7.348611,151.429167,FM-TRK,,
-3740527,-5088816,hypsographic,Nefaariru,Nefaariru,variant,5.264444,162.949167,FM-KSA,,
-3741282,-4973419,hypsographic,Tonoken,Tonoken,official,7.436667,151.848611,FM-TRK,,
-3740884,-4972734,park,"Pukusruk Wan","Pukusruk Wan",official,5.350278,163.011389,FM-KSA,,
-3740595,-5087610,hypsographic,Ngolog,Ngolog,variant,8.45,137.483333,FM-YAP,,
-3741095,-5087466,hypsographic,"Phillip Islands","Phillip Islands",variant,8.133333,140.383333,FM-YAP,,
-3740630,-4972190,settlement,Nukan,Nukan,official,7.307222,151.879444,FM-TRK,,
-3740923,-4970351,hypsographic,Aramilog,Aramilog,variant,9.584722,138.172222,FM-YAP,,
-3740736,-4972425,settlement,Panitiw,Panitiw,official,7.3,151.883333,FM-TRK,,
-3741073,-4973037,hypsographic,Siis,Siis,official,7.296111,151.820833,FM-TRK,,
-3741205,-5088805,hydrographic,Taueneniai,Taueneniai,variant,6.766667,157.996667,FM-PNI,,
-3740855,-5088918,hypsographic,Ponapeau,Ponapeau,variant,6.906944,158.2325,FM-PNI,,
-3740712,-5072828,hypsographic,"Maye Jima","Maye Jima",variant,7.384722,151.736389,FM-TRK,,
-3740492,-4971959,hypsographic,"Unun en Nameis","Unun en Nameis",variant,7.380278,151.734444,FM-TRK,,
-3740587,-5087588,hypsographic,"Raven’s Island","Raven's Island",variant,5.85,157.266667,FM-PNI,,
-3740879,-4972728,hypsographic,Puketingar,Puketingar,official,8.766667,152.3,FM-TRK,,
-3741340,-4973570,hydrographic,Unifouchö,Unifoucho,official,7.178056,151.9575,FM-TRK,,
-3740908,-5089929,hydrographic,Demamang,Demamang,variant,9.559444,138.176389,FM-YAP,,
-3740849,-4972392,hypsographic,Paguisth,Paguisth,variant,10.016111,139.617778,FM-YAP,,
-3740506,-4971989,hypsographic,"Nan Kengkeng","Nan Kengkeng",official,6.957222,158.273611,FM-PNI,,
-3741076,-4973041,hypsographic,Siteng,Siteng,official,6.684722,143.086667,FM-YAP,,
-3740874,-5088585,hypsographic,Puguruyu-Tō,Puguruyu-To,variant,9.823611,139.705,FM-YAP,,
-3741269,-5085347,hydrographic,Tomil-Hafen,Tomil-Hafen,variant,9.508889,138.136111,FM-YAP,,
-3740572,-5072868,hydrographic,Nedodo,Nedodo,variant,7.36,151.613333,FM-TRK,,
-3740494,-5088821,hypsographic,Mokor,Mokor,variant,5.916667,153.133333,FM-TRK,,
-3740564,-4971435,settlement,Lebonolong,Lebonolong,variant,7.299167,151.885833,FM-TRK,,
-3741219,-5087517,hypsographic,Tean-Kōdai,Tean-Kodai,variant,6.910556,158.180556,FM-PNI,,
-3740668,-5037376,hydrographic,Ochopenges,Ochopenges,official,7.583333,151.689444,FM-TRK,,
-3741328,-5087404,hypsographic,Urushi-tō,Urushi-to,variant,9.966667,139.666667,FM-YAP,,
-3741358,-4973606,spot,Ununou,Ununou,official,7.463889,151.85,FM-TRK,,
-3740621,-4971782,hydrographic,"Mochen Moch","Mochen Moch",variant,5.488333,153.538333,FM-TRK,,
-3740794,-4972552,hypsographic,Pienkesse,Pienkesse,official,5.494167,153.733611,FM-TRK,,
-3741120,-4973122,hypsographic,Taaquul,Taaquul,official,9.559167,138.179722,FM-YAP,,
-3740796,-4972568,hypsographic,"Pig Island","Pig Island",variant,9.784722,139.680833,FM-YAP,,
-3740957,-5096698,hydrographic,Raur-Kanal,Raur-Kanal,variant,7.342778,145.903889,FM-YAP,,
-3740515,-5085795,hypsographic,Nantiati-Spitze,Nantiati-Spitze,variant,6.785833,158.293611,FM-PNI,,
-3741052,-5055163,hypsographic,Japutik,Japutik,variant,7.002778,158.221944,FM-PNI,,
-3740798,-5098235,hypsographic,Pegerarega-tō,Pegerarega-to,variant,9.994722,139.631667,FM-YAP,,
-3740500,-5062618,hypsographic,Nanlaud,Nanlaud,official,6.872222,158.226667,FM-PNI,,
-3741304,-4973461,hypsographic,Towngil,Towngil,official,7.416667,151.783333,FM-TRK,,
-3741379,9024198,settlement,Ueroi,Ueroi,variant,9.583056,138.179722,FM-YAP,,
-3741360,-5087658,hypsographic,Notu-Tō,Notu-To,variant,7.221667,151.992778,FM-TRK,,
-3740712,-4970751,hypsographic,"Eot Island","Eot Island",variant,7.384722,151.736389,FM-TRK,,
-3740621,-4971337,hydrographic,Kita,Kita,variant,5.488333,153.538333,FM-TRK,,
-3740578,-4972097,spot,"Oror en Newomas","Oror en Newomas",official,7.373889,151.703611,FM-TRK,,
-3740554,-4972064,spot,Nenor,Nenor,official,7.385,151.605556,FM-TRK,,
-3741074,-4973038,hypsographic,Siminmin,Siminmin,official,9.6,138.183333,FM-YAP,,
-3741279,-5077060,hypsographic,Wela-Tolos,Wela-Tolos,variant,7.373889,151.872222,FM-TRK,,
-3740988,-5074146,hypsographic,"Roji To","Roji To",variant,6.775556,158.223333,FM-PNI,,
-3740479,-4971604,settlement,Maletiu,Maletiu,variant,7.378611,151.701944,FM-TRK,,
-3740509,-5062614,hypsographic,Nahkapw,Nahkapw,variant,6.841667,158.341667,FM-PNI,,
-3740814,-4972598,hydrographic,"Infal Pilyuul","Infal Pilyuul",official,5.315278,163.034444,FM-KSA,,
-3740876,-4972725,hydrographic,"Foko Puk","Foko Puk",official,5.315556,163.037222,FM-KSA,,
-3741296,-5074133,hypsographic,Teetiu,Teetiu,variant,7.338889,151.7775,FM-TRK,,
-3741381,-4972957,hypsographic,Saponoch,Saponoch,variant,9.526944,138.119444,FM-YAP,,
-3740669,-5086796,hydrographic,"Mochun Ochopach","Mochun Ochopach",official,7.516111,151.614722,FM-TRK,,
-3740525,-5087389,settlement,Nei,Nei,variant,9.476667,138.073611,FM-YAP,,
-3740540,-4973276,hypsographic,"Unun en Taweneon","Unun en Taweneon",variant,7.3925,151.592222,FM-TRK,,
-3740794,-5098225,hypsographic,Piayci,Piayci,variant,5.494167,153.733611,FM-TRK,,
-3740656,-5089004,hypsographic,Ojai,Ojai,variant,7.361667,151.7525,FM-TRK,,
-3740709,-4972355,hypsographic,Oromange,Oromange,official,3.826389,154.956111,FM-PNI,,
-3740589,-5098339,settlement,Nolak,Nolak,variant,9.511389,138.120278,FM-YAP,,
-3740791,-4972545,hypsographic,Pien,Pien,official,5.496944,153.723889,FM-TRK,,
-3741044,-4973072,settlement,Sopou,Sopou,variant,7.386111,151.889167,FM-TRK,,
-3740731,-5062956,hypsographic,"Palikir Point","Palikir Point",variant,6.913889,158.108333,FM-PNI,,
-3741056,-5088688,hypsographic,Satauan-Lagune,Satauan-Lagune,variant,5.416667,153.583333,FM-TRK,,
-3740681,-4972293,hypsographic,"Olimarao Islands","Olimarao Islands",variant,7.683333,145.866667,FM-YAP,,
-3741328,-5087430,hypsographic,"Ulithi Gruppen","Ulithi Gruppen",variant,9.966667,139.666667,FM-YAP,,
-3741346,-4973584,hypsographic,Unimongomong,Unimongomong,official,7.371944,151.886111,FM-TRK,,
-3741365,-4973884,hypsographic,"Yawata Island","Yawata Island",variant,7.5175,151.617222,FM-TRK,,
-3740531,-4971440,hypsographic,Leginiau,Leginiau,variant,7.383333,151.766667,FM-TRK,,
-3740586,-4972110,hypsographic,"Ngatik Island","Ngatik Island",variant,5.824722,157.174444,FM-PNI,,
-3740743,-4972445,hypsographic,Pasa-tō,Pasa-to,variant,6.812222,158.014444,FM-PNI,,
-3741359,-4973796,hydrographic,"Wola Road","Wola Road",variant,7.433333,151.833333,FM-TRK,,
-3741379,9024205,settlement,Weroi,Weroi,variant,9.583056,138.179722,FM-YAP,,
-3740521,-4972022,hydrographic,"Mochun Winipiru","Mochun Winipiru",official,7.295833,151.554167,FM-TRK,,
-3741357,-4971013,hypsographic,Fogen,Fogen,variant,7.283333,151.883333,FM-TRK,,
-3740587,-5087598,hypsographic,"Raven Islands","Raven Islands",variant,5.85,157.266667,FM-PNI,,
-3740689,-4972314,hypsographic,Onioppu-tō,Onioppu-to,variant,5.504722,153.713333,FM-TRK,,
-3740544,-4972051,settlement,Nemwan,Nemwan,official,7.383333,151.883333,FM-TRK,,
-3740863,-5088644,hypsographic,Poroatto,Poroatto,variant,7.357222,149.200278,FM-TRK,,
-3740653,-5088239,hypsographic,Engnoth,Engnoth,variant,9.5,138.133333,FM-YAP,,
-3741300,-4973457,hypsographic,Towaelbuq,Towaelbuq,official,9.556667,138.135833,FM-YAP,,
-3741148,-4970565,hypsographic,Dahangahaino,Dahangahaino,variant,3.874722,154.980833,FM-PNI,,
-3740801,-5098247,hypsographic,Pisserrarre,Pisserrarre,variant,8.581944,150.407222,FM-TRK,,
-3740826,-5088573,hypsographic,"Bernard Island","Bernard Island",variant,7.294444,151.525556,FM-TRK,,
-3740950,-4972816,hypsographic,Ragyey,Ragyey,official,9.573056,138.125556,FM-YAP,,
-3740999,-5098196,settlement,Runu’w,Runu'w,variant,9.584444,138.134167,FM-YAP,,
-3741000,-5098198,hypsographic,Ushima,Ushima,variant,7.597222,151.941111,FM-TRK,,
-3741056,-5088682,hypsographic,"Sataoan Islands","Sataoan Islands",variant,5.416667,153.583333,FM-TRK,,
-3740784,-5087291,hypsographic,Paifwa-To,Paifwa-To,variant,5.521944,153.804444,FM-TRK,,
-3740839,-5087313,hypsographic,Pisidjo,Pisidjo,variant,8.59,151.840556,FM-TRK,,
-3740707,-5088176,hypsographic,Campbellriff,Campbellriff,variant,7.533333,155.3,FM-PNI,,
-3740805,-4972764,hypsographic,Pygueyro,Pygueyro,variant,5.476667,153.471944,FM-TRK,,
-3741124,-4973126,hypsographic,Tabiigaaw,Tabiigaaw,official,9.592778,138.163333,FM-YAP,,
-3740595,-5087606,hypsographic,Lamuniur,Lamuniur,variant,8.45,137.483333,FM-YAP,,
-3741196,-5087492,hypsographic,"Taarin Island","Taarin Island",variant,1.073333,154.801667,FM-PNI,,
-3740607,-4972146,settlement,"Nin Soksok","Nin Soksok",official,6.9675,158.22,FM-PNI,,
-3740611,-4972156,settlement,Nluul,Nluul,official,9.6,138.166667,FM-YAP,,
-3740636,-4972201,hypsographic,"Unun en Nukuisei","Unun en Nukuisei",official,7.45,151.9,FM-TRK,,
-3741067,-4973024,hypsographic,Shenukdei,Shenukdei,official,3.833333,154.991667,FM-PNI,,
-3740639,-4972203,hypsographic,Nukunachau,Nukunachau,variant,7.388333,151.737778,FM-TRK,,
-3740953,-4972821,hypsographic,Rangn’ey,Rangn'ey,official,9.583333,138.183333,FM-YAP,,
-3741081,-4970512,hypsographic,Chare,Chare,variant,7.36,151.860556,FM-TRK,,
-3741050,-5098209,hydrographic,"Mwoocun Pisamwe","Mwoocun Pisamwe",variant,7.613333,151.681667,FM-TRK,,
-3740577,-4972096,hypsographic,Newoch,Newoch,official,7.383333,151.75,FM-TRK,,
-3741003,-4972909,administrative_region,"Ruul District","Ruul District",variant,9.5,138.1,FM-YAP,,
-3740836,-4971409,hypsographic,"Lamoil Island","Lamoil Island",variant,7.650278,151.679444,FM-TRK,,
-3741054,-5088677,hypsographic,Satouwan,Satouwan,variant,5.325,153.736667,FM-TRK,,
-3741179,-4973224,hypsographic,Tangavaka,Tangavaka,variant,1.05,154.8,FM-PNI,,
-3740922,-5088169,settlement,Aringiru,Aringiru,variant,9.520556,138.086111,FM-YAP,,
-3740587,-5087595,hypsographic,Ngaric,Ngaric,variant,5.85,157.266667,FM-PNI,,
-3740887,-5087340,hypsographic,"O Suak","O Suak",variant,7.356944,149.198611,FM-TRK,,
-3741176,-4973216,hypsographic,Tamoor,Tamoor,official,9.525278,138.160833,FM-YAP,,
-3740622,-4972170,hydrographic,Nord-Kanal,Nord-Kanal,variant,7.363889,143.871944,FM-YAP,,
-3740838,-5087304,hypsographic,Saru-shima,Saru-shima,variant,7.346667,151.9875,FM-TRK,,
-3741186,-4973234,hypsographic,Tapuyappu,Tapuyappu,official,8.583333,137.583333,FM-YAP,,
-3740778,-4972516,hypsographic,"Perifukumazo Island","Perifukumazo Island",variant,8.388611,137.425,FM-YAP,,
-3740801,-5098243,hypsographic,Pisarasu,Pisarasu,variant,8.581944,150.407222,FM-TRK,,
-3741139,-4973147,hypsographic,Tagaam’,Tagaam',official,9.4925,138.073889,FM-YAP,,
-3740599,-5062613,hypsographic,Kapitau-Talur,Kapitau-Talur,variant,6.853889,158.318889,FM-PNI,,
-3740744,-4970779,hypsographic,Eu,Eu,variant,9.933333,139.822778,FM-YAP,,
-3741289,-4973428,hypsographic,Toponou,Toponou,official,7.3275,151.635556,FM-TRK,,
-3740719,-4972447,settlement,Pata,Pata,variant,7.386111,151.873333,FM-TRK,,
-3741380,-4973679,hypsographic,"Wabonoru Island","Wabonoru Island",variant,8.597222,150.355,FM-TRK,,
-3741269,-4973395,hydrographic,"Tomil Harbor","Tomil Harbor",variant,9.508889,138.136111,FM-YAP,,
-3740928,-4970401,hypsographic,Awoch,Awoch,variant,9.5425,138.146667,FM-YAP,,
-3740657,-4973685,hypsographic,Waehw,Waehw,variant,6.703333,143.036111,FM-YAP,,
-3741226,-5088283,hypsographic,Thaw,Thaw,variant,9.552778,138.206667,FM-YAP,,
-3740618,-5088851,hypsographic,"El Corral","El Corral",variant,8.533333,151.783333,FM-TRK,,
-3740975,-4972858,hypsographic,Riqiir,Riqiir,official,9.489722,138.068056,FM-YAP,,
-3740782,-5087284,hypsographic,Pialu,Pialu,variant,7.314167,151.435,FM-TRK,,
-3741328,-5087434,hypsographic,"Uoeu Inseln","Uoeu Inseln",variant,9.966667,139.666667,FM-YAP,,
-3740905,-4972768,park,Qabyaang,Qabyaang,official,9.528333,138.176944,FM-YAP,,
-3740945,-4972811,hypsographic,Quthmuluw,Quthmuluw,official,9.563333,138.159167,FM-YAP,,
-3741379,-4973677,settlement,Waalooy,Waalooy,variant,9.583056,138.179722,FM-YAP,,
-3740787,-5098227,hypsographic,Penainina,Penainina,variant,5.493333,153.736389,FM-TRK,,
-3741277,-5079096,hypsographic,Pisemeu,Pisemeu,variant,7.678056,151.793333,FM-TRK,,
-3740927,-5089944,settlement,Aleru,Aleru,variant,9.550278,138.109444,FM-YAP,,
-3741349,-4973594,hypsographic,"Unon Island","Unon Island",variant,5.6,153.543889,FM-TRK,,
-3740792,-4972547,hypsographic,"Pienemon Island","Pienemon Island",variant,5.4925,153.741389,FM-TRK,,
-3741274,-4973405,hypsographic,"Tomwena Island","Tomwena Island",variant,7.0925,157.789444,FM-PNI,,
-3740762,-4972486,settlement,Peitu,Peitu,variant,7.438056,151.871667,FM-TRK,,
-3741331,-4973545,hypsographic,Uloehrw,Uloehrw,variant,7.410278,146.176111,FM-YAP,,
-3740595,-5087613,hypsographic,Onolu,Onolu,variant,8.45,137.483333,FM-YAP,,
-3740679,-4972285,hypsographic,"Oletel Island","Oletel Island",variant,7.490556,146.160833,FM-YAP,,
-3740601,-4972129,hypsographic,"Nikalap Aru","Nikalap Aru",official,6.783333,158.016667,FM-PNI,,
-3740688,-5086780,hypsographic,"Unun en Onareng","Unun en Onareng",variant,7.305556,151.820833,FM-TRK,,
-3740824,-5087263,hypsographic,Hakusha-shima,Hakusha-shima,variant,7.418889,151.732222,FM-TRK,,
-3740900,-4970663,settlement,Dschalapuk,Dschalapuk,variant,6.856111,158.208333,FM-PNI,,
-3740926,-4972789,hydrographic,Qatliirow,Qatliirow,official,9.524444,138.141667,FM-YAP,,
-3740500,-4971947,hypsographic,Nahnalaud,Nahnalaud,variant,6.872222,158.226667,FM-PNI,,
-3740887,-5087326,hypsographic,Leguischel,Leguischel,variant,7.356944,149.198611,FM-TRK,,
-3740927,-4970380,settlement,Atelu,Atelu,variant,9.550278,138.109444,FM-YAP,,
-3741149,-4973165,hypsographic,Tahangatapu,Tahangatapu,variant,3.875833,154.977778,FM-PNI,,
-3741359,-5087654,hydrographic,"Reede von Wola","Reede von Wola",variant,7.433333,151.833333,FM-TRK,,
-3740920,-4970348,hypsographic,Apirgog,Apirgog,variant,9.586944,138.162778,FM-YAP,,
-3741098,-5087473,hydrographic,"Durchfahrt Mor","Durchfahrt Mor",variant,5.286389,153.633333,FM-TRK,,
-3741279,-5088710,hypsographic,"Kapinibere To","Kapinibere To",variant,7.373889,151.872222,FM-TRK,,
-3741349,-4973586,hypsographic,Union,Union,variant,5.6,153.543889,FM-TRK,,
-3741128,-4973130,spot,Tabuguw,Tabuguw,official,9.566667,138.116667,FM-YAP,,
-3741300,-5088316,hypsographic,Towolbu’,Towolbu',variant,9.556667,138.135833,FM-YAP,,
-3741229,-5088281,hypsographic,Tholomar,Tholomar,variant,9.517222,138.101944,FM-YAP,,
-3740490,-5096337,hypsographic,Napari-tō,Napari-to,variant,6.858056,158.350833,FM-PNI,,
-3740489,-4971944,hypsographic,Nahlap,Nahlap,official,6.7825,158.151389,FM-PNI,,
-3740564,-4972076,settlement,Neponolong,Neponolong,variant,7.299167,151.885833,FM-TRK,,
-3741093,-4973057,hypsographic,"Soholoi Island","Soholoi Island",variant,10.085556,139.742778,FM-YAP,,
-3741149,-5088114,hypsographic,Tahanatapu,Tahanatapu,variant,3.875833,154.977778,FM-PNI,,
-3741152,-4973174,hypsographic,Takaiuh,Takaiuh,official,6.870278,158.307222,FM-PNI,,
-3740917,-4970331,hypsographic,Anblach,Anblach,variant,9.587778,138.159722,FM-YAP,,
-3740908,-4972771,hydrographic,Qadmaamaang,Qadmaamaang,official,9.559444,138.176389,FM-YAP,,
-3740496,-5088831,hypsographic,Anonima,Anonima,variant,8.766667,150.033333,FM-TRK,,
-3740592,-5098342,hypsographic,Nguchuth,Nguchuth,variant,9.511389,138.077222,FM-YAP,,
-3740820,-4972668,hypsographic,Piyorosu,Piyorosu,variant,10.050833,139.610556,FM-YAP,,
-3740986,-5097464,settlement,Rara,Rara,variant,7.3775,151.875,FM-TRK,,
-3741256,14163431,hypsographic,Toinom,Toinom,variant,5.927778,153.146944,FM-TRK,,
-3741282,-5074135,hypsographic,Teroken-Berg,Teroken-Berg,variant,7.436667,151.848611,FM-TRK,,
-3740476,-5086158,hypsographic,"West Mant Island","West Mant Island",variant,6.978056,158.280833,FM-PNI,,
-3741335,14167502,hypsographic,Onari,Onari,variant,8.753056,150.329444,FM-TRK,,
-3740651,-4972229,hypsographic,"Numurus Island","Numurus Island",variant,8.587778,152.035278,FM-TRK,,
-3741080,-5087359,hypsographic,Songetigetsh,Songetigetsh,variant,9.978056,139.618333,FM-YAP,,
-3741018,-4972937,hypsographic,"Salat Island","Salat Island",variant,7.231944,152.001944,FM-TRK,,
-3741212,-5087505,hypsographic,Tawormel,Tawormel,variant,9.556111,138.140833,FM-YAP,,
-3740809,-4972587,hypsographic,Pikenmetko,Pikenmetko,variant,5.816667,157.333333,FM-PNI,,
-3740788,-4972540,hypsographic,Pielaure,Pielaure,official,8.436944,151.7175,FM-TRK,,
-3741132,-4973140,settlement,"Taf Te","Taf Te",official,5.271667,162.977222,FM-KSA,,
-3741328,-5087428,hypsographic,"Mackenzie Group","Mackenzie Group",variant,9.966667,139.666667,FM-YAP,,
-3740791,-5098218,hypsographic,Pien-tō,Pien-to,variant,5.496944,153.723889,FM-TRK,,
-3740538,-4972043,hypsographic,Nema,Nema,official,6.996667,152.5775,FM-TRK,,
-3740835,-4972647,hypsographic,Pisinifach,Pisinifach,variant,7.674167,151.803056,FM-TRK,,
-3741126,-4973128,hypsographic,Tabilaeg,Tabilaeg,official,9.533333,138.116667,FM-YAP,,
-3740972,-4972852,settlement,Riikeen,Riikeen,official,9.560278,138.196944,FM-YAP,,
-3741322,-4971136,hypsographic,Getsuyō-tō,Getsuyo-to,variant,7.376667,151.714444,FM-TRK,,
-3740983,-5097463,hydrographic,"Roi-en-Kiti Hafen","Roi-en-Kiti Hafen",variant,6.7825,158.157778,FM-PNI,,
-3740875,-5088583,hypsographic,Puch,Puch,variant,7.525,146.341944,FM-YAP,,
-3741113,-4973115,settlement,Taalguw,Taalguw,official,9.521389,138.106667,FM-YAP,,
-3740498,-4971974,hypsographic,"Namuirotoa Island","Namuirotoa Island",variant,3.876389,154.961389,FM-PNI,,
-3741163,-4973196,hypsographic,Taluweed,Taluweed,official,9.528889,138.107222,FM-YAP,,
-3740858,-4972687,settlement,Pohrasapw,Pohrasapw,official,6.807778,158.238889,FM-PNI,,
-3741068,-4973027,hypsographic,Shikaroi,Shikaroi,official,6.75,157.966667,FM-PNI,,
-3741251,-5088265,settlement,Toley,Toley,variant,9.607778,138.1825,FM-YAP,,
-3741207,-5088809,hydrographic,Tauenpalang-Hafen,Tauenpalang-Hafen,variant,6.861944,158.107778,FM-PNI,,
-3740885,-5088338,hypsographic,Ollap,Ollap,variant,7.583333,149.4,FM-TRK,,
-3740875,-4972723,hypsographic,Pugue,Pugue,official,7.525,146.341944,FM-YAP,,
-3740556,-4972892,hypsographic,"Royalist Lagoon","Royalist Lagoon",variant,7.061944,151.940278,FM-TRK,,
-3740808,-4972586,hypsographic,Pikenmategan-tō,Pikenmategan-to,variant,5.831667,157.351111,FM-PNI,,
-3740655,-4972689,hydrographic,"Pok River","Pok River",variant,6.813056,158.196944,FM-PNI,,
-3740587,-5087599,hypsographic,"Seven Islands","Seven Islands",variant,5.85,157.266667,FM-PNI,,
-3740575,-4972093,hydrographic,"Neurui Pass","Neurui Pass",variant,7.211944,151.986944,FM-TRK,,
-3741221,-4973303,park,Tenwak,Tenwak,official,5.313056,163.029722,FM-KSA,,
-3741250,-5088266,hydrographic,Toloy,Toloy,variant,9.566667,138.158889,FM-YAP,,
-3740661,-4972256,hypsographic,"Unun en Ochamu","Unun en Ochamu",official,7.34,151.853056,FM-TRK,,
-3741092,-4973083,hypsographic,Sorenleng,Sorenleng,official,10.045278,139.582778,FM-YAP,,
-3741095,-5087463,hypsographic,Saroan,Saroan,variant,8.133333,140.383333,FM-YAP,,
-3740504,-4971985,hypsographic,Nanior,Nanior,official,6.812222,158.313056,FM-PNI,,
-3741086,-4973071,hypsographic,Sopiram,Sopiram,official,7.358889,151.653611,FM-TRK,,
-3741277,-4973411,hypsographic,Tonelik,Tonelik,variant,7.678056,151.793333,FM-TRK,,
-3740988,-4972882,hypsographic,"Ros Island","Ros Island",variant,6.775556,158.223333,FM-PNI,,
-3740830,-5088574,hypsographic,Pishiefu-tō,Pishiefu-to,variant,8.434167,151.7275,FM-TRK,,
-3740815,-5074384,hydrographic,Woconuuk,Woconuuk,variant,7.226944,151.792778,FM-TRK,,
-3741080,-5087357,hypsographic,Sōgatchikichi-tō,Sogatchikichi-to,variant,9.978056,139.618333,FM-YAP,,
-3740479,-4971922,settlement,Mwanitiw,Mwanitiw,official,7.378611,151.701944,FM-TRK,,
-3741211,-5087503,settlement,Touway,Touway,variant,9.446111,138.063889,FM-YAP,,
-3740784,-4972534,hypsographic,"Piasa Island","Piasa Island",variant,5.521944,153.804444,FM-TRK,,
-3740519,-4971939,hypsographic,"Mount Nadon","Mount Nadon",variant,7.382222,151.878889,FM-TRK,,
-3740577,-4972067,hypsographic,Neoch,Neoch,variant,7.383333,151.75,FM-TRK,,
-3740723,-5059477,hypsographic,Paiparappu,Paiparappu,variant,6.975556,158.186944,FM-PNI,,
-3740859,-4972691,hypsographic,Pollap,Pollap,official,7.644722,149.420833,FM-TRK,,
-3740942,-4972805,spot,Qoon,Qoon,official,9.483333,138.1,FM-YAP,,
-3741133,-5042164,administrative_region,"Tafunsak Municipality","Tafunsak Municipality",variant,5.366667,162.983333,FM-KSA,,
-3740659,-4972254,hypsographic,Ocha,Ocha,official,7.148333,151.886389,FM-TRK,,
-3741027,-4972955,settlement,Sapoer,Sapoer,official,7.333333,151.85,FM-TRK,,
-3740559,-4972070,hypsographic,"Unun en Nepenas","Unun en Nepenas",official,7.386111,151.741667,FM-TRK,,
-3740867,-5098376,hypsographic,Caplin,Caplin,variant,7.203056,151.984722,FM-TRK,,
-3741279,-5077050,hypsographic,Dublon,Dublon,variant,7.373889,151.872222,FM-TRK,,
-3741292,-4973430,hypsographic,Toqiliy,Toqiliy,official,9.533333,138.133333,FM-YAP,,
-3740694,-4972324,hypsographic,"Ono Islet","Ono Islet",variant,8.797778,150.282778,FM-TRK,,
-3740927,-5089941,settlement,Atell,Atell,variant,9.550278,138.109444,FM-YAP,,
-3741261,-5088262,hypsographic,"Wednesday Island","Wednesday Island",variant,7.349722,151.617778,FM-TRK,,
-3740633,-4972194,hypsographic,Nukanap,Nukanap,variant,7.3,151.888889,FM-TRK,,
-3740734,-4972421,hypsographic,"Pamuk Imwintiati","Pamuk Imwintiati",official,6.741389,157.943889,FM-PNI,,
-3741312,-5089936,hypsographic,Tilnguy,Tilnguy,variant,6.93,158.108333,FM-PNI,,
-3741266,-5088307,settlement,Tonokas,Tonokas,official,7.368889,151.603889,FM-TRK,,
-3740812,-5071681,hydrographic,"Pilap-en-Lataw River","Pilap-en-Lataw River",variant,6.883056,158.2875,FM-PNI,,
-3740529,-4970434,hypsographic,Belledu,Belledu,variant,7.381944,151.736111,FM-TRK,,
-3741020,-4972946,settlement,Sannuk,Sannuk,official,7.333333,151.833333,FM-TRK,,
-3741322,-4973843,hypsographic,Wu’tėėt,Wu'teet,variant,7.376667,151.714444,FM-TRK,,
-3741073,-5085408,hypsographic,"Shear Grass Island","Shear Grass Island",variant,7.296111,151.820833,FM-TRK,,
-3740692,-4972322,hypsographic,"Unun en Onoet","Unun en Onoet",variant,7.316667,151.6,FM-TRK,,
-3740841,-4972658,hypsographic,"Pis Islands","Pis Islands",official,6.838056,152.701111,FM-TRK,,
-3740750,-5086751,hydrographic,Peraku-kuchi,Peraku-kuchi,variant,9.514444,138.188611,FM-YAP,,
-3740795,-4972554,hypsographic,"Unun en Piesich","Unun en Piesich",official,7.385833,151.701667,FM-TRK,,
-3740565,-4972079,hypsographic,"Unun en Nepor","Unun en Nepor",official,7.405,151.674444,FM-TRK,,
-3741262,-5087554,hypsographic,"Dolen Awak","Dolen Awak",official,6.959167,158.2525,FM-PNI,,
-3740496,-5088840,hypsographic,"Onon Inseln","Onon Inseln",variant,8.766667,150.033333,FM-TRK,,
-3740742,-4971291,hypsographic,Kaede,Kaede,variant,7.359722,151.786111,FM-TRK,,
-3740532,-4972035,hypsographic,Neinamon,Neinamon,variant,7.338611,151.583611,FM-TRK,,
-3740572,-4972090,hydrographic,"Netutu Channel","Netutu Channel",variant,7.36,151.613333,FM-TRK,,
-3740885,-5088347,hypsographic,Runalin,Runalin,variant,7.583333,149.4,FM-TRK,,
-3740983,-4972871,hydrographic,Ronkite,Ronkite,variant,6.7825,158.157778,FM-PNI,,
-3740785,-5072836,settlement,"Dschountin Handel Station","Dschountin Handel Station",variant,6.970556,158.219167,FM-PNI,,
-3741187,-4973235,hypsographic,Taqabaab,Taqabaab,official,9.565556,138.130833,FM-YAP,,
-3741342,-4973577,hypsographic,Unimas,Unimas,official,7.354444,151.884167,FM-TRK,,
-3740671,-4972269,hypsographic,Oiman,Oiman,official,8.552222,151.683056,FM-TRK,,
-3741079,-5087356,hypsographic,Son-tō,Son-to,variant,10.001111,139.625278,FM-YAP,,
-3741353,-4973599,hypsographic,Unufouach,Unufouach,official,7.348056,151.818333,FM-TRK,,
-3740759,-4972477,hypsographic,Peilepwil,Peilepwil,official,7.066667,157.816667,FM-PNI,,
-3740896,-4972754,settlement,"Putuk Te","Putuk Te",official,5.3475,163.021111,FM-KSA,,
-3740638,-5085430,hypsographic,"Nukun Achaw","Nukun Achaw",variant,7.393056,151.707778,FM-TRK,,
-3740893,-5079556,hypsographic,Pesuwan,Pesuwan,variant,9.471944,138.068056,FM-YAP,,
-3740999,-5098195,settlement,Rudnu,Rudnu,variant,9.584444,138.134167,FM-YAP,,
-3740512,-4971998,settlement,Nanpohnsapw,Nanpohnsapw,official,6.961944,158.218889,FM-PNI,,
-3740887,-5087329,hypsographic,"O Puluot","O Puluot",variant,7.356944,149.198611,FM-TRK,,
-3741240,-4973337,hypsographic,Tiligliig,Tiligliig,official,9.459722,138.071944,FM-YAP,,
-3740549,-4972057,spot,"Oror en Nenipias","Oror en Nenipias",official,7.316667,151.616667,FM-TRK,,
-3741046,-5087380,hypsographic,Fanasas,Fanasas,variant,7.3875,151.739722,FM-TRK,,
-3741183,-4973230,hydrographic,Tanremu,Tanremu,official,10.066667,139.75,FM-YAP,,
-3740496,-5088844,hypsographic,Bunker,Bunker,variant,8.766667,150.033333,FM-TRK,,
-3741217,-5087512,spot,Telib,Telib,variant,9.5,139.116667,FM-YAP,,
-3741245,-4973335,hypsographic,Tilagau,Tilagau,variant,9.571667,138.134722,FM-YAP,,
-3740886,-5085356,hypsographic,"Unun En Nukunau","Unun En Nukunau",variant,7.409444,151.672778,FM-TRK,,
-3740846,-4972652,hydrographic,"Pision Durchfahrt","Pision Durchfahrt",variant,7.190833,151.836667,FM-TRK,,
-3740875,-5088581,hypsographic,Buku,Buku,variant,7.525,146.341944,FM-YAP,,
-3740980,-4972864,settlement,Rohnkiti,Rohnkiti,official,6.816944,158.166667,FM-PNI,,
-3740901,-5088674,settlement,Pokku,Pokku,variant,6.818056,158.196944,FM-PNI,,
-3741105,-4973101,settlement,Srupunyot,Srupunyot,official,5.3575,162.980833,FM-KSA,,
-3741047,-4973051,hydrographic,Sobu-Riff,Sobu-Riff,variant,7.291944,151.561944,FM-TRK,,
-3740678,-5088246,hypsographic,Byakutai,Byakutai,variant,7.483333,151.729167,FM-TRK,,
-3740751,-4972462,hypsographic,Peelaeng,Peelaeng,official,9.584167,138.154167,FM-YAP,,
-3740863,-4972696,hypsographic,Polowat,Polowat,official,7.357222,149.200278,FM-TRK,,
-3740851,-4972679,hypsographic,"Pohn Dollap","Pohn Dollap",variant,6.961111,158.183333,FM-PNI,,
-3740885,-5088345,hypsographic,Pullop,Pullop,variant,7.583333,149.4,FM-TRK,,
-3740556,-4972891,hypsographic,"Royalist Islands","Royalist Islands",variant,7.061944,151.940278,FM-TRK,,
-3741276,-4973409,hypsographic,Tonachau,Tonachau,official,7.454722,151.846111,FM-TRK,,
-3740663,-4972258,spot,"Oror en Ochang","Oror en Ochang",official,7.35,151.616667,FM-TRK,,
-3741328,-5087408,hypsographic,Garbanzos,Garbanzos,variant,9.966667,139.666667,FM-YAP,,
-3740606,-4972137,settlement,Nimal,Nimal,variant,6.965833,158.2025,FM-PNI,,
-3740509,-4971994,hypsographic,"Nanmatol Islands","Nanmatol Islands",official,6.841667,158.341667,FM-PNI,,
-3740857,-4973291,hypsographic,Tehnmei,Tehnmei,variant,6.901667,158.302222,FM-PNI,,
-3741218,-4973295,hypsographic,Temwen,Temwen,official,6.845833,158.322222,FM-PNI,,
-3740856,-4972698,administrative_region,"State of Ponape","State of Ponape",variant,7,158,FM-PNI,,
-3740576,-4972095,hypsographic,Newech,Newech,official,7.446111,151.892778,FM-TRK,,
-3740671,-5089000,hypsographic,Puaimane,Puaimane,variant,8.552222,151.683056,FM-TRK,,
-3741392,-4973697,settlement,Wapparu,Wapparu,official,6.820556,158.275278,FM-PNI,,
-3741046,-4970965,hypsographic,Fenmeias,Fenmeias,variant,7.3875,151.739722,FM-TRK,,
-3741189,-5074120,hypsographic,Tarang,Tarang,variant,9.525278,138.138333,FM-YAP,,
-3741360,-4973614,hypsographic,"Uput Island","Uput Island",variant,7.221667,151.992778,FM-TRK,,
-3741155,-5088326,hypsographic,Takonrau,Takonrau,variant,3.852222,154.999722,FM-PNI,,
-3740762,-4972523,settlement,Peytiu,Peytiu,variant,7.438056,151.871667,FM-TRK,,
-3741006,-5087575,settlement,Ru’,Ru',variant,9.542778,138.176944,FM-YAP,,
-3741307,-4973477,hypsographic,"Tuila Island","Tuila Island",variant,3.861944,154.996111,FM-PNI,,
-3740855,-5088919,hypsographic,Ponapei,Ponapei,variant,6.906944,158.2325,FM-PNI,,
-3740823,-4972622,hydrographic,"Mochun Pisamwe","Mochun Pisamwe",official,7.632222,151.677778,FM-TRK,,
-3740855,-5088909,hypsographic,Faloupet,Faloupet,variant,6.906944,158.2325,FM-PNI,,
-3741012,-4972933,hydrographic,"Infal Saksro","Infal Saksro",official,5.3,162.933333,FM-KSA,,
-3741065,-5098215,hypsographic,Setoanerappu-To,Setoanerappu-To,variant,8.481667,151.808889,FM-TRK,,
-3741211,-5087502,settlement,Tououay,Tououay,variant,9.446111,138.063889,FM-YAP,,
-3740620,-5088829,hypsographic,Nordkap,Nordkap,variant,8.608056,149.676667,FM-TRK,,
-3740704,-4972370,hypsographic,Ounare-To,Ounare-To,variant,5.463611,153.462778,FM-TRK,,
-3740792,-5098222,hypsographic,Pianemane,Pianemane,variant,5.4925,153.741389,FM-TRK,,
-3740805,-4972578,hypsographic,Pike,Pike,official,5.476667,153.471944,FM-TRK,,
-3740929,-4970402,hypsographic,Awoch,Awoch,variant,9.558611,138.113611,FM-YAP,,
-3740815,-4972263,hydrographic,Ochonuk,Ochonuk,variant,7.226944,151.792778,FM-TRK,,
-3741079,-4973062,hypsographic,Song,Song,official,10.001111,139.625278,FM-YAP,,
-3741328,-5087415,hypsographic,Mugmug,Mugmug,variant,9.966667,139.666667,FM-YAP,,
-3740921,-4970350,hypsographic,Ara’,Ara',variant,9.516667,138.15,FM-YAP,,
-3740618,-5088852,hypsographic,Fananou,Fananou,variant,8.533333,151.783333,FM-TRK,,
-3741011,-4972930,park,Sak,Sak,official,5.293611,162.901944,FM-KSA,,
-3740491,-4971956,hypsographic,Namaur,Namaur,variant,6.781944,158.128333,FM-PNI,,
-3740863,-5088648,hypsographic,Poulouhot,Poulouhot,variant,7.357222,149.200278,FM-TRK,,
-3740781,-4972530,hypsographic,Pianemane,Pianemane,official,5.491111,153.750278,FM-TRK,,
-3741134,-5085814,settlement,Tahonsaku,Tahonsaku,variant,5.363056,162.982222,FM-KSA,,
-3740745,-4972456,hypsographic,"Foko Pe","Foko Pe",official,5.275,162.911111,FM-KSA,,
-3741346,-4973583,hypsographic,Unimongemong,Unimongemong,variant,7.371944,151.886111,FM-TRK,,
-3741202,-5071694,hypsographic,"Dawahk Island","Dawahk Island",variant,6.918611,158.095278,FM-PNI,,
-3741206,-5088807,hydrographic,Tauenkepara-Einfahrt,Tauenkepara-Einfahrt,variant,6.85,158.116667,FM-PNI,,
-3740870,-5088589,hypsographic,Petogorosu-tō,Petogorosu-to,variant,10.081389,139.678889,FM-YAP,,
-3741040,-4972976,spot,"Oror en Sapotiw","Oror en Sapotiw",official,7.283333,151.883333,FM-TRK,,
-3740526,-4972027,park,Nefalil,Nefalil,official,5.275833,162.938611,FM-KSA,,
-3741080,-5087360,hypsographic,"Sogatikichi To","Sogatikichi To",variant,9.978056,139.618333,FM-YAP,,
-3740519,-4972182,hypsographic,Noton,Noton,variant,7.382222,151.878889,FM-TRK,,
-3740606,-4972688,settlement,Pohtakied,Pohtakied,variant,6.965833,158.2025,FM-PNI,,
-3740808,-4972580,hypsographic,Pikengaren,Pikengaren,variant,5.831667,157.351111,FM-PNI,,
-3740962,-5086142,administrative_region,Mutok,Mutok,variant,6.807222,158.258333,FM-PNI,,
-3741158,-4973190,hypsographic,Talap,Talap,official,6.836389,152.695,FM-TRK,,
-3740647,-5088964,hypsographic,Nukuoro,Nukuoro,official,3.85,154.966667,FM-PNI,,
-3741366,-4973620,hydrographic,Uranu,Uranu,official,7.522222,151.618611,FM-TRK,,
-3740922,-5088168,settlement,Aringell,Aringell,variant,9.520556,138.086111,FM-YAP,,
-3740980,-5097457,settlement,Ronkichi,Ronkichi,variant,6.816944,158.166667,FM-PNI,,
-3741098,-5087472,hydrographic,Minami-suidō,Minami-suido,variant,5.286389,153.633333,FM-TRK,,
-3741283,-4973387,hypsographic,"Tolomen Mountain","Tolomen Mountain",variant,7.37,151.866667,FM-TRK,,
-3740854,-4972682,settlement,Pohnmangahng,Pohnmangahng,official,6.966667,158.233333,FM-PNI,,
-3741273,-5085465,settlement,Tomorolong,Tomorolong,variant,6.8425,158.157222,FM-PNI,,
-3741339,-4970442,hypsographic,"Berg Adeamer Peak","Berg Adeamer Peak",variant,7.372778,151.583889,FM-TRK,,
-3740767,-4972497,settlement,Pelia,Pelia,variant,7.389167,151.705278,FM-TRK,,
-3740534,-4972039,settlement,Neirenom,Neirenom,official,7.323889,151.5875,FM-TRK,,
-3740952,-4972819,hydrographic,Ramoriyoshi,Ramoriyoshi,official,9.916667,139.6,FM-YAP,,
-3741331,-5087630,hypsographic,Uroru,Uroru,variant,7.410278,146.176111,FM-YAP,,
-3741354,-4972197,hypsographic,"Unun en Nukanap","Unun en Nukanap",variant,7.465278,151.845556,FM-TRK,,
-3741210,-4973275,hydrographic,"Namun Tawanap","Namun Tawanap",official,7.463056,151.860556,FM-TRK,,
-3740962,-5096701,administrative_region,Rentou,Rentou,variant,6.807222,158.258333,FM-PNI,,
-3741294,-4973440,hypsographic,Torongahai,Torongahai,variant,1.1,154.766667,FM-PNI,,
-3741172,-4973206,hydrographic,"Tamaryr Reef","Tamaryr Reef",official,7.25,151.616667,FM-TRK,,
-3740801,-5081027,hypsographic,"Scheiben Insel","Scheiben Insel",variant,8.581944,150.407222,FM-TRK,,
-3741061,-4973011,hydrographic,"Pillapen Semwei","Pillapen Semwei",official,6.7975,158.2275,FM-PNI,,
-3741157,-5085434,settlement,Talangiz,Talangiz,variant,9.588611,138.161944,FM-YAP,,
-3740678,-5088248,hypsographic,Sakaki-To,Sakaki-To,variant,7.483333,151.729167,FM-TRK,,
-3741014,-4971615,hypsographic,"Mangapeilong Point","Mangapeilong Point",variant,6.952778,158.151667,FM-PNI,,
-3740587,-4972109,hypsographic,"Ngatik Atoll","Ngatik Atoll",official,5.85,157.266667,FM-PNI,,
-3741277,-5079091,hypsographic,"Mouse Island","Mouse Island",variant,7.678056,151.793333,FM-TRK,,
-3740615,-5098205,hypsographic,"Nomoneas Islands","Nomoneas Islands",variant,7.4,151.883333,FM-TRK,,
-3740770,-5083690,hypsographic,"Ununen Penienuk","Ununen Penienuk",official,7.412778,151.662222,FM-TRK,,
-3740598,-4972135,hypsographic,Nikuhatu,Nikuhatu,variant,1.05,154.8,FM-PNI,,
-3741328,-5087411,hypsographic,Lamululutup,Lamululutup,variant,9.966667,139.666667,FM-YAP,,
-3741283,-5087350,hypsographic,Tolowan,Tolowan,variant,7.37,151.866667,FM-TRK,,
-3740628,-4972060,hydrographic,Nenom,Nenom,variant,7.367222,151.884444,FM-TRK,,
-3740825,-5087278,hypsographic,"I Jima","I Jima",variant,7.315833,152.011667,FM-TRK,,
-3741056,-4972994,hypsographic,"Satawan Islands","Satawan Islands",variant,5.416667,153.583333,FM-TRK,,
-3741205,-5088803,hydrographic,Ramosu-suidō,Ramosu-suido,variant,6.766667,157.996667,FM-PNI,,
-3740491,-5074142,hypsographic,Namwmour,Namwmour,official,6.781944,158.128333,FM-PNI,,
-3740505,-5096586,hydrographic,"Point Nankapenparam","Point Nankapenparam",variant,7.0675,158.248056,FM-PNI,,
-3741143,-5088099,settlement,Tagagin,Tagagin,variant,9.5,138.0875,FM-YAP,,
-3740633,-4972132,hypsographic,Nikanap,Nikanap,variant,7.3,151.888889,FM-TRK,,
-3741095,-5087467,hypsographic,Saraon,Saraon,variant,8.133333,140.383333,FM-YAP,,
-3740686,-4972303,hypsographic,Onamue,Onamue,variant,7.343889,151.515,FM-TRK,,
-3740822,-4972621,hypsographic,Pisamwe,Pisamwe,official,7.636667,151.677778,FM-TRK,,
-3741277,-4973412,hypsographic,"Tonelik Island","Tonelik Island",variant,7.678056,151.793333,FM-TRK,,
-3740541,-5086779,hypsographic,Urimo,Urimo,variant,7.386111,151.892778,FM-TRK,,
-3740836,-5087117,hypsographic,Ran,Ran,variant,7.650278,151.679444,FM-TRK,,
-3741057,-5088691,hypsographic,Han,Han,variant,7.348056,149.188056,FM-TRK,,
-3741103,-4973000,hypsographic,"Sawansaku Island","Sawansaku Island",variant,5.35,162.961667,FM-KSA,,
-3741275,-4973404,hydrographic,Tomwena,Tomwena,official,6.786111,151.195833,FM-PNI,,
-3740503,-5087129,hypsographic,Nahamur,Nahamur,variant,6.829722,158.3225,FM-PNI,,
-3740840,-4973003,hypsographic,"Scheiben Island","Scheiben Island",variant,7.481667,151.825,FM-TRK,,
-3741056,-5088680,hypsographic,"Young William Islands","Young William Islands",variant,5.416667,153.583333,FM-TRK,,
-3741289,-4973427,hypsographic,Tooraaq,Tooraaq,official,7.3275,151.635556,FM-TRK,,
-3740485,-5096329,hypsographic,Nadju,Nadju,variant,7.219722,151.986944,FM-TRK,,
-3741196,-5087495,hypsographic,"Tarin To","Tarin To",variant,1.073333,154.801667,FM-PNI,,
-3741150,-4973176,hypsographic,"Takai Uh","Takai Uh",variant,6.933889,158.289444,FM-PNI,,
-3741173,-4973207,hypsographic,Tamatam,Tamatam,official,7.543333,149.412222,FM-TRK,,
-3740761,-4972481,hypsographic,"Peinantomara Islands","Peinantomara Islands",official,6.894444,158.101944,FM-PNI,,
-3740798,-5098236,hypsographic,"Pegerairega To","Pegerairega To",variant,9.994722,139.631667,FM-YAP,,
-3740610,-4972153,hypsographic,Niurekida,Niurekida,official,3.883333,154.966667,FM-PNI,,
-3740804,-5079225,hypsographic,"North Island","North Island",variant,7.675,151.761111,FM-TRK,,
-3741295,-4973444,hypsographic,"Toronmurui Island","Toronmurui Island",official,6.75,157.95,FM-PNI,,
-3740683,-5079112,settlement,Amun,Amun,variant,9.600278,138.165278,FM-YAP,,
-3741257,-4973370,hypsographic,Tokongo,Tokongo,variant,1.033333,154.783333,FM-PNI,,
-3740927,-4972790,settlement,Qatliw,Qatliw,official,9.550278,138.109444,FM-YAP,,
-3740486,-4971941,spot,"Oror en Nafonong","Oror en Nafonong",official,7.333333,151.633333,FM-TRK,,
-3740883,-4972733,settlement,"Pukusruk Te","Pukusruk Te",official,5.351389,163.02,FM-KSA,,
-3740743,-4972384,hypsographic,Pacha,Pacha,variant,6.812222,158.014444,FM-PNI,,
-3741328,-5087407,hypsographic,Egoy,Egoy,variant,9.966667,139.666667,FM-YAP,,
-3740695,-4972329,hypsographic,Onoun,Onoun,official,8.589444,149.660278,FM-TRK,,
-3741286,-4973424,hypsographic,Toon’malaed,Toon'malaed,official,9.54,138.180833,FM-YAP,,
-3741045,-4972981,hypsographic,Sapou,Sapou,official,7.343056,151.666111,FM-TRK,,
-3740707,-5088179,hypsographic,"Oraluk Islands","Oraluk Islands",variant,7.533333,155.3,FM-PNI,,
-3740556,-5088881,hypsographic,"Royal Islands","Royal Islands",variant,7.061944,151.940278,FM-TRK,,
-3741219,-4973299,hypsographic,Temwetemwensekir,Temwetemwensekir,official,6.910556,158.180556,FM-PNI,,
-3741304,-5085776,hypsographic,Rukgruppe,Rukgruppe,variant,7.416667,151.783333,FM-TRK,,
-3740503,-5087130,hypsographic,Naningi,Naningi,variant,6.829722,158.3225,FM-PNI,,
-3740705,-4972352,hypsographic,"Oroluk Island","Oroluk Island",variant,7.628889,155.161389,FM-PNI,,
-3740672,-5083684,hydrographic,Eoin,Eoin,variant,7.403611,151.699167,FM-TRK,,
-3740963,-4972836,settlement,Rekisou,Rekisou,official,6.966667,158.2,FM-PNI,,
-3740899,-4972708,settlement,Pone,Pone,variant,7.365278,151.8625,FM-TRK,,
-3741054,-4972996,hypsographic,Satowan,Satowan,official,5.325,153.736667,FM-TRK,,
-3740684,-5074421,hypsographic,Wonaw,Wonaw,variant,7.671389,151.826944,FM-TRK,,
-3740804,-5079227,hypsographic,Pis,Pis,variant,7.675,151.761111,FM-TRK,,
-3741064,-4973016,hypsographic,"Senyavin Islands","Senyavin Islands",official,6.916667,158,FM-PNI,,
-3741094,-5087458,hypsographic,Sororu-tō,Sororu-to,variant,8.133333,140.410833,FM-YAP,,
-3741199,-5087496,hypsographic,Tithethay,Tithethay,variant,9.539167,138.183056,FM-YAP,,
-3741004,-5087582,hypsographic,Runguch,Runguch,variant,9.572778,138.176111,FM-YAP,,
-3740743,-4972452,hypsographic,Patyal,Patyal,variant,6.812222,158.014444,FM-PNI,,
-3741312,-4973924,hypsographic,"Cape Zavalichine","Cape Zavalichine",variant,6.93,158.108333,FM-PNI,,
-3741227,-4973313,settlement,Thabeeth,Thabeeth,official,9.453333,138.065278,FM-YAP,,
-3740852,-4972680,settlement,Pohniak,Pohniak,official,6.866667,158.2925,FM-PNI,,
-3741202,-4973261,hypsographic,Tauak,Tauak,official,6.918611,158.095278,FM-PNI,,
-3740855,-5088923,hypsographic,"William IV-Insel","William IV-Insel",variant,6.906944,158.2325,FM-PNI,,
-3741019,-4972942,hypsographic,"Sand Island","Sand Island",official,7.335556,143.880278,FM-YAP,,
-3741099,-4971762,hydrographic,Minami,Minami,variant,7.223611,151.798333,FM-TRK,,
-3740770,-4972506,hypsographic,"Unun en Penianuk","Unun en Penianuk",variant,7.412778,151.662222,FM-TRK,,
-3740660,-5071716,hydrographic,"Otashima Suido","Otashima Suido",variant,7.153611,151.878056,FM-TRK,,
-3740677,-4973708,administrative_region,"Weeloay District","Weeloay District",variant,9.533333,138.1,FM-YAP,,
-3740842,-4972659,hydrographic,"Namun Nenomonen","Namun Nenomonen",official,7.46,151.8625,FM-TRK,,
-3741397,-4973701,hydrographic,Waserimeyoruuechichi,Waserimeyoruuechichi,official,9.933333,139.666667,FM-YAP,,
-3741057,-5088689,hypsographic,Sua,Sua,variant,7.348056,149.188056,FM-TRK,,
-3741202,-5071695,hypsographic,Tauaku-To,Tauaku-To,variant,6.918611,158.095278,FM-PNI,,
-3741203,-5086808,hydrographic,Tauak-Hafen,Tauak-Hafen,variant,6.914722,158.097222,FM-PNI,,
-3741323,-4973511,hydrographic,Udot,Udot,official,7.383333,151.75,FM-TRK,,
-3740804,-4972576,hypsographic,"Piis Moen","Piis Moen",variant,7.675,151.761111,FM-TRK,,
-3740513,-4971999,hypsographic,Nanpuil,Nanpuil,variant,6.795278,158.305,FM-PNI,,
-3741384,-4973683,settlement,Wachngal,Wachngal,official,9.595,138.185278,FM-YAP,,
-3741104,-4973100,hypsographic,Srukames,Srukames,official,5.310833,162.915278,FM-KSA,,
-3740921,-4972784,hypsographic,Qaraq,Qaraq,official,9.516667,138.15,FM-YAP,,
-3740932,-4970407,settlement,Ayrach,Ayrach,variant,9.580833,138.129167,FM-YAP,,
-3741225,-5074138,hypsographic,Lap,Lap,variant,7.661667,151.851944,FM-TRK,,
-3741114,-5085824,hypsographic,Taneaw,Taneaw,variant,9.546944,138.102778,FM-YAP,,
-3740647,-5088973,hypsographic,Nuguor,Nuguor,variant,3.85,154.966667,FM-PNI,,
-3740855,-5088922,hypsographic,Torres,Torres,variant,6.906944,158.2325,FM-PNI,,
-3741056,-5088681,hypsographic,"Satoan Group","Satoan Group",variant,5.416667,153.583333,FM-TRK,,
-3741283,-5087349,hypsographic,Tolemuan,Tolemuan,variant,7.37,151.866667,FM-TRK,,
-3741146,-4973157,hydrographic,"Tagern Canal","Tagern Canal",variant,9.558333,138.149444,FM-YAP,,
-3740518,-4972009,hypsographic,Narasu,Narasu,variant,6.75,157.966667,FM-PNI,,
-3740707,19801285,hypsographic,Oroluk,Oroluk,official,7.533333,155.3,FM-PNI,,
