wgdPlaceId,wgdId,type,name,fullName,nameType,latitude,longitude,administrationGroup,isHistorical,isCapital
6034032,6079184,administrative_region,Usumbura,Usumbura,variant,-3.333333,29.256944,BI-000,1,
6034032,6079189,administrative_region,"Province de Bujumbura","Province de Bujumbura",official,-3.333333,29.256944,BI-000,1,
6034032,6038661,administrative_region,"iProvense ya Bujumbura","iProvense ya Bujumbura",official,-3.333333,29.256944,BI-000,1,
6066308,6072886,settlement,Gasaba,Gasaba,official,-4.3713,29.6778,BI-MA,,
11080410,12338211,settlement,Rango,Rango,official,-2.8139,30.3591,BI-MY,,
-3432461,-4870772,hydrographic,"Lac Rweru","Lac Rweru",official,-2.3589,30.324,S1-000,,
-3432461,-4870735,hydrographic,"Lac Rugwero","Lac Rugwero",variant,-2.3589,30.324,S1-000,,
-3432461,-4870736,hydrographic,Rweru,Rweru,variant,-2.3589,30.324,S1-000,,
-3432450,-4870750,hydrographic,"Lac Shoho","Lac Shoho",variant,-2.429444,30.102222,S1-000,,
-3432450,-4870753,hydrographic,"Lac Tshohoha","Lac Tshohoha",variant,-2.429444,30.102222,S1-000,,
-3432450,-4870754,hydrographic,"Lac Tshohoha-Sud","Lac Tshohoha-Sud",variant,-2.429444,30.102222,S1-000,,
-3432450,-4870701,hydrographic,Cohoha,Cohoha,variant,-2.429444,30.102222,S1-000,,
-3432450,-4870766,hydrographic,"Lac Cohoha Sud","Lac Cohoha Sud",official,-2.429444,30.102222,S1-000,,
-3432450,-4870700,hydrographic,"Lac Cyohoha Sud","Lac Cyohoha Sud",official,-2.429444,30.102222,S1-000,,
-2573125,-3541282,hydrographic,Ruvubu,Ruvubu,official,-2.388611,30.781111,S1-000,,
-2574086,-3541767,hydrographic,Shizanie,Shizanie,variant,-2.654,30.5274,S1-000,,
-2574086,-3541768,hydrographic,Shizanye,Shizanye,variant,-2.654,30.5274,S1-000,,
-2574086,-3542467,hydrographic,Cizanye,Cizanye,official,-2.654,30.5274,S1-000,,
-2574086,-3542466,hydrographic,Tshizanye,Tshizanye,official,-2.654,30.5274,S1-000,,
-2574086,-3527848,hydrographic,"Chizanye River","Chizanye River",variant,-2.654,30.5274,S1-000,,
-2573125,-3541281,hydrographic,Ruvuvu,Ruvuvu,official,-2.388611,30.781111,S1-000,,
-2574086,-3528514,hydrographic,Ghizanye,Ghizanye,variant,-2.654,30.5274,S1-000,,
-2572315,-3540254,hydrographic,Nyamuyumbu,Nyamuyumbu,official,-3.233333,30.883333,S1-000,,
-2571040,-3538680,hydrographic,Mwerusi,Mwerusi,variant,-3.205,31.167778,S1-000,,
-2571040,-3538708,hydrographic,Mwiruzi,Mwiruzi,variant,-3.205,31.167778,S1-000,,
-2572315,-3540041,hydrographic,Nyabuyombu,Nyabuyombu,variant,-3.233333,30.883333,S1-000,,
-2571040,-3538681,hydrographic,Mweruzi,Mweruzi,official,-3.205,31.167778,S1-000,,
-2572315,-3540255,hydrographic,Nyabuyumbu,Nyabuyumbu,official,-3.233333,30.883333,S1-000,,
-2571040,-3540348,hydrographic,Nyanzali,Nyanzali,variant,-3.205,31.167778,S1-000,,
-2567090,9167316,hydrographic,Rumpungwe,Rumpungwe,official,-3.7954,30.4011,S1-000,,
-2567589,-3534558,hydrographic,Mukarasi,Mukarasi,official,-3.55,30.45,S1-000,,
-2567709,-2607796,hydrographic,"Malagarasi River","Malagarasi River",variant,-5.2,29.783333,S1-000,,
-2567709,-3536941,hydrographic,Mlagarassi,Mlagarassi,variant,-5.2,29.783333,S1-000,,
-2567589,-3538091,hydrographic,Mukapasi,Mukapasi,variant,-3.55,30.45,S1-000,,
-2567589,-3537169,hydrographic,Mokapasi,Mokapasi,variant,-3.55,30.45,S1-000,,
-2567709,9167323,hydrographic,Maragarazi,Maragarazi,official,-5.2,29.783333,S1-000,,
-2567090,-3533954,hydrographic,Rumpungu,Rumpungu,variant,-3.7954,30.4011,S1-000,,
-2567709,-3534715,hydrographic,Malagarazi,Malagarazi,variant,-5.2,29.783333,S1-000,,
-2567709,-3534712,hydrographic,Malagarasi,Malagarasi,official,-5.2,29.783333,S1-000,,
-2567090,-3533953,hydrographic,Lumpungu,Lumpungu,variant,-3.7954,30.4011,S1-000,,
-2567589,-3534557,hydrographic,Makarasi,Makarasi,official,-3.55,30.45,S1-000,,
-2567709,-3534713,hydrographic,Muragarazi,Muragarazi,variant,-5.2,29.783333,S1-000,,
-2567090,-3542783,hydrographic,Umpungu,Umpungu,variant,-3.7954,30.4011,S1-000,,
-2305465,-3182264,hydrographic,"Tanganyka Meer","Tanganyka Meer",variant,-6,29.5,S1-000,,
-2305465,-3182257,hydrographic,"Lake Tanganyika",LakeTanganyika,colloquial,-6,29.5,S1-000,,
-2305465,-3182255,hydrographic,Tanganyika,Tanganyika,variant,-6,29.5,S1-000,,
-2305465,-3182261,hydrographic,"Lac Tanganika",LacTanganika,official,-6,29.5,S1-000,,
-2305465,-3182263,hydrographic,"Lac Tanganyka",LacTanganyka,variant,-6,29.5,S1-000,,
-2305465,-3182259,hydrographic,"Lake Tanganyika",LakeTanganyika,official,-6,29.5,S1-000,,
-2305465,-3182254,hydrographic,"Tanganjika See","Tanganjika See",variant,-6,29.5,S1-000,,
-2180220,-3015124,hydrographic,Akanyaru,Akanyaru,official,-2.0725,30.0183,S1-000,,
-2180220,-3015125,hydrographic,Kanyaru,Kanyaru,official,-2.0725,30.0183,S1-000,,
-2181567,-3017100,hydrographic,Mpanda,Mpanda,official,-3.3183,29.2792,BI-000,,
-2058837,9167297,hydrographic,"Petite Rusizi","Petite Rusizi",official,-3.335334,29.179811,S1-000,,
-2058837,-2855647,hydrographic,"Rusizi Rutoya","Rusizi Rutoya",variant,-3.335334,29.179811,S1-000,,
-2058837,-2855646,hydrographic,"Petite Ruzizi","Petite Ruzizi",official,-3.335334,29.179811,S1-000,,
38291,47998,hydrographic,Agatete,Agatete,official,-2.3681,30.2494,S1-000,,
38291,12318947,hydrographic,Gatete,Gatete,official,-2.3681,30.2494,S1-000,,
6030342,6034836,hydrographic,Mubarazi,Mubarazi,official,-4.4271,29.7035,BI-MA,,
6030391,6034885,hypsographic,Samweru,Samweru,official,-4.2901,29.7902,BI-MA,,
6030393,6034887,settlement,Gituguta,Gituguta,official,-4.2895,29.9388,BI-MA,,
6030392,6034886,settlement,Ruremba,Ruremba,official,-4.2897,29.9975,BI-MA,,
6030346,6034840,settlement,Banda,Banda,official,-4.4435,29.667,BI-MA,,
6030390,6034884,settlement,Jimbi,Jimbi,official,-4.2863,29.8817,BI-MA,,
6030347,6034841,settlement,Materwa,Materwa,official,-4.4459,29.7444,BI-MA,,
6030343,6034837,hydrographic,Nyabitare,Nyabitare,official,-4.4375,29.6762,BI-MA,,
6030345,6034839,hypsographic,Rugumira,Rugumira,official,-4.440556,29.696667,BI-MA,,
6030394,6034888,settlement,Muyange,Muyange,official,-4.3,29.697222,BI-MA,,
6030389,6034883,park,Nyakazi,Nyakazi,official,-4.2889,29.953,BI-MA,,
6030397,6034891,settlement,Nkondo,Nkondo,official,-4.294,29.8049,BI-MA,,
6030396,6034890,park,Mabanda,Mabanda,official,-4.294763,29.776039,BI-MA,,
6030429,6034923,hydrographic,Majaba,Majaba,official,-4.3502,29.9129,BI-MA,,
6030493,6034987,settlement,Mugano,Mugano,official,-4.0321,29.5472,BI-BR,,
6030427,6034921,settlement,Kavumu,Kavumu,official,-4.3331,29.8284,BI-MA,,
6030496,6034990,hypsographic,Taba,Taba,official,-4.0267,29.7388,BI-BR,,
6030428,6034922,settlement,Mushara,Mushara,official,-4.3357,29.7694,BI-MA,,
6030426,6034920,hydrographic,Kagera,Kagera,official,-4.3388,29.9382,BI-MA,,
6030494,6034988,vegetation,Mwagu,Mwagu,official,-4.0273,29.4793,BI-RM,,
6030495,6034989,settlement,Burenza,Burenza,official,-4.0325,29.7232,BI-BR,,
6030430,6034924,settlement,Muterama,Muterama,official,-4.337,29.8185,BI-MA,,
6030431,6034925,hydrographic,Nyakagezi,Nyakagezi,official,-4.3321,29.7741,BI-MA,,
6030492,6034986,settlement,Murehe,Murehe,official,-4.0284,29.7124,BI-BR,,
6030497,6034991,hypsographic,Sure,Sure,official,-4.0305,29.668,BI-BR,,
6030570,6035064,hydrographic,Kamangu,Kamangu,official,-4.0963,29.5083,BI-RM,,
6030498,6034992,settlement,Gihinga,Gihinga,official,-4.0279,29.6314,BI-BR,,
6030571,6035065,settlement,Nyambeho,Nyambeho,official,-4.0936,29.7119,BI-MA,,
6030572,6035066,settlement,Mutobo,Mutobo,official,-4.0952,29.6809,BI-MA,,
6030538,6035032,settlement,Migera,Migera,official,-4.0659,29.5863,BI-BR,,
6030578,6035072,settlement,Rukoma,Rukoma,official,-4.0995,29.7325,BI-MA,,
6030576,6035070,hypsographic,Kirerama,Kirerama,official,-4.0976,29.5214,BI-RM,,
6030585,6035079,hydrographic,Mukungwe,Mukungwe,official,-4.10335,29.650943,BI-MA,,
6030579,6035073,hypsographic,Mbiga,Mbiga,official,-4.1009,29.6391,BI-BR,,
6030574,6035068,park,Maramvya,Maramvya,official,-4.0967,29.5863,BI-BR,,
6030582,6035076,hydrographic,Gakere,Gakere,official,-4.0955,29.5367,BI-BR,,
6030575,6035069,hydrographic,Mugurube,Mugurube,official,-4.1138,29.6436,BI-BR,,
6030573,6035067,settlement,Runda,Runda,official,-4.096,29.7003,BI-MA,,
6030618,6035112,hypsographic,Shori,Shori,official,-4.1288,29.6111,BI-BR,,
6030584,6035078,hydrographic,Murenge,Murenge,official,-4.115221,29.7253,BI-MA,,
6030583,6035077,settlement,Vyanda,Vyanda,official,-4.1024,29.606,BI-BR,,
6030581,6035075,settlement,Kagoma,Kagoma,official,-4.1062,29.6218,BI-BR,,
6030577,6035071,hypsographic,Muzimu,Muzimu,official,-4.1001,29.5629,BI-BR,,
6030485,6034979,hypsographic,Gatunda,Gatunda,official,-4.0197,29.7068,BI-BR,,
6030681,6035175,hypsographic,Songa,Songa,official,-4.177,29.7312,BI-MA,,
6030933,6035427,park,Mukinga,Mukinga,official,-4.1644,29.979,BI-MA,,
6031341,6035835,hydrographic,Nyankoba,Nyankoba,official,-3.7596,30.2179,BI-RT,,
6030947,6035441,settlement,Musanga,Musanga,official,-4.1747,29.7545,BI-MA,,
6030787,6035281,settlement,Kabago,Kabago,official,-4.0498,29.8919,BI-RT,,
6030550,6035044,hypsographic,Kibanga,Kibanga,official,-4.0758,29.7262,BI-MA,,
6030841,6035335,hydrographic,Nyantanga,Nyantanga,official,-4.1228,29.8088,BI-MA,,
6031031,6035525,settlement,Mahanga,Mahanga,official,-4.2492,29.9547,BI-MA,,
6031394,6035888,hydrographic,Gishanga,Gishanga,official,-3.7927,30.0255,BI-RT,,
6030703,6035197,settlement,Kibira,Kibira,official,-4.196,29.7149,BI-MA,,
6030863,6035357,settlement,Bisoro,Bisoro,official,-4.118048,29.961584,BI-MA,,
6031210,6035704,hydrographic,Kivuruga,Kivuruga,official,-3.8246,29.9856,BI-RT,,
6030942,6035436,hydrographic,Nyagasivya,Nyagasivya,official,-4.163861,29.965836,BI-MA,,
6030339,6038319,hydrographic,Mukelezi,Mukelezi,variant,-4.4397,29.6663,BI-MA,,
6031174,6035668,hydrographic,Gasenyi,Gasenyi,official,-3.8054,29.7904,BI-GI,,
6030818,6035312,settlement,Gisuma,Gisuma,official,-4.0805,29.7748,BI-MA,,
6031291,6035785,hypsographic,Buraruka,Buraruka,official,-3.979167,29.845278,BI-RT,,
6031251,6035745,settlement,Gisenyi,Gisenyi,official,-3.9505,29.9866,BI-RT,,
6030763,6035257,settlement,Samahuge,Samahuge,official,-4.0247,29.8268,BI-000,,
6030361,6034855,settlement,Kinyami,Kinyami,official,-4.2644,29.7625,BI-MA,,
6030852,6035346,settlement,Gahosha,Gahosha,official,-4.1104,29.8128,BI-MA,,
6030882,6035376,hydrographic,Nyabugwena,Nyabugwena,official,-4.13233,29.794381,BI-MA,,
6031359,6035853,settlement,Nyabisindu,Nyabisindu,official,-3.7708,30.0654,BI-RT,,
6030335,6034829,hypsographic,Buganda,Buganda,official,-4.426944,29.718333,BI-MA,,
6031077,6035571,settlement,Kinyiganyiga,Kinyiganyiga,official,-4.1003,30.0874,BI-MA,,
6031124,6035618,settlement,Buhinyuza,Buhinyuza,official,-3.764,29.8817,BI-GI,,
6031337,6035831,settlement,Muyange,Muyange,official,-3.7571,30.0646,BI-RT,,
6031029,6035523,hydrographic,Nyankende,Nyankende,official,-4.252138,29.978521,BI-MA,,
6030480,6034974,settlement,"Gitwe I","Gitwe I",official,-4.0117,29.5123,BI-RM,,
6030568,6035062,settlement,Karonda,Karonda,official,-4.0918,29.4893,BI-RM,,
6030372,6034866,park,Buzenga,Buzenga,official,-4.2735,29.7925,BI-MA,,
6030828,6035322,hydrographic,Ndurumu,Ndurumu,official,-4.0838,29.7972,BI-MA,,
6030753,6035247,hydrographic,Cunda,Cunda,official,-4.0768,29.9114,BI-RT,,
6031001,6035495,settlement,Kivumu,Kivumu,official,-4.2259,29.7816,BI-MA,,
6030772,6035266,hypsographic,Kabanga,Kabanga,official,-4.0317,29.8824,BI-RT,,
6030435,6034929,settlement,Muremure,Muremure,official,-4.3452,29.8295,BI-MA,,
6030778,6035272,settlement,Butare,Butare,official,-4.044,29.9816,BI-RT,,
6030482,6034976,settlement,Gahama,Gahama,official,-4.0174,29.6618,BI-BR,,
6030639,6035133,hypsographic,Kagomogomo,Kagomogomo,official,-4.1397,29.5934,BI-BR,,
6031157,6035651,hydrographic,Gihanga,Gihanga,official,-3.7798,29.8085,BI-GI,,
6030769,6035263,settlement,Timbura,Timbura,official,-4.032,29.9501,BI-RT,,
6031094,6035588,settlement,Gitanga,Gitanga,official,-4.1639,30.0138,BI-MA,,
6030488,6034982,hydrographic,Gatete,Gatete,official,-4.0269,29.4645,BI-RM,,
6030866,6038335,hydrographic,Buyezi,Buyezi,variant,-4.1297,29.7868,BI-MA,,
6030835,6035329,settlement,Rushanga,Rushanga,official,-4.0957,29.8226,BI-MA,,
6030838,6035332,settlement,Kinoso,Kinoso,official,-4.1022,29.8688,BI-MA,,
6030690,6035184,hypsographic,Kayanza,Kayanza,official,-4.1841,29.5638,BI-MA,,
6030629,6035123,hypsographic,Sevyanda,Sevyanda,official,-4.1282,29.5997,BI-BR,,
6030353,6034847,settlement,Ncanyi,Ncanyi,official,-4.256204,29.798229,BI-MA,,
6031137,6035631,settlement,Cabumba,Cabumba,official,-3.7706,29.8641,BI-GI,,
6030931,6035425,settlement,Numbi,Numbi,official,-4.1607,29.7862,BI-MA,,
6031262,6035756,hydrographic,Kagogo,Kagogo,official,-3.959039,29.895261,BI-RT,,
6030741,6035235,hydrographic,Kibezi,Kibezi,official,-4.2458,29.7332,BI-MA,,
6031211,6035705,hydrographic,Nyabibugu,Nyabibugu,official,-3.8149,29.8953,BI-BR,,
6030729,6035223,settlement,Mubondo,Mubondo,official,-4.2338,29.7399,BI-MA,,
6030936,6035430,settlement,Binzagara,Binzagara,official,-4.165,29.7536,BI-MA,,
6030434,6034928,settlement,Bikobe,Bikobe,official,-4.3468,29.799,BI-MA,,
6030619,6035113,hydrographic,Muremazi,Muremazi,official,-4.1293,29.6491,BI-MA,,
6031268,6038352,settlement,Gakwende,Gakwende,official,-3.9599,29.883,BI-RT,,
6031141,6035635,hydrographic,Nyakaruruma,Nyakaruruma,official,-3.7695,29.9028,BI-GI,,
6031271,6035765,settlement,Nyarwaga,Nyarwaga,official,-3.9618,29.7555,BI-BR,,
6030864,6035358,hydrographic,Muguruka,Muguruka,official,-4.1112,29.886,BI-MA,,
6030386,6034880,settlement,Kabarazaga,Kabarazaga,official,-4.2817,29.8411,BI-MA,,
6030718,6035212,hypsographic,Rubonda,Rubonda,official,-4.2224,29.6817,BI-MA,,
6030881,6035375,settlement,Nyarunazi,Nyarunazi,official,-4.1308,29.827,BI-MA,,
6030470,6034964,settlement,Gatanga,Gatanga,official,-4.0096,29.7204,BI-BR,,
6030906,6035400,settlement,Siza,Siza,official,-4.1429,29.7584,BI-MA,,
6030696,6038332,park,"Mont Karonge","Mont Karonge",variant,-4.188,29.6676,BI-MA,,
6031044,6035538,settlement,Rusunu,Rusunu,official,-4.0208,30.1419,BI-RT,,
6030922,6035416,hydrographic,Rukoziri,Rukoziri,official,-4.1534,29.779,BI-MA,,
6030654,6035148,hypsographic,Nyakibari,Nyakibari,official,-4.1471,29.5675,BI-BR,,
6030816,6035310,settlement,Cunamwe,Cunamwe,official,-4.0796,29.8008,BI-MA,,
6031144,6035638,settlement,Rutoke,Rutoke,official,-3.7751,29.8159,BI-BR,,
6030506,6035000,settlement,Ntunda,Ntunda,official,-4.0364,29.6617,BI-BR,,
6030548,6035042,hydrographic,Rwanyosha,Rwanyosha,official,-4.0689,29.5597,BI-BR,,
6030412,6034906,settlement,Gasanda,Gasanda,official,-4.3084,29.8166,BI-MA,,
6031025,6035519,hydrographic,Nyabitukwe,Nyabitukwe,official,-4.2404,29.9344,BI-MA,,
6030539,6035033,settlement,Karirimvya,Karirimvya,official,-4.0663,29.5258,BI-RM,,
6031229,6035723,hydrographic,Rukorokoro,Rukorokoro,official,-3.8379,29.9439,BI-GI,,
6031250,12132887,settlement,Mugongo,Mugongo,official,-3.9508,29.9468,BI-RT,,
6030934,6035428,hypsographic,Mucura,Mucura,official,-4.163333,29.898056,BI-MA,,
6031220,6035714,hypsographic,Bera,Bera,official,-3.8305,29.7905,BI-BR,,
6030810,6035304,hypsographic,Bwera,Bwera,official,-4.075833,29.922222,BI-RT,,
6030846,6035340,hydrographic,Karenga,Karenga,official,-4.097,29.9483,BI-MA,,
6031195,6035689,settlement,Makoto,Makoto,official,-3.8054,29.8115,BI-BR,,
6030659,6035153,settlement,Nyabisiga,Nyabisiga,official,-4.1556,29.7272,BI-MA,,
6030598,6035092,settlement,Jungwe,Jungwe,variant,-4.1144,29.6957,BI-MA,,
6030405,6034899,settlement,Nyagatoke,Nyagatoke,official,-4.303,29.8176,BI-MA,,
6030807,6035301,hypsographic,Kavuga,Kavuga,official,-4.074444,29.768333,BI-MA,,
6030716,6035210,hypsographic,Dama,Dama,official,-4.2115,29.7261,BI-MA,,
6030692,6035186,spot,Mubanga,Mubanga,official,-4.185,29.715556,BI-MA,,
6031235,6035729,settlement,Karwa,Karwa,official,-3.8328,29.809,BI-BR,,
6030601,6035095,settlement,Bandage,Bandage,official,-4.115,29.5927,BI-BR,,
6031067,6035561,park,Rutenderi,Rutenderi,official,-4.0632,30.1586,BI-MA,,
6031368,11285099,hydrographic,Rushanga,Rushanga,official,-3.7757,30.1912,BI-RT,,
6031101,6035595,settlement,Musasa,Musasa,official,-4.2105,30.0374,BI-MA,,
6030616,6035110,park,Kanenge,Kanenge,official,-4.12638,29.529002,BI-RM,,
6031260,6035754,spot,Burambi,Burambi,official,-3.9575,29.839722,BI-BR,,
6031186,6035680,settlement,Nkuruba,Nkuruba,official,-3.8033,29.7689,BI-GI,,
6031231,6035725,hydrographic,Bumba,Bumba,official,-3.8276,29.7706,BI-BR,,
6031147,6035641,hydrographic,Nyakabingo,Nyakabingo,official,-3.7857,29.9623,BI-GI,,
6030414,6038322,park,"Mont Samvula","Mont Samvula",variant,-4.3132,29.7904,BI-MA,,
6031204,6035698,hydrographic,Kagozi,Kagozi,variant,-3.818,29.9844,BI-RT,,
6031276,6035770,hypsographic,Ruvumu,Ruvumu,official,-3.965833,29.859722,BI-RT,,
6030542,6035036,hypsographic,Muse,Muse,official,-4.0707,29.6911,BI-BR,,
6030338,6034832,hypsographic,Ruvuga,Ruvuga,official,-4.4341,29.7314,BI-MA,,
6030315,6034809,hydrographic,Kavungerezi,Kavungerezi,official,-4.2906,29.7031,BI-MA,,
6030796,6035290,hypsographic,Nyonzo,Nyonzo,official,-4.0601,29.8362,BI-RT,,
6031209,6038349,settlement,Kinyonza,Kinyonza,variant,-3.8196,29.9757,BI-RT,,
6030490,6034984,settlement,Kirungu,Kirungu,official,-4.0241,29.5361,BI-BR,,
6031057,6035551,settlement,Nyabusaro,Nyabusaro,official,-4.0415,30.0912,BI-RT,,
6031203,6035697,settlement,Ciyubake,Ciyubake,official,-3.8083,29.7702,BI-GI,,
6031283,6035777,hypsographic,Nyankware,Nyankware,official,-3.973056,29.802222,BI-BR,,
6030956,6035450,settlement,Buyagira,Buyagira,official,-4.1857,29.7913,BI-MA,,
6030760,6035254,hydrographic,Bwinjira,Bwinjira,official,-4.086237,29.918035,BI-RT,,
6030566,6035060,settlement,Kiyazi,Kiyazi,official,-4.0899,29.7313,BI-MA,,
6030732,6035226,hypsographic,Nyemamba,Nyemamba,official,-4.2374,29.6932,BI-MA,,
6030359,6034853,settlement,Nyarubanga,Nyarubanga,official,-4.2654,29.9695,BI-MA,,
6030764,6035258,settlement,Cunda,Cunda,official,-4.0275,29.9122,BI-RT,,
6031342,6035836,settlement,Burume,Burume,official,-3.7579,30.0534,BI-RT,,
6031257,6035751,hypsographic,Gishiha,Gishiha,official,-3.956111,29.794722,BI-BR,,
6031205,6035699,settlement,Kivubo,Kivubo,official,-3.8122,29.8531,BI-BR,,
6031091,6035585,settlement,Muramba,Muramba,official,-4.1431,30.015,BI-MA,,
6030884,6035378,settlement,Mudahera,Mudahera,official,-4.1326,29.8927,BI-MA,,
6030923,6035417,settlement,Ruremba,Ruremba,official,-4.1544,29.894,BI-MA,,
6030902,6035396,settlement,Baziro,Baziro,official,-4.1395,29.8825,BI-MA,,
6031078,6035572,hypsographic,Bujondi,Bujondi,official,-4.1063,30.0401,BI-MA,,
6031343,6035837,settlement,Kanyererwe,Kanyererwe,official,-3.761,30.2141,BI-RT,,
6031087,6038342,hypsographic,Bulanga,Bulanga,variant,-4.1328,30.0172,BI-MA,,
6030813,12084699,settlement,Ruhesu,Ruhesu,official,-4.0752,29.8081,BI-MA,,
6031135,6035629,settlement,Butobwe,Butobwe,official,-3.768,29.8188,BI-BR,,
6030978,6035472,hydrographic,Kigunga,Kigunga,official,-4.2056,29.8367,BI-MA,,
6031080,6035574,hypsographic,Buruhukiro,Buruhukiro,official,-4.1125,30.0193,BI-MA,,
6030614,6035108,settlement,Karehe,Karehe,official,-4.1238,29.5724,BI-BR,,
6030366,6034860,hydrographic,Rukoziri,Rukoziri,official,-4.2793,29.9918,BI-MA,,
6030948,6035442,settlement,Buranga,Buranga,official,-4.1758,29.9159,BI-MA,,
6031358,6035852,settlement,Ngobeke,Ngobeke,official,-3.7699,30.0442,BI-RT,,
6030797,6035291,hypsographic,Megemege,Megemege,official,-4.0625,29.86,BI-RT,,
6030455,6034949,settlement,Budatekwa,Budatekwa,official,-4.3957,29.7849,BI-MA,,
6030469,6034963,settlement,Nyamirambo,Nyamirambo,official,-4.0087,29.4879,BI-RM,,
6030459,6034953,vegetation,Makombe,Makombe,official,-4.0038,29.4704,BI-RM,,
6030453,6034947,settlement,Gikurazo,Gikurazo,official,-4.3787,29.7824,BI-MA,,
6031111,6035605,settlement,Mayange,Mayange,official,-4.2549,30.0176,BI-MA,,
6031187,6035681,hydrographic,Rushoka,Rushoka,official,-3.8074,29.8357,BI-BR,,
6031043,6035537,hydrographic,Rumpondo,Rumpondo,official,-4.019,30.1582,BI-RT,,
6031221,6035715,settlement,Gatwenge,Gatwenge,official,-3.8272,29.8211,BI-BR,,
6031165,6035659,hydrographic,Ruvyironza,Ruvyironza,official,-3.3441,29.9923,BI-000,,
6030643,6035137,hydrographic,Giterama,Giterama,official,-4.144186,29.64225,BI-MA,,
6031261,6035755,hypsographic,Mashuha,Mashuha,official,-3.957778,29.811111,BI-BR,,
6031118,6035612,settlement,Gitabo,Gitabo,official,-3.7589,29.9083,BI-GI,,
6030534,6035028,settlement,Gitwaro,Gitwaro,official,-4.0663,29.6206,BI-BR,,
6030930,6035424,hydrographic,Mugasoro,Mugasoro,official,-4.1535,29.7791,BI-MA,,
6031010,6035504,settlement,Kayogoro,Kayogoro,official,-4.2298,29.7662,BI-MA,,
6030419,6034913,settlement,Rubimba,Rubimba,official,-4.3188,29.8457,BI-MA,,
6031107,6035601,hydrographic,Nyaruhandaza,Nyaruhandaza,official,-4.2469,30.0146,BI-MA,,
6031012,6038337,hydrographic,Kisogo,Kisogo,variant,-4.2095,29.842053,BI-MA,,
6030791,6035285,hydrographic,Nyagwondo,Nyagwondo,official,-4.082369,29.820233,BI-MA,,
6030668,6035162,settlement,Murinda,Murinda,official,-4.1661,29.6674,BI-MA,,
6031163,6035657,settlement,Nyakuguma,Nyakuguma,official,-3.7879,29.7892,BI-GI,,
6030520,6035014,settlement,Bukanda,Bukanda,official,-4.052,29.6079,BI-BR,,
6030747,6035241,settlement,Musongati,Musongati,official,-4.0098,29.8371,BI-RT,,
6031350,6035844,hydrographic,Mwonge,Mwonge,official,-3.7593,30.1113,BI-RT,,
6031158,6038348,hypsographic,Ntege,Ntege,variant,-3.7849,29.9138,BI-GI,,
6030855,6035349,settlement,Gasange,Gasange,official,-4.112,29.8001,BI-MA,,
6030833,12084700,hydrographic,Ruvumera,Ruvumera,official,-4.0911,29.9757,BI-MA,,
6031301,6035795,settlement,Rubimba,Rubimba,official,-3.9837,29.8367,BI-BR,,
6030839,6035333,settlement,Murango,Murango,official,-4.1025,29.7814,BI-MA,,
6031018,6035512,settlement,Kibara,Kibara,official,-4.2365,29.9556,BI-MA,,
6030561,6035055,hypsographic,Marera,Marera,official,-4.0868,29.5803,BI-BR,,
6030925,6035419,hypsographic,Bikobe,Bikobe,official,-4.154444,29.860278,BI-MA,,
6031264,6035758,settlement,Museno,Museno,official,-3.9584,29.9432,BI-RT,,
6030687,6035181,settlement,Burima,Burima,official,-4.1821,29.7446,BI-MA,,
6031035,6035529,settlement,Kimanga,Kimanga,official,-4.0151,30.009,BI-RT,,
6030909,6035403,settlement,Nyange,Nyange,official,-4.1441,29.8907,BI-MA,,
6030698,6035192,hypsographic,Murambi,Murambi,official,-4.1883,29.7253,BI-MA,,
6030649,6035143,hypsographic,Busindi,Busindi,official,-4.1488,29.6973,BI-MA,,
6031389,6035883,settlement,Gahuni,Gahuni,official,-3.7856,30.1219,BI-RT,,
6030920,6035414,hydrographic,Gisuma,Gisuma,official,-4.158232,29.817673,BI-MA,,
6031096,6035590,hydrographic,Mubazo,Mubazo,official,-4.1773,30.0732,BI-MA,,
6030317,6034811,settlement,Kirungu,Kirungu,official,-4.3152,29.6324,BI-MA,,
6031395,6035889,hydrographic,Munyantare,Munyantare,official,-3.7968,30.0764,BI-RT,,
6030780,6035274,hypsographic,Yaba,Yaba,official,-4.0466,29.9,BI-RT,,
6031309,6035803,settlement,Kiremba,Kiremba,official,-3.9874,29.9393,BI-RT,,
6030667,6035161,hydrographic,Kinimba,Kinimba,official,-4.170432,29.673932,BI-MA,,
6030773,6035267,hypsographic,Mbogora,Mbogora,official,-4.035556,29.775278,BI-MA,,
6030331,6034825,settlement,Kabonga,Kabonga,official,-4.4068,29.673,BI-MA,,
6031040,6035534,settlement,Buhwamyi,Buhwamyi,official,-4.0162,30.1217,BI-RT,,
6030661,6035155,settlement,Gahama,Gahama,official,-4.1615,29.7001,BI-MA,,
6030743,6035237,hypsographic,Duri,Duri,official,-4.0042,29.907,BI-RT,,
6030549,6035043,hydrographic,Nyabisheke,Nyabisheke,official,-4.0817,29.6608,BI-BR,,
6031320,6035814,settlement,Mpomvu,Mpomvu,official,-3.992,29.9041,BI-RT,,
6031136,6035630,hydrographic,Rubira,Rubira,official,-3.7743,29.948,BI-GI,,
6030598,12110775,settlement,Jongwe,Jongwe,official,-4.1144,29.6957,BI-MA,,
6030499,6034993,settlement,Nyabigonzi,Nyabigonzi,official,-4.0324,29.4994,BI-RM,,
6030560,6035054,hypsographic,Maganza,Maganza,official,-4.0861,29.6909,BI-MA,,
6031305,6035799,hydrographic,Murera,Murera,official,-3.9876,29.9682,BI-RT,,
6030684,6035178,hypsographic,Rugomero,Rugomero,official,-4.1745,29.6017,BI-MA,,
6031110,6035604,hydrographic,Cigazure,Cigazure,official,-4.2552,30.0428,BI-MA,,
6030913,6035407,settlement,Nyemanga,Nyemanga,official,-4.1474,29.7747,BI-MA,,
6031079,6035573,hydrographic,Kigomagoma,Kigomagoma,official,-4.1287,30.1345,BI-MA,,
6030908,6035402,settlement,Mugoboka,Mugoboka,official,-4.1438,29.8596,BI-MA,,
6031006,6035500,settlement,Kwihigiro,Kwihigiro,official,-4.2279,29.9365,BI-MA,,
6031345,6035839,hydrographic,Kagege,Kagege,official,-3.7624,30.0382,BI-RT,,
6031092,6035586,settlement,Mugeregere,Mugeregere,official,-4.1487,30.0603,BI-MA,,
6030915,6035409,hydrographic,Muyogo,Muyogo,official,-4.151789,29.819947,BI-MA,,
6030774,6035268,settlement,Murambi,Murambi,official,-4.0369,29.803,BI-MA,,
6030500,6034994,hypsographic,Mukabira,Mukabira,official,-4.0323,29.6965,BI-BR,,
6030458,6034952,settlement,Mugina,Mugina,official,-4.4221,29.7587,BI-MA,,
6031402,6035896,settlement,Munywero,Munywero,official,-3.7922,30.0123,BI-RT,,
6031306,6035800,settlement,Gitobo,Gitobo,official,-3.9825,29.8235,BI-BR,,
6030993,12084701,settlement,Rusunwe,Rusunwe,official,-4.219,29.8896,BI-MA,,
6031281,6035775,hypsographic,Sabuvuge,Sabuvuge,official,-3.969,29.9919,BI-RT,,
6031070,6035564,hydrographic,Manyenye,Manyenye,official,-4.075,30.1675,BI-MA,,
6030937,6035431,settlement,Gitibiza,Gitibiza,official,-4.1654,29.7925,BI-MA,,
6030842,6035336,settlement,Songa,Songa,official,-4.1017,29.7948,BI-MA,,
6030318,6034812,settlement,Bukeye,Bukeye,official,-4.334502,29.619719,BI-MA,,
6031258,6035752,hydrographic,Nyabisoma,Nyabisoma,official,-3.939,29.7719,BI-BR,,
6030421,6034915,hydrographic,Rumbwege,Rumbwege,official,-4.3376,29.8739,BI-MA,,
6030609,6035103,hypsographic,Nyabukumba,Nyabukumba,official,-4.1204,29.5406,BI-RM,,
6030653,6035147,settlement,Ndoba,Ndoba,official,-4.1505,29.6808,BI-MA,,
6031263,6035757,hydrographic,Nyesaro,Nyesaro,official,-3.9546,29.9183,BI-RT,,
6030856,6035350,hypsographic,Nyamusunzu,Nyamusunzu,official,-4.113056,29.837778,BI-MA,,
6030669,6035163,hypsographic,Namba,Namba,official,-4.1711,29.5777,BI-MA,,
6030792,6035286,settlement,Shembe,Shembe,official,-4.0554,29.9562,BI-RT,,
6030739,6035233,hypsographic,Kigari,Kigari,official,-4.2477,29.716,BI-MA,,
6030477,6034971,settlement,Mutambara,Mutambara,official,-4.0145,29.4637,BI-RM,,
6030440,6034934,settlement,Mbizi,Mbizi,official,-4.353,29.8431,BI-MA,,
6030944,6035438,hydrographic,Nyabigete,Nyabigete,official,-4.149416,29.979281,BI-MA,,
6030812,6035306,settlement,Kiremba,Kiremba,official,-4.0748,29.7947,BI-MA,,
6031168,6035662,settlement,Gahama,Gahama,official,-3.7873,29.7524,BI-BR,,
6030630,6035124,settlement,Gahandu,Gahandu,official,-4.1342,29.6799,BI-MA,,
6031153,6035647,hypsographic,Kangozi,Kangozi,official,-3.7723,29.9374,BI-GI,,
6031197,6035691,settlement,Kabasa,Kabasa,official,-3.8076,29.8967,BI-BR,,
6030754,6035248,hydrographic,Mushwabure,Mushwabure,official,-4.0302,29.7692,BI-MA,,
6031024,6035518,settlement,Gasenga,Gasenga,official,-4.2413,29.9689,BI-MA,,
6031020,6035514,vegetation,Buzenga,Buzenga,official,-4.239888,29.803328,BI-MA,,
6031246,6035740,hypsographic,Nyagatovu,Nyagatovu,official,-3.948611,29.798333,BI-BR,,
6031293,6035787,hydrographic,Nyakabozi,Nyakabozi,official,-3.9753,29.9246,BI-RT,,
6030602,6035096,hydrographic,Fute,Fute,official,-4.1094,29.6484,BI-MA,,
6031160,6035654,hydrographic,Nyarukangaga,Nyarukangaga,official,-3.798,29.9453,BI-GI,,
6030328,6034822,hypsographic,Mbizi,Mbizi,official,-4.41,29.716389,BI-MA,,
6030888,6035382,hydrographic,Kanwangiri,Kanwangiri,official,-4.1342,29.99,BI-MA,,
6030673,6035167,hypsographic,Muhurire,Muhurire,official,-4.1707,29.6109,BI-MA,,
6030565,6035059,hydrographic,Nyakagogo,Nyakagogo,official,-4.108168,29.695946,BI-MA,,
6030373,6034867,hydrographic,Kibande,Kibande,official,-4.2665,29.8087,BI-MA,,
6030790,6035284,hypsographic,Rwankuka,Rwankuka,official,-4.054444,29.778889,BI-MA,,
6030983,6035477,settlement,Gisenyi,Gisenyi,official,-4.2058,29.7607,BI-MA,,
6030848,6035342,hydrographic,Mugabwe,Mugabwe,official,-4.0977,29.9108,BI-MA,,
6030554,6035048,settlement,Nyarubano,Nyarubano,official,-4.0828,29.6802,BI-MA,,
6031000,6035494,hydrographic,Cuzwe,Cuzwe,official,-4.2256,29.9225,BI-MA,,
6030636,6035130,hydrographic,Kanyiriri,Kanyiriri,official,-4.1378,29.538,BI-RM,,
6031083,6035577,settlement,Ruvumu,Ruvumu,official,-4.1189,30.0317,BI-MA,,
6031084,6035578,hydrographic,Murungu,Murungu,official,-4.1323,30.1163,BI-MA,,
6030953,6035447,settlement,Kirare,Kirare,official,-4.1828,29.8681,BI-MA,,
6030806,6035300,hypsographic,Gihasha,Gihasha,official,-4.073056,29.9375,BI-RT,,
6031303,6035797,settlement,Gisenyi,Gisenyi,official,-3.9822,29.8829,BI-RT,,
6030646,6035140,settlement,Mahembe,Mahembe,official,-4.1437,29.6321,BI-MA,,
6030655,6035149,hypsographic,Bugozi,Bugozi,official,-4.1544,29.7442,BI-MA,,
6031028,6035522,hydrographic,Rubarandwa,Rubarandwa,official,-4.246,29.9189,BI-MA,,
6030688,6035182,park,Rimbo,Rimbo,official,-4.182,29.5557,BI-MA,,
6030921,6035415,settlement,Mutare,Mutare,official,-4.1531,29.8815,BI-MA,,
6030475,6034969,settlement,Murago,Murago,official,-4.0129,29.524,BI-BR,,
6031365,6035859,settlement,Nyakibuye,Nyakibuye,official,-3.7715,30.1146,BI-RT,,
6031201,6035695,hydrographic,Nyanjabaga,Nyanjabaga,official,-3.7985,29.7991,BI-BR,,
6031249,6035743,hydrographic,Nyankende,Nyankende,official,-3.9587,29.9276,BI-RT,,
6030853,6035347,settlement,Kidagarazi,Kidagarazi,official,-4.110833,29.984444,BI-MA,,
6030798,6035292,hydrographic,Nyamabaye,Nyamabaye,variant,-4.08699,29.982215,BI-RT,,
6031042,6035536,hydrographic,Nyakende,Nyakende,official,-4.0182,30.1795,BI-RT,,
6031139,6035633,hydrographic,Gitanga,Gitanga,official,-3.8255,29.7547,BI-000,,
6031132,6035626,settlement,Butemba,Butemba,official,-3.7666,29.9822,BI-GI,,
6031149,6035643,hydrographic,Nyankaya,Nyankaya,official,-3.791,29.8434,BI-000,,
6031150,6035644,hydrographic,Misarara,Misarara,official,-3.788,29.9561,BI-GI,,
6030777,6035271,hydrographic,Mibaga,Mibaga,official,-4.0311,29.9421,BI-RT,,
6030762,6035256,hydrographic,Bivumba,Bivumba,official,-4.0675,29.8157,BI-000,,
6030413,6034907,settlement,Kiremba,Kiremba,official,-4.3123,29.7698,BI-MA,,
6030454,6034948,hydrographic,Nyakararo,Nyakararo,official,-4.3746,29.7826,BI-MA,,
6031346,6035840,hydrographic,Nyabisozi,Nyabisozi,official,-3.7572,30.232,BI-RT,,
6030971,6035465,settlement,Kanyinya,Kanyinya,official,-4.1952,29.76,BI-MA,,
6031347,6035841,hypsographic,Mungwa,Mungwa,official,-3.7593,30.0693,BI-RT,,
6031041,6035535,hydrographic,Nyabwayi,Nyabwayi,official,-4.0205,30.1343,BI-RT,,
6031143,6035637,hydrographic,Kiranzura,Kiranzura,official,-3.7745,29.807,BI-GI,,
6030990,6035484,hydrographic,Nyamunyinya,Nyamunyinya,official,-4.2224,29.9423,BI-MA,,
6031090,6035584,hydrographic,Nyakabingo,Nyakabingo,official,-4.1392,30.0402,BI-MA,,
6030752,6035246,settlement,Maramvya,Maramvya,official,-4.0175,29.9206,BI-RT,,
6030658,6035152,hypsographic,Mutye,Mutye,official,-4.155,29.6465,BI-MA,,
6030607,6035101,settlement,Rweza,Rweza,official,-4.1144,29.6074,BI-BR,,
6031216,6035710,settlement,Gihanga,Gihanga,official,-3.821,29.81,BI-BR,,
6030970,6035464,settlement,Muhama,Muhama,official,-4.1911,29.9627,BI-MA,,
6030402,6034896,park,Kibago,Kibago,official,-4.299006,29.847167,BI-MA,,
6031208,6035702,settlement,Condi,Condi,official,-3.8073,29.8279,BI-BR,,
6030327,6034821,settlement,Kabonga,Kabonga,official,-4.416591,29.684472,BI-MA,,
6031335,6035829,settlement,Gihinga,Gihinga,official,-3.757,30.1925,BI-RT,,
6030997,6035491,hydrographic,Nyampande,Nyampande,official,-4.2119,29.9188,BI-MA,,
6031098,6035592,hydrographic,Gitanga,Gitanga,official,-4.1987,30.0639,BI-MA,,
6031318,6035812,hydrographic,Kigozigozi,Kigozigozi,official,-3.9975,29.8838,BI-RT,,
6031214,6035708,settlement,Gasange,Gasange,official,-3.8206,29.9519,BI-RT,,
6030511,6035005,settlement,Mugara,Mugara,official,-4.0472,29.5251,BI-RM,,
6031188,6035682,hydrographic,Nyanzogera,Nyanzogera,official,-3.803203,29.946165,BI-RT,,
6031172,6035666,settlement,Mbote,Mbote,official,-3.7972,29.7633,BI-GI,,
6030432,12085630,hydrographic,Kidubugu,Kidubugu,official,-4.335025,29.7958,BI-MA,,
6030918,6035412,settlement,Kibogoye,Kibogoye,official,-4.1513,29.903,BI-MA,,
6031279,12132889,settlement,Muhweza,Muhweza,variant,-3.964016,29.846982,BI-BR,,
6031108,6035602,hydrographic,Mugago,Mugago,official,-4.2545,30.043,BI-MA,,
6030415,6034909,hydrographic,Nyankende,Nyankende,official,-4.3301,29.9501,BI-MA,,
6030650,6035144,hydrographic,Nzibwe,Nzibwe,official,-4.160068,29.550639,BI-000,,
6031401,6035895,settlement,Ngarama,Ngarama,official,-3.7953,30.1139,BI-RT,,
6030805,6035299,hydrographic,Miguruka,Miguruka,official,-4.0644,29.7785,BI-MA,,
6030935,6035429,hydrographic,Kabere,Kabere,official,-4.175,29.872,BI-MA,,
6030770,6035264,hypsographic,Taba,Taba,official,-4.032778,29.794167,BI-MA,,
6030437,6034931,hydrographic,Nyarubabi,Nyarubabi,official,-4.355393,29.888002,BI-MA,,
6030734,6035228,hypsographic,Musumwe,Musumwe,official,-4.2367,29.5825,BI-MA,,
6030442,6034936,settlement,Kije,Kije,official,-4.3575,29.7699,BI-MA,,
6030965,6035459,hydrographic,Kaziranzoya,Kaziranzoya,official,-4.1948,29.8697,BI-MA,,
6030599,6035093,hypsographic,Cabara,Cabara,official,-4.1113,29.5342,BI-RM,,
6030722,6035216,settlement,Kigamba,Kigamba,official,-4.2235,29.7361,BI-MA,,
6030521,6035015,hydrographic,Gafunzo,Gafunzo,official,-4.0491,29.4608,BI-RM,,
6031022,6038338,hydrographic,Nyarukandazi,Nyarukandazi,variant,-4.2505,29.977039,BI-MA,,
6031189,6035683,settlement,Mahwa,Mahwa,official,-3.8032,29.781,BI-GI,,
6030462,6034956,settlement,Gakombe,Gakombe,official,-4.0056,29.6631,BI-BR,,
6030974,6035468,hydrographic,Mugomera,Mugomera,official,-4.1993,29.8183,BI-MA,,
6030527,6035021,settlement,Mugara,Mugara,official,-4.058377,29.505281,BI-RM,,
6030671,6035165,settlement,Vugizo,Vugizo,official,-4.1726,29.7069,BI-MA,,
6030642,6035136,park,Rweza,Rweza,official,-4.1432,29.6086,BI-BR,,
6030626,6035120,hydrographic,Sumba,Sumba,official,-4.1511,29.5906,BI-BR,,
6030541,6035035,settlement,Masongo,Masongo,variant,-4.0695,29.6568,BI-BR,,
6030351,6034845,settlement,Mutsindo,Mutsindo,official,-4.2563,29.8379,BI-MA,,
6030399,6034893,hydrographic,Mushishi,Mushishi,official,-4.319857,29.763387,BI-MA,,
6030708,6035202,hypsographic,Karobane,Karobane,official,-4.1986,29.6566,BI-MA,,
6030742,6035236,settlement,Munyinya,Munyinya,official,-4.0041,29.8042,BI-BR,,
6031170,6035664,hypsographic,Ruvumu,Ruvumu,official,-3.793889,29.859167,BI-GI,,
6031061,6035555,settlement,Gasana,Gasana,official,-4.0508,30.1427,BI-MA,,
6030481,6034975,vegetation,Shawe,Shawe,official,-4.0133,29.7193,BI-BR,,
6030530,6035024,hypsographic,Kigoti,Kigoti,official,-4.0578,29.621,BI-BR,,
6030789,6035283,settlement,Nganzu,Nganzu,official,-4.0536,29.8007,BI-MA,,
6030736,6035230,hypsographic,Mahembe,Mahembe,official,-4.2206,29.7225,BI-MA,,
6030425,6034919,hydrographic,Nyagitibira,Nyagitibira,official,-4.3377,29.8738,BI-MA,,
6030341,6034835,hypsographic,Mperehere,Mperehere,official,-4.44,29.7113,BI-MA,,
6030911,6035405,settlement,Nyange,Nyange,official,-4.1469,29.8693,BI-MA,,
6030941,6035435,hydrographic,Kigwa,Kigwa,official,-4.1782,29.8901,BI-MA,,
6031366,6035860,settlement,Ngoma,Ngoma,official,-3.7767,30.0101,BI-RT,,
6030815,6035309,hypsographic,Biteko,Biteko,official,-4.0706,29.8305,BI-RT,,
6030376,6034870,settlement,Kanyinya,Kanyinya,official,-4.2711,29.9147,BI-MA,,
6030761,6035255,settlement,Nyakuguma,Nyakuguma,official,-4.0237,29.8804,BI-RT,,
6030781,6035275,settlement,Jenda,Jenda,official,-4.0437,29.8086,BI-MA,,
6030776,6035270,settlement,Busaga,Busaga,official,-4.0403,29.9258,BI-RT,,
6031119,6035613,hydrographic,Nkuba,Nkuba,official,-3.7497,29.9078,BI-GI,,
6030928,6035422,settlement,Nyamahongwe,Nyamahongwe,official,-4.1602,29.7599,BI-MA,,
6031397,6035891,settlement,Rorero,Rorero,official,-3.7865,30.1382,BI-RT,,
6030821,6035315,settlement,Rutoke,Rutoke,official,-4.0814,29.9026,BI-RT,,
6031007,6035501,hypsographic,Nyarutuntu,Nyarutuntu,official,-4.2303,29.8816,BI-MA,,
6030919,6035413,hydrographic,Nyakabanda,Nyakabanda,official,-4.1538,30.0966,BI-MA,,
6031177,6035671,settlement,Karambi,Karambi,official,-3.794,29.8366,BI-BR,,
6031311,6035805,settlement,Gisagara,Gisagara,official,-3.9851,29.9053,BI-RT,,
6031127,6035621,settlement,Mugano,Mugano,official,-3.7649,29.8676,BI-GI,,
6031364,6038358,settlement,Kubahinia,Kubahinia,variant,-3.7746,30.1731,BI-RT,,
6030782,6035276,settlement,Nyabisuri,Nyabisuri,official,-4.0467,29.7816,BI-MA,,
6031180,6035674,hydrographic,Kigomero,Kigomero,official,-3.8032,29.9662,BI-RT,,
6030987,6035481,hydrographic,Nyampanda,Nyampanda,official,-4.2047,29.8739,BI-MA,,
6030731,6035225,hydrographic,Nkondo,Nkondo,official,-4.244292,29.657887,BI-MA,,
6031353,6035847,settlement,Nyabihange,Nyabihange,official,-3.7663,30.0816,BI-RT,,
6031051,6035545,hydrographic,Gicaca,Gicaca,official,-4.03,30.179444,BI-RT,,
6031259,6035753,settlement,Butezi,Butezi,official,-3.957,29.9857,BI-RT,,
6031086,6035580,settlement,Gitongo,Gitongo,official,-4.1293,30.0489,BI-MA,,
6030795,6035289,hydrographic,Goganyana,Goganyana,variant,-4.0615,29.7783,BI-MA,,
6030334,6034828,hydrographic,Mpakanira,Mpakanira,official,-4.4166,29.717,BI-MA,,
6031282,6035776,settlement,Gasenyi,Gasenyi,official,-3.9719,29.8234,BI-BR,,
6031053,6035547,settlement,Ruranga,Ruranga,official,-4.0384,30.0368,BI-RT,,
6030522,6035016,hydrographic,Nyabwango,Nyabwango,official,-4.0487,29.5981,BI-BR,,
6031114,6035608,hydrographic,Kigorogonji,Kigorogonji,official,-4.2724,30.0206,BI-MA,,
6030786,6035280,settlement,Mpinga,Mpinga,official,-4.0487,29.7513,BI-MA,,
6031382,6035876,settlement,Batamba,Batamba,official,-3.7828,30.1936,BI-RT,,
6030676,6035170,hydrographic,Nyabikere,Nyabikere,official,-4.171607,29.678386,BI-MA,,
6031232,6035726,hydrographic,Kigira,Kigira,official,-3.8253,29.7743,BI-BR,,
6031039,6035533,hydrographic,Gahande,Gahande,official,-4.003,30.1188,BI-RT,,
6031139,6038346,hydrographic,Kitanga,Kitanga,variant,-3.8255,29.7547,BI-000,,
6030689,6035183,settlement,Bugeni,Bugeni,official,-4.1836,29.6074,BI-MA,,
6030803,6035297,settlement,Kirama,Kirama,official,-4.0659,29.7852,BI-MA,,
6030333,6034827,settlement,Gisenga,Gisenga,official,-4.4216,29.6694,BI-MA,,
6031288,6035782,hydrographic,Ndogoro,Ndogoro,official,-3.9723,29.9003,BI-RT,,
6030929,6035423,settlement,Kumuyange,Kumuyange,official,-4.1599,29.9374,BI-MA,,
6031360,6035854,settlement,Migerero,Migerero,official,-3.7715,30.1631,BI-RT,,
6030877,6035371,settlement,Gasasa,Gasasa,official,-4.1297,29.8745,BI-MA,,
6030968,6035462,hydrographic,Mugangari,Mugangari,official,-4.1964,29.8375,BI-MA,,
6030635,6035129,hypsographic,Nyakayonga,Nyakayonga,official,-4.1355,29.5683,BI-BR,,
6030814,6038334,settlement,Kigarike,Kigarike,variant,-4.0785,29.9377,BI-000,,
6031073,6035567,settlement,Kiyange,Kiyange,official,-4.0896,30.0247,BI-MA,,
6030710,6035204,hydrographic,Kazingwe,Kazingwe,official,-4.201803,29.555536,BI-MA,,
6030637,6035131,hydrographic,Mukunde,Mukunde,official,-4.1457,29.5175,BI-000,,
6031117,6035611,settlement,Cunguza,Cunguza,official,-3.7554,29.8751,BI-GI,,
6030450,6034944,settlement,Gasaba,Gasaba,official,-4.3737,29.8531,BI-MA,,
6031152,6035646,hydrographic,Muhotora,Muhotora,official,-3.7738,29.8941,BI-GI,,
6031319,6035813,hypsographic,Nyakibugwe,Nyakibugwe,official,-3.992222,29.801389,BI-BR,,
6030420,6034914,settlement,Mwoga,Mwoga,official,-4.319,29.7849,BI-MA,,
6031196,6035690,spot,Mvungerumwe,Mvungerumwe,official,-3.808333,29.873611,BI-BR,,
6031076,6035570,settlement,Kabizi,Kabizi,official,-4.0991,30.0492,BI-MA,,
6031253,6035747,settlement,Ngoma,Ngoma,official,-3.9535,29.8855,BI-RT,,
6031046,6038339,settlement,Kiofi,Kiofi,variant,-4.0226,30.1154,BI-RT,,
6030859,6035353,settlement,Kayogoro,Kayogoro,official,-4.1154,29.9837,BI-MA,,
6031363,6035857,hydrographic,Gisenyi,Gisenyi,official,-3.7707,30.1336,BI-RT,,
6030871,6035365,settlement,Gihero,Gihero,official,-4.1233,29.8804,BI-MA,,
6030826,6035320,settlement,Misasa,Misasa,official,-4.0913,29.8598,BI-MA,,
6031328,6035822,settlement,Karemera,Karemera,official,-3.9996,29.8387,BI-RT,,
6030696,6035190,park,Karonge,Karonge,official,-4.188,29.6676,BI-MA,,
6030605,6035099,settlement,Kinyinya,Kinyinya,official,-4.1155,29.5725,BI-BR,,
6030323,6034817,hydrographic,Kigabwe,Kigabwe,official,-4.4032,29.7305,BI-MA,,
6031037,6035531,settlement,Ntaho,Ntaho,official,-4.0155,30.1542,BI-RT,,
6030795,12084696,hydrographic,Coganyana,Coganyana,official,-4.0615,29.7783,BI-MA,,
6030875,6035369,settlement,Kayoba,Kayoba,official,-4.125,29.7698,BI-MA,,
6030701,6035195,hypsographic,Rukambasi,Rukambasi,official,-4.1958,29.5848,BI-MA,,
6031104,6035598,settlement,Bigina,Bigina,official,-4.2263,30.0355,BI-MA,,
6030611,6035105,settlement,Ruzingwe,Ruzingwe,official,-4.1193,29.694,BI-MA,,
6030701,6038333,hypsographic,"Mont Rukambasi","Mont Rukambasi",variant,-4.1958,29.5848,BI-MA,,
6030322,6034816,hypsographic,Mutuntu,Mutuntu,official,-4.382778,29.685556,BI-MA,,
6030704,6035198,hydrographic,Nyenkaba,Nyenkaba,official,-4.1993,29.6473,BI-MA,,
6030620,6035114,settlement,Rugi,Rugi,official,-4.1282,29.6857,BI-MA,,
6031388,11285100,settlement,Sananda,Sananda,official,-3.7845,30.0907,BI-RT,,
6030766,6035260,hypsographic,Muhemera,Muhemera,official,-4.0238,29.9221,BI-RT,,
6031105,6035599,settlement,Gatwe,Gatwe,official,-4.2372,30.0103,BI-MA,,
6031054,6035548,hydrographic,Nyagatika,Nyagatika,official,-4.0612,30.021,BI-RT,,
6030371,6034865,settlement,Mwendo,Mwendo,official,-4.2704,29.7517,BI-MA,,
6031161,12132885,settlement,Kinubanya,Kinubanya,official,-3.7856,29.7709,BI-GI,,
6031131,6035625,hypsographic,Mirenda,Mirenda,official,-3.7675,29.9275,BI-GI,,
6030610,6035104,hydrographic,Nkegete,Nkegete,official,-4.1512,29.593,BI-BR,,
6031351,6038357,settlement,Kasaka,Kasaka,variant,-3.7633,30.2395,BI-RT,,
6031312,6035806,settlement,Mwarusi,Mwarusi,official,-3.9887,29.81,BI-BR,,
6030647,6035141,hypsographic,Bigera,Bigera,official,-4.1476,29.7253,BI-MA,,
6031268,6035762,settlement,Gakwande,Gakwande,variant,-3.9599,29.883,BI-RT,,
6030900,6035394,hydrographic,Cuhirwa,Cuhirwa,official,-4.1273,29.8536,BI-MA,,
6030543,6035037,settlement,Musasa,Musasa,official,-4.0712,29.617,BI-BR,,
6030695,6035189,hydrographic,Kibungwe,Kibungwe,official,-4.202,29.7631,BI-MA,,
6030456,6034950,settlement,Gatanga,Gatanga,official,-4.4019,29.7766,BI-MA,,
6031092,6038343,settlement,Mugelegele,Mugelegele,variant,-4.1487,30.0603,BI-MA,,
6030473,6034967,hypsographic,Mbete,Mbete,official,-4.0138,29.6465,BI-BR,,
6031272,6035766,hydrographic,Nyaganza,Nyaganza,official,-3.9705,29.9195,BI-RT,,
6031129,6035623,settlement,Ndava,Ndava,official,-3.7681,29.9189,BI-GI,,
6030994,6035488,hydrographic,Mugombwa,Mugombwa,official,-4.2214,29.7987,BI-MA,,
6030995,6035489,hydrographic,Nyaruhano,Nyaruhano,official,-4.2094,29.9079,BI-MA,,
6031368,6035862,hydrographic,Rushanda,Rushanda,variant,-3.7757,30.1912,BI-RT,,
6031226,6035720,settlement,Rufunzwe,Rufunzwe,official,-3.8283,29.9309,BI-GI,,
6031398,6035892,settlement,Gisasa,Gisasa,official,-3.7913,30.0635,BI-RT,,
6030417,6034911,settlement,Nyamirande,Nyamirande,official,-4.3192,29.8345,BI-MA,,
6030632,6035126,hypsographic,Munoge,Munoge,official,-4.1321,29.5559,BI-BR,,
6030524,6035018,settlement,Gasenyi,Gasenyi,official,-4.0504,29.6908,BI-BR,,
6030893,6035387,settlement,Gitanga,Gitanga,official,-4.1354,29.7907,BI-MA,,
6030664,6035158,hydrographic,Nyaryite,Nyaryite,official,-4.185214,29.636,BI-MA,,
6030382,6034876,hydrographic,Karera,Karera,official,-4.279167,29.991667,BI-MA,,
6030617,6035111,hypsographic,Karama,Karama,official,-4.1233,29.7482,BI-MA,,
6030775,6035269,hydrographic,Mihanda,Mihanda,official,-4.0533,29.7747,BI-MA,,
6030400,6034894,hydrographic,Nyabigogo,Nyabigogo,official,-4.2991,29.7675,BI-MA,,
6030651,6035145,settlement,Gikuzi,Gikuzi,official,-4.1544,29.7216,BI-MA,,
6031048,6035542,settlement,Kivoga,Kivoga,official,-4.027,30.0716,BI-RT,,
6031013,6035507,settlement,Karinzi,Karinzi,official,-4.2307,29.781,BI-MA,,
6031047,6035541,hypsographic,Ruranga,Ruranga,official,-4.0265,30.0195,BI-RT,,
6030972,6035466,vegetation,Rusovu,Rusovu,official,-4.193966,29.930816,BI-MA,,
6030401,6034895,settlement,Ramvya,Ramvya,official,-4.3,29.9195,BI-MA,,
6030465,6034959,settlement,Munini,Munini,official,-4.0094,29.7408,BI-BR,,
6030464,6034958,settlement,Musagara,Musagara,official,-4.0087,29.5847,BI-BR,,
6030866,6035360,hydrographic,Bugezi,Bugezi,official,-4.1297,29.7868,BI-MA,,
6030817,6035311,settlement,Busango,Busango,official,-4.0786,29.9618,BI-RT,,
6030546,6035040,hydrographic,Buhinda,Buhinda,official,-4.0807,29.4763,BI-000,,
6031087,6035581,hypsographic,Buranga,Buranga,official,-4.1328,30.0172,BI-MA,,
6030656,6035150,settlement,Rusenyi,Rusenyi,official,-4.1552,29.689,BI-MA,,
6030507,6035001,hypsographic,Gako,Gako,official,-4.0358,29.6025,BI-BR,,
6031181,6035675,settlement,Gikwazo,Gikwazo,official,-3.8008,29.8334,BI-BR,,
6031357,6035851,settlement,Munyeri,Munyeri,official,-3.767,30.1506,BI-RT,,
6030357,6034851,hydrographic,Gihemba,Gihemba,official,-4.248404,29.873395,BI-MA,,
6031386,6035880,settlement,Bitege,Bitege,official,-3.7835,30.1399,BI-RT,,
6030800,12084698,hydrographic,Nyacongwe,Nyacongwe,official,-4.0697,29.7912,BI-MA,,
6030439,6034933,hydrographic,Nyamicuba,Nyamicuba,official,-4.360129,29.811254,BI-MA,,
6030967,6035461,settlement,Sampeke,Sampeke,official,-4.1899,29.9545,BI-MA,,
6031233,6035727,settlement,Nyakabingo,Nyakabingo,official,-3.8334,29.7921,BI-BR,,
6030868,6035362,settlement,Nyamitakare,Nyamitakare,official,-4.1206,29.7934,BI-MA,,
6031202,6035696,hydrographic,Nyamuswaga,Nyamuswaga,official,-3.8226,29.775,BI-GI,,
6031182,6035676,settlement,Nyakabuye,Nyakabuye,official,-3.7998,29.9323,BI-GI,,
6031372,6035866,hydrographic,Nyemvura,Nyemvura,official,-3.769444,30.240833,BI-RT,,
6031326,6035820,hypsographic,Cendajuru,Cendajuru,official,-4.001,29.9107,BI-RT,,
6030510,6035004,settlement,Gatete,Gatete,official,-4.0446,29.4803,BI-RM,,
6030886,6035380,administrative_region,"iProvense ya Makamba","iProvense ya Makamba",official,-4.2,29.816667,BI-MA,,
6030370,6034864,hydrographic,Gasarasi,Gasarasi,official,-4.2612,29.8704,BI-MA,,
6031198,6035692,settlement,Rango,Rango,official,-3.809,29.9159,BI-GI,,
6031051,6038340,hydrographic,Kicaca,Kicaca,variant,-4.03,30.179444,BI-RT,,
6031217,6035711,hydrographic,Gatare,Gatare,official,-3.8153,29.871,BI-BR,,
6031112,6035606,settlement,Mudaturwa,Mudaturwa,official,-4.2608,30.0273,BI-MA,,
6030360,6034854,hydrographic,Nyaminoso,Nyaminoso,official,-4.253671,29.886692,BI-MA,,
6031140,6035634,settlement,Gikobe,Gikobe,official,-3.774,29.8577,BI-GI,,
6031131,6038345,hypsographic,Mirende,Mirende,variant,-3.7675,29.9275,BI-GI,,
6031071,6035565,hydrographic,Kirombe,Kirombe,official,-4.0997,30.1065,BI-MA,,
6030886,14103477,administrative_region,Makamba,Makamba,official,-4.2,29.816667,BI-MA,,
6030375,6034869,settlement,Mabanda,Mabanda,official,-4.2743,29.7749,BI-MA,,
6031097,6035591,settlement,Bigina,Bigina,official,-4.182,30.0256,BI-MA,,
6030975,6035469,hydrographic,Gasasa,Gasasa,official,-4.2002,29.9072,BI-MA,,
6030717,6035211,settlement,Gakara,Gakara,official,-4.216,29.7136,BI-MA,,
6031089,6035583,hypsographic,Miryogoro,Miryogoro,official,-4.1319,30.0057,BI-MA,,
6031241,6035735,hypsographic,Cinyundo,Cinyundo,official,-3.8407,29.8648,BI-BR,,
6030955,6035449,settlement,Nyagaharo,Nyagaharo,official,-4.1852,29.8814,BI-MA,,
6030414,6034908,park,Samvura,Samvura,official,-4.3132,29.7904,BI-MA,,
6030728,6035222,settlement,Gahinga,Gahinga,official,-4.2302,29.729,BI-MA,,
6030940,6035434,settlement,Munonotsi,Munonotsi,official,-4.1661,29.7815,BI-MA,,
6030727,6035221,vegetation,Kizengati,Kizengati,official,-4.2293,29.6606,BI-MA,,
6031134,6035628,settlement,Kampezi,Kampezi,official,-3.7692,29.7933,BI-GI,,
6031376,6035870,settlement,Kigunda,Kigunda,official,-3.7795,30.2046,BI-RT,,
6031333,6035827,park,Rwamabuye-Bikana,Rwamabuye-Bikana,official,-3.933333,29.833333,BI-BR,,
6030483,6034977,vegetation,Karanda,Karanda,official,-4.0168,29.4528,BI-RM,,
6030758,6035252,settlement,Mutukura,Mutukura,official,-4.0237,29.9705,BI-RT,,
6031100,6035594,hydrographic,Rugunga,Rugunga,official,-4.2064,30.0605,BI-MA,,
6030321,6034815,settlement,Nyabigina,Nyabigina,official,-4.3685,29.6847,BI-MA,,
6031287,6035781,hydrographic,Nyagazangu,Nyagazangu,variant,-3.9582,29.8542,BI-000,,
6030416,6034910,hydrographic,Gasamari,Gasamari,official,-4.329,29.7994,BI-MA,,
6031016,6035510,settlement,Masaswe,Masaswe,official,-4.2368,29.896,BI-MA,,
6030613,6035107,hydrographic,Mukuka,Mukuka,official,-4.138221,29.505649,BI-RM,,
6030509,6035003,settlement,Kangange,Kangange,official,-4.0434,29.7131,BI-BR,,
6031206,6035700,settlement,Bugunga,Bugunga,official,-3.814,29.9893,BI-RT,,
6030514,6035008,settlement,Buhinga,Buhinga,official,-4.045,29.7321,BI-BR,,
6030504,6034998,settlement,Kabwayi,Kabwayi,official,-4.0354,29.5561,BI-BR,,
6030912,6035406,settlement,Takwe,Takwe,official,-4.1481,29.761,BI-MA,,
6030552,6035046,settlement,Buhana,Buhana,official,-4.0762,29.6194,BI-BR,,
6030808,6035302,hypsographic,Rukobe,Rukobe,official,-4.075,29.878889,BI-RT,,
6031215,6035709,hypsographic,Sanzu,Sanzu,official,-3.8168,29.8395,BI-BR,,
6031068,6035562,settlement,Mubuga,Mubuga,official,-4.0734,30.0591,BI-MA,,
6030849,6035343,hydrographic,Kitumva,Kitumva,official,-4.097163,29.946448,BI-MA,,
6030533,6035027,settlement,Kayabazi,Kayabazi,official,-4.0671,29.4924,BI-RM,,
6031256,12132888,hydrographic,Nyamunyonga,Nyamunyonga,official,-3.9634,29.9649,BI-RT,,
6030840,6035334,settlement,Kabuye,Kabuye,official,-4.1025,29.8487,BI-MA,,
6030889,6035383,hydrographic,Nyankende,Nyankende,official,-4.1439,29.9375,BI-MA,,
6030702,6035196,settlement,Nyamirinzi,Nyamirinzi,official,-4.1933,29.6835,BI-MA,,
6030917,6035411,settlement,Dunga,Dunga,official,-4.1514,29.9327,BI-MA,,
6031329,6035823,hypsographic,Kibimbi,Kibimbi,official,-3.9892,29.7944,BI-BR,,
6030596,6035090,settlement,Mwandaro,Mwandaro,official,-4.1108,29.6293,BI-BR,,
6030932,6035426,settlement,Rweza,Rweza,official,-4.1592,29.9575,BI-MA,,
6031046,6035540,settlement,Gihofi,Gihofi,official,-4.0226,30.1154,BI-RT,,
6030993,6035487,settlement,Rusurwe,Rusurwe,variant,-4.219,29.8896,BI-MA,,
6030814,6035308,settlement,Kigarika,Kigarika,official,-4.0785,29.9377,BI-000,,
6030869,6035363,hydrographic,Nyarubana,Nyarubana,official,-4.1279,29.9339,BI-MA,,
6031213,6035707,settlement,Nyabagase,Nyabagase,official,-3.8195,29.8627,BI-BR,,
6031228,6035722,hydrographic,Nyamabenga,Nyamabenga,official,-3.8357,29.9699,BI-RT,,
6030724,6035218,hydrographic,Sagihara,Sagihara,official,-4.2188,29.7824,BI-MA,,
6030969,6035463,settlement,Gasanda,Gasanda,official,-4.1934,29.9077,BI-MA,,
6030916,6035410,hydrographic,Gisuma,Gisuma,official,-4.145847,29.931242,BI-MA,,
6030858,6035352,hydrographic,Nyabagesa,Nyabagesa,official,-4.1238,29.8096,BI-MA,,
6030707,6035201,settlement,Cowe,Cowe,official,-4.197334,29.748538,BI-MA,,
6030452,6034946,park,Buragane,Buragane,official,-4.3,29.783333,BI-MA,,
6031367,6035861,settlement,Muhingo,Muhingo,official,-3.7749,30.0775,BI-RT,,
6031151,6035645,hydrographic,Tawe,Tawe,official,-3.840698,29.947246,BI-000,,
6030528,6035022,settlement,Kigutu,Kigutu,official,-4.0557,29.5568,BI-BR,,
6030847,6035341,settlement,Kizingoma,Kizingoma,official,-4.1102,29.8271,BI-MA,,
6031064,6035558,settlement,Kayuki,Kayuki,official,-4.0597,30.0891,BI-RT,,
6031340,6035834,hypsographic,Sure,Sure,official,-3.7561,30.185,BI-RT,,
6030964,6035458,settlement,Bikingi,Bikingi,official,-4.1915,29.991,BI-MA,,
6030559,6035053,settlement,Bwatemba,Bwatemba,official,-4.0822,29.6344,BI-BR,,
6030557,6035051,settlement,Rusengo,Rusengo,official,-4.0843,29.5298,BI-RM,,
6031192,6035686,settlement,Murara,Murara,official,-3.8072,29.8553,BI-BR,,
6030424,6034918,settlement,Makaka,Makaka,official,-4.3281,29.8404,BI-MA,,
6031242,6035736,hydrographic,Musanzaza,Musanzaza,official,-3.8611,29.9784,BI-RT,,
6031130,6035624,settlement,Kagimbu,Kagimbu,official,-3.7675,29.8474,BI-BR,,
6031093,6035587,settlement,Nyakigezi,Nyakigezi,official,-4.1594,30.0339,BI-MA,,
6030981,6035475,vegetation,Rudida,Rudida,official,-4.204664,29.800849,BI-MA,,
6030886,6079187,administrative_region,"Province de Makamba","Province de Makamba",official,-4.2,29.816667,BI-MA,,
6030820,6035314,hydrographic,Mugerovu,Mugerovu,official,-4.0824,29.795,BI-MA,,
6030350,6034844,settlement,Koka,Koka,official,-4.2527,29.935,BI-MA,,
6031236,6035730,hydrographic,Kinuka,Kinuka,official,-3.8198,29.9167,BI-000,,
6031125,6035619,settlement,Kame,Kame,official,-3.7649,29.9082,BI-GI,,
6030340,6038320,hypsographic,Kasagamba,Kasagamba,variant,-4.4392,29.7281,BI-MA,,
6030622,6035116,settlement,Nyagatovu,Nyagatovu,official,-4.1288,29.7334,BI-MA,,
6030407,6034901,hydrographic,Kimanga,Kimanga,official,-4.3135,29.8061,BI-MA,,
6030830,6035324,hypsographic,Gikombe,Gikombe,official,-4.094444,29.763056,BI-MA,,
6030314,6034808,hydrographic,Kazirabageni,Kazirabageni,official,-4.2643,29.6332,BI-MA,,
6030945,6035439,settlement,Rwaniro,Rwaniro,official,-4.1727,29.7724,BI-MA,,
6030446,6034940,park,Mutovu,Mutovu,official,-4.3642,29.8017,BI-MA,,
6030686,6035180,settlement,Rabiro,Rabiro,official,-4.1819,29.702,BI-MA,,
6030615,6035109,settlement,Karagabazi,Karagabazi,official,-4.1239,29.6669,BI-MA,,
6030735,6035229,hydrographic,Gitimbagwe,Gitimbagwe,official,-4.2437,29.6341,BI-MA,,
6030423,6034917,settlement,Muyange,Muyange,official,-4.3275,29.905,BI-MA,,
6031116,6035610,hydrographic,Nyagumira,Nyagumira,official,-3.754,29.9126,BI-GI,,
6030491,6034985,settlement,Nyamitare,Nyamitare,official,-4.0259,29.678,BI-BR,,
6030960,6035454,hydrographic,Nyabikere,Nyabikere,official,-4.159,30.0174,BI-MA,,
6030966,6035460,settlement,Gisegwa,Gisegwa,official,-4.1884,29.8683,BI-MA,,
6030569,6035063,settlement,Mazinga,Mazinga,official,-4.0962,29.5663,BI-BR,,
6030330,6034824,hypsographic,Muramira,Muramira,official,-4.411944,29.684722,BI-MA,,
6031002,6035496,settlement,Mibanga,Mibanga,official,-4.2251,29.9754,BI-MA,,
6031069,6035563,settlement,Gatabo,Gatabo,official,-4.0737,30.0896,BI-MA,,
6031292,6035786,settlement,Kazeba,Kazeba,official,-3.9809,29.9236,BI-RT,,
6030977,6035471,settlement,Rongero,Rongero,official,-4.2005,29.8652,BI-MA,,
6030381,6034875,settlement,Kiremba,Kiremba,official,-4.2779,29.8581,BI-MA,,
6031374,6035868,settlement,Nyabibuye,Nyabibuye,official,-3.7796,30.0202,BI-RT,,
6031088,6035582,hypsographic,Munazi,Munazi,official,-4.1308,30.0859,BI-MA,,
6031144,6038347,settlement,Rutoki,Rutoki,variant,-3.7751,29.8159,BI-BR,,
6030860,6035354,settlement,Burambira,Burambira,official,-4.1159,29.8934,BI-MA,,
6031161,6035655,settlement,Kimubanya,Kimubanya,variant,-3.7856,29.7709,BI-GI,,
6031339,6035833,settlement,Butanya,Butanya,official,-3.7587,30.1338,BI-RT,,
6030939,6035433,hypsographic,Nyakirinzi,Nyakirinzi,official,-4.168,29.8454,BI-MA,,
6031286,6035780,hydrographic,Museremu,Museremu,official,-3.9784,29.7728,BI-BR,,
6031225,6035719,hypsographic,Sorwe,Sorwe,official,-3.829167,29.8575,BI-BR,,
6031248,6035742,settlement,Mugi,Mugi,official,-3.949,29.9211,BI-RT,,
6030992,6035486,settlement,Migongo,Migongo,official,-4.218,29.875,BI-MA,,
6031052,6035546,settlement,Kabanga,Kabanga,official,-4.035186,30.081675,BI-RT,,
6030723,6035217,settlement,Kigombe,Kigombe,official,-4.2257,29.7092,BI-MA,,
6030501,6034995,hydrographic,Kigamba,Kigamba,official,-4.039696,29.584904,BI-BR,,
6031005,6035499,settlement,Mumivo,Mumivo,official,-4.229,29.7925,BI-MA,,
6030443,6034937,hydrographic,Rwakanyambo,Rwakanyambo,official,-4.3683,29.8451,BI-MA,,
6030836,6035330,hydrographic,Nyakabo,Nyakabo,official,-4.1003,29.9374,BI-MA,,
6030608,6035102,settlement,Rutegama,Rutegama,official,-4.1172,29.7354,BI-MA,,
6031284,6038353,settlement,Butambala,Butambala,variant,-3.9739,29.9809,BI-RT,,
6030414,6038323,park,Samvuba,Samvuba,variant,-4.3132,29.7904,BI-MA,,
6031066,6035560,settlement,Gihofi-Bareremba,Gihofi-Bareremba,official,-4.0615,30.1265,BI-MA,,
6031330,6035824,settlement,Karinzi,Karinzi,official,-3.977778,29.988889,BI-RT,,
6031299,6035793,settlement,Kisanze,Kisanze,official,-3.9827,29.9649,BI-RT,,
6030800,6035294,hydrographic,Nyakongwe,Nyakongwe,variant,-4.0697,29.7912,BI-MA,,
6031030,6035524,hydrographic,Mukombe,Mukombe,official,-4.200948,29.821091,BI-MA,,
6031158,6035652,hypsographic,Ntega,Ntega,official,-3.7849,29.9138,BI-GI,,
6030691,6035185,hypsographic,Nyensanga,Nyensanga,official,-4.1838,29.6489,BI-MA,,
6031314,6035808,settlement,Mayanzo,Mayanzo,official,-3.9862,29.755,BI-BR,,
6030612,6035106,settlement,Nyakabenga,Nyakabenga,official,-4.1227,29.6005,BI-BR,,
6030519,6035013,hydrographic,Mwurwe,Mwurwe,official,-4.057782,29.672096,BI-BR,,
6030503,6034997,settlement,Karagara,Karagara,official,-4.0337,29.5148,BI-RM,,
6031230,6035724,hydrographic,Nyamarebe,Nyamarebe,official,-3.8486,29.9672,BI-RT,,
6031103,6035597,settlement,Marizi,Marizi,official,-4.2296,30.0184,BI-MA,,
6031058,6035552,hydrographic,Nyabutongo,Nyabutongo,official,-4.045278,30.144167,BI-MA,,
6031307,6035801,hypsographic,Mashuha,Mashuha,official,-3.984167,29.769722,BI-BR,,
6030890,6035384,settlement,Gahinga,Gahinga,official,-4.1348,29.7769,BI-MA,,
6030998,6035492,hydrographic,Nyagatika,Nyagatika,official,-4.2343,29.9704,BI-MA,,
6030422,6034916,hydrographic,Nituku,Nituku,official,-4.3242,29.9179,BI-MA,,
6030988,6035482,settlement,Gikurazo,Gikurazo,official,-4.2142,29.8267,BI-MA,,
6031164,6035658,settlement,Nyamure,Nyamure,official,-3.7881,29.9687,BI-RT,,
6030441,6034935,hydrographic,Nyankuruhe,Nyankuruhe,official,-4.3639,29.8143,BI-MA,,
6030951,6038336,hypsographic,Kahara,Kahara,variant,-4.180833,29.838889,BI-MA,,
6030451,6034945,hydrographic,Nyantuku,Nyantuku,official,-4.3688,29.8055,BI-MA,,
6031102,6035596,hydrographic,Nyantare,Nyantare,official,-4.2224,30.0522,BI-MA,,
6030954,6035448,hydrographic,Mugombwa,Mugombwa,official,-4.1896,29.7665,BI-MA,,
6030665,6035159,settlement,Mugu,Mugu,official,-4.1662,29.6887,BI-MA,,
6030854,6035348,settlement,Kange,Kange,official,-4.1119,29.9107,BI-MA,,
6030751,6035245,hydrographic,Nyakagonde,Nyakagonde,official,-4.0142,29.8947,BI-RT,,
6031396,6035890,settlement,Buranga,Buranga,official,-3.7907,30.0322,BI-RT,,
6031336,6035830,settlement,Gakome,Gakome,official,-3.754,30.0162,BI-RT,,
6031219,6035713,settlement,Munyinya,Munyinya,official,-3.8233,29.8778,BI-BR,,
6031142,6035636,settlement,Muyange,Muyange,official,-3.774,29.9608,BI-GI,,
6031121,6035615,settlement,Rwinzoka,Rwinzoka,official,-3.7603,29.9458,BI-GI,,
6031122,6035616,settlement,Buraza,Buraza,official,-3.7639,29.8918,BI-GI,,
6031298,6035792,hydrographic,Gatumba,Gatumba,official,-3.7541,29.859,BI-000,,
6030827,6035321,settlement,Gakombe,Gakombe,official,-4.0912,29.8364,BI-MA,,
6031138,6035632,settlement,Kirinzi,Kirinzi,official,-3.7716,29.8777,BI-GI,,
6030876,6035370,settlement,Butega,Butega,official,-4.1252,29.7989,BI-MA,,
6030730,6035224,hypsographic,Ruyange,Ruyange,official,-4.2353,29.598,BI-MA,,
6030851,6035345,settlement,Muresi,Muresi,official,-4.1089,29.7738,BI-MA,,
6030634,6035128,settlement,Kabuye,Kabuye,official,-4.1389,29.685,BI-MA,,
6030666,6035160,hydrographic,Kibenga,Kibenga,official,-4.165193,29.590286,BI-MA,,
6030979,6035473,settlement,Gwahona,Gwahona,official,-4.2018,29.8544,BI-MA,,
6030809,6035303,hydrographic,Nyakizingwe,Nyakizingwe,official,-4.0768,29.7905,BI-MA,,
6030886,14103478,administrative_region,Makamba,Makamba,official,-4.2,29.816667,BI-MA,,
6031015,6035509,settlement,Kibirizi,Kibirizi,official,-4.2371,29.9943,BI-MA,,
6030479,6034973,settlement,Mushishi,Mushishi,official,-4.0115,29.5976,BI-BR,,
6031148,6035642,hydrographic,Nyabisazi,Nyabisazi,official,-3.7815,29.9742,BI-GI,,
6031062,6035556,hydrographic,Musenyi,Musenyi,official,-4.053333,30.164167,BI-MA,,
6030725,6035219,hydrographic,Muguruka,Muguruka,official,-4.237214,29.548071,BI-MA,,
6031391,6035885,settlement,Gihera,Gihera,official,-3.7875,30.1702,BI-RT,,
6030363,6034857,park,Nyarubanga,Nyarubanga,official,-4.265122,29.936887,BI-MA,,
6030513,6035007,settlement,Musivya,Musivya,official,-4.0461,29.6448,BI-BR,,
6031056,6035550,hypsographic,Magonde,Magonde,official,-4.043889,30.029167,BI-RT,,
6031255,6038351,settlement,Kabaze,Kabaze,variant,-3.9518,29.8312,BI-BR,,
6031184,6035678,hypsographic,Rusenge,Rusenge,official,-3.8001,29.8866,BI-000,,
6031106,6035600,settlement,Mibazo,Mibazo,official,-4.237,30.0302,BI-MA,,
6030938,6035432,settlement,Kigaza,Kigaza,official,-4.1651,29.9363,BI-MA,,
6030670,6035164,hypsographic,Karobane,Karobane,official,-4.1698,29.5537,BI-MA,,
6031278,6035772,settlement,Gatwaro,Gatwaro,official,-3.9639,29.8977,BI-RT,,
6030712,6035206,hypsographic,Kibubwe,Kibubwe,official,-4.2061,29.7228,BI-MA,,
6030525,6038329,settlement,Binyura,Binyura,variant,-4.0547,29.623,BI-BR,,
6030721,6035215,hydrographic,Buheka,Buheka,official,-4.2215,29.6227,BI-MA,,
6030339,6034833,hydrographic,Mukerezi,Mukerezi,official,-4.4397,29.6663,BI-MA,,
6031244,6035738,settlement,Ntuku,Ntuku,official,-3.9446,29.9224,BI-RT,,
6030362,6034856,hydrographic,Nyabusunzu,Nyabusunzu,official,-4.2428,29.7902,BI-MA,,
6031325,6035819,settlement,Rumina,Rumina,official,-3.9978,29.8693,BI-RT,,
6030662,6035156,hypsographic,Gara,Gara,official,-4.1632,29.6141,BI-MA,,
6030980,6035474,settlement,Gasaka,Gasaka,official,-4.2018,29.7722,BI-MA,,
6031393,6035887,hydrographic,Gatare,Gatare,official,-3.7969,30.018,BI-RT,,
6030843,6035337,hydrographic,Nyamugege,Nyamugege,official,-4.0958,29.9605,BI-MA,,
6030986,6035480,hydrographic,Nyaconga,Nyaconga,official,-4.208126,29.907654,BI-MA,,
6030365,6034859,settlement,Nyamagegera,Nyamagegera,official,-4.2647,29.8078,BI-MA,,
6030438,6034932,settlement,Nyabutere,Nyabutere,official,-4.3525,29.7879,BI-MA,,
6030895,6035389,hydrographic,Nyamirabo,Nyamirabo,official,-4.1518,29.9604,BI-MA,,
6030892,6035386,hypsographic,Gatungurwe,Gatungurwe,official,-4.1299,29.9085,BI-MA,,
6030756,6035250,settlement,Kivoga,Kivoga,official,-4.0219,29.9288,BI-RT,,
6030845,6035339,hypsographic,Burenza,Burenza,official,-4.108056,29.7575,BI-MA,,
6031175,6035669,hydrographic,Mungohoka,Mungohoka,official,-3.798786,29.797443,BI-GI,,
6030677,6035171,hydrographic,Nyengwe,Nyengwe,official,-4.1924,29.5379,BI-000,,
6030355,6034849,settlement,Nyabigina,Nyabigina,official,-4.2586,29.8743,BI-MA,,
6031238,6035732,hypsographic,Nyakazu,Nyakazu,official,-3.8322,29.8898,BI-BR,,
6030883,6035377,vegetation,Burera,Burera,official,-4.1325,29.980833,BI-MA,,
6031287,12132895,hydrographic,Nyaganzagu,Nyaganzagu,official,-3.9582,29.8542,BI-000,,
6030638,6035132,spot,Gatwe,Gatwe,official,-4.1399,29.7213,BI-MA,,
6030564,6035058,settlement,Muramba,Muramba,official,-4.0866,29.6685,BI-MA,,
6030949,6035443,hydrographic,Nyamabuye,Nyamabuye,official,-4.1908,29.8816,BI-MA,,
6030788,6035282,settlement,Muvumu,Muvumu,official,-4.051,29.786,BI-MA,,
6030833,6035327,hydrographic,Buvumera,Buvumera,variant,-4.0911,29.9757,BI-MA,,
6030715,6035209,hypsographic,Sango,Sango,official,-4.2093,29.5959,BI-MA,,
6030957,6035451,vegetation,Ryagashwaru,Ryagashwaru,official,-4.185714,29.932672,BI-MA,,
6031373,6035867,settlement,Sanzaga,Sanzaga,official,-3.7776,30.175,BI-RT,,
6030951,6035445,hypsographic,Gahara,Gahara,official,-4.180833,29.838889,BI-MA,,
6030586,6035080,settlement,Gishiha,Gishiha,official,-4.1067,29.7092,BI-MA,,
6030694,6035188,hydrographic,Rurema,Rurema,official,-4.189378,29.637004,BI-MA,,
6030406,6034900,park,Kivoga,Kivoga,official,-4.3032,29.8532,BI-MA,,
6031250,6035744,settlement,Mugengo,Mugengo,variant,-3.9508,29.9468,BI-RT,,
6030799,6035293,settlement,Gitabi,Gitabi,official,-4.0625,29.9456,BI-RT,,
6031209,6035703,settlement,Kinyanza,Kinyanza,official,-3.8196,29.9757,BI-RT,,
6030536,6035030,hydrographic,Gatabo,Gatabo,official,-4.07165,29.669714,BI-BR,,
6030976,6035470,vegetation,Kivumba,Kivumba,official,-4.197809,29.91906,BI-MA,,
6031256,6035750,hydrographic,Nyamunyenga,Nyamunyenga,variant,-3.9634,29.9649,BI-RT,,
6031095,6035589,hydrographic,Rubunda,Rubunda,official,-4.1682,30.0741,BI-MA,,
6031085,6035579,hydrographic,Nyamirabo,Nyamirabo,official,-4.13,30.0718,BI-MA,,
6031191,6035685,hydrographic,Gaheke,Gaheke,official,-3.8167,29.9362,BI-GI,,
6030621,6035115,settlement,Gitaba,Gitaba,official,-4.1283,29.6411,BI-MA,,
6030387,6034881,park,Gikama,Gikama,official,-4.2874,29.9675,BI-MA,,
6030973,6035467,hydrographic,Mutongwa,Mutongwa,official,-4.1982,29.8937,BI-MA,,
6030927,6035421,settlement,Ndago,Ndago,official,-4.1571,29.8669,BI-MA,,
6030657,6035151,settlement,Gitunguru,Gitunguru,official,-4.1564,29.6268,BI-MA,,
6030738,6035232,hydrographic,Rubindi,Rubindi,official,-4.257639,29.5638,BI-MA,,
6030914,6035408,settlement,Nyetongwe,Nyetongwe,official,-4.1482,29.7827,BI-MA,,
6030757,6035251,hypsographic,Mushiha,Mushiha,official,-4.023056,29.77,BI-MA,,
6031126,6035620,settlement,Gisizi,Gisizi,official,-3.7652,29.7518,BI-BR,,
6030349,6034843,hypsographic,Nyamugari,Nyamugari,official,-4.455,29.708333,BI-MA,,
6031321,6035815,hydrographic,Nyakaboza,Nyakaboza,official,-3.9995,29.9593,BI-RT,,
6030748,6035242,hydrographic,Nyagatika,Nyagatika,official,-4.0074,29.9448,BI-RT,,
6031223,6035717,settlement,Dangara,Dangara,official,-3.8278,29.9392,BI-GI,,
6030905,6035399,vegetation,Kididagi,Kididagi,official,-4.1423,29.9517,BI-MA,,
6030648,6035142,settlement,Mazuru,Mazuru,official,-4.1475,29.6533,BI-MA,,
6030489,6034983,hydrographic,Nyantonga,Nyantonga,official,-4.005468,29.529682,BI-BR,,
6030699,6035193,settlement,Kagege,Kagege,official,-4.1926,29.6046,BI-MA,,
6031204,12132886,hydrographic,Kagoti,Kagoti,official,-3.818,29.9844,BI-RT,,
6030460,6034954,hypsographic,Ganza,Ganza,official,-4.003,29.5496,BI-BR,,
6030437,6038325,hydrographic,Nyarububi,Nyarububi,variant,-4.355393,29.888002,BI-MA,,
6030779,6035273,settlement,Gitaba,Gitaba,official,-4.0428,29.7604,BI-MA,,
6030589,6035083,hydrographic,Nyamigezi,Nyamigezi,official,-4.140954,29.62325,BI-BR,,
6030873,6035367,hydrographic,Nyankoni,Nyankoni,official,-4.142263,29.822369,BI-MA,,
6030982,6035476,settlement,Makoronkwe,Makoronkwe,official,-4.2025,29.8795,BI-MA,,
6031317,6035811,settlement,Muyange,Muyange,official,-3.9926,29.7563,BI-BR,,
6030594,6035088,hydrographic,Musha,Musha,official,-4.1173,29.6688,BI-MA,,
6031355,6035849,settlement,Kibanda,Kibanda,official,-3.7628,30.1628,BI-RT,,
6031099,6035593,settlement,Nyantakara,Nyantakara,official,-4.1988,30.0298,BI-MA,,
6030457,6034951,hydrographic,Mushwabure,Mushwabure,official,-4.412222,29.776389,BI-MA,,
6030444,6034938,park,Bihomvora,Bihomvora,official,-4.3609,29.8519,BI-MA,,
6030813,6035307,settlement,Buhesu,Buhesu,variant,-4.0752,29.8081,BI-MA,,
6030749,6035243,hydrographic,Kimanga,Kimanga,official,-3.989,29.9812,BI-RT,,
6030337,6034831,hydrographic,Nyabitaka,Nyabitaka,official,-4.4246,29.7103,BI-MA,,
6030409,6034903,settlement,Sarange,Sarange,official,-4.3075,29.7961,BI-MA,,
6031364,6035858,settlement,Kubahima,Kubahima,official,-3.7746,30.1731,BI-RT,,
6031063,6035557,settlement,Bareremba,Bareremba,official,-4.0498,30.108,BI-RT,,
6030783,6035277,settlement,Nyamusoma,Nyamusoma,official,-4.0445,29.9461,BI-RT,,
6031154,6035648,settlement,Nyarunazi,Nyarunazi,official,-3.781,29.9551,BI-GI,,
6030531,6035025,settlement,Cambogwe,Cambogwe,official,-4.0633,29.5251,BI-RM,,
6030474,6034968,park,Mubuga,Mubuga,official,-4.0114,29.6543,BI-BR,,
6031146,6035640,settlement,Rugenegene,Rugenegene,official,-3.7736,29.9754,BI-GI,,
6031207,6035701,hydrographic,Kagoti,Kagoti,official,-3.8141,29.7839,BI-GI,,
6030463,6034957,settlement,Ruyaga,Ruyaga,official,-4.0053,29.6944,BI-BR,,
6031377,6035871,settlement,Giharo,Giharo,official,-3.7791,30.2348,BI-RT,,
6030989,6035483,hydrographic,Nyabiziba,Nyabiziba,official,-4.2096,29.9023,BI-MA,,
6031199,6035693,hydrographic,Nahufunzwe,Nahufunzwe,official,-3.80125,29.801722,BI-BR,,
6031065,6035559,hydrographic,Nkara,Nkara,official,-4.0625,30.179167,BI-MA,,
6030991,6035485,park,Ngundusi,Ngundusi,official,-4.2173,29.9791,BI-MA,,
6030719,6035213,settlement,Mukungu,Mukungu,official,-4.2184,29.5586,BI-MA,,
6030834,6035328,hypsographic,Kibimba,Kibimba,official,-4.095556,29.922222,BI-MA,,
6030903,6035397,hydrographic,Kabenga,Kabenga,official,-4.139,29.8231,BI-MA,,
6031082,6035576,hypsographic,Mirinzi,Mirinzi,official,-4.1182,30.109,BI-MA,,
6030943,6035437,hydrographic,Kabazi,Kabazi,official,-4.18481,29.895066,BI-MA,,
6030768,6035262,hydrographic,Kanywankoko,Kanywankoko,official,-4.0425,29.7683,BI-MA,,
6030829,6035323,settlement,Kayogoro,Kayogoro,official,-4.0925,29.9397,BI-MA,,
6030794,6035288,settlement,Kivoma,Kivoma,official,-4.0616,29.8545,BI-RT,,
6031275,6035769,settlement,Kinyeregeti,Kinyeregeti,official,-3.9671,29.9296,BI-RT,,
6030448,6034942,settlement,Gitara,Gitara,variant,-4.3669,29.7713,BI-MA,,
6031336,6038356,settlement,Gakoma,Gakoma,variant,-3.754,30.0162,BI-RT,,
6031290,6035784,settlement,Gasarara,Gasarara,official,-3.9776,29.8654,BI-RT,,
6031074,6035568,settlement,Mugeni,Mugeni,official,-4.0968,30.0098,BI-MA,,
6031200,6035694,settlement,Ndago,Ndago,official,-3.8116,29.9219,BI-GI,,
6030354,6034848,settlement,Mbizi,Mbizi,official,-4.2608,29.8091,BI-MA,,
6031059,6035553,settlement,Buranga,Buranga,official,-4.0484,30.0023,BI-RT,,
6030563,6035057,hydrographic,Gitendegeri,Gitendegeri,official,-4.089218,29.719286,BI-MA,,
6030714,6035208,settlement,Miheno,Miheno,official,-4.2092,29.6823,BI-MA,,
6031310,6035804,hydrographic,Nyesokwe,Nyesokwe,official,-3.9902,29.9307,BI-RT,,
6030586,6038331,settlement,Gishita,Gishita,variant,-4.1067,29.7092,BI-MA,,
6030484,12110773,hydrographic,Munyomyi,Munyomyi,variant,-4.077914,29.669886,BI-BR,,
6030535,6035029,settlement,Bugeni,Bugeni,official,-4.0635,29.6457,BI-BR,,
6030831,6035325,settlement,Rusenyi,Rusenyi,official,-4.0958,29.8085,BI-MA,,
6030759,6035253,settlement,Muyombwe,Muyombwe,official,-4.0244,29.9542,BI-RT,,
6030558,6035052,settlement,Gashasha,Gashasha,official,-4.0878,29.5164,BI-RM,,
6030996,6035490,hydrographic,Nyabisyo,Nyabisyo,official,-4.2161,29.8581,BI-MA,,
6030844,6035338,settlement,Mahinda,Mahinda,official,-4.104,29.894,BI-MA,,
6030411,6034905,hydrographic,Rushenyi,Rushenyi,official,-4.3263,29.882,BI-MA,,
6031273,6035767,settlement,Nyakibaka,Nyakibaka,official,-3.9659,29.9077,BI-RT,,
6030388,6034882,settlement,Kaburi,Kaburi,official,-4.2871,29.7737,BI-MA,,
6030872,6035366,hydrographic,Nyakabingo,Nyakabingo,official,-4.1259,29.9711,BI-MA,,
6030545,6035039,hydrographic,Murongozi,Murongozi,official,-4.0691,29.5139,BI-000,,
6030961,6035455,settlement,Shaka,Shaka,official,-4.1872,29.9,BI-MA,,
6031022,6035516,hydrographic,Nyaruhandazi,Nyaruhandazi,official,-4.2505,29.977039,BI-MA,,
6031155,6035649,settlement,Buhogo,Buhogo,official,-3.7815,29.9678,BI-GI,,
6031209,6038350,settlement,Kinyanzi,Kinyanzi,variant,-3.8196,29.9757,BI-RT,,
6031183,6035677,settlement,Karimbi,Karimbi,official,-3.7971,29.9577,BI-RT,,
6030436,6034930,park,Muhagaze,Muhagaze,official,-4.3466,29.8393,BI-MA,,
6031274,6035768,settlement,Kirabuke,Kirabuke,official,-3.9673,29.7518,BI-BR,,
6030891,6035385,hydrographic,Kijoti,Kijoti,official,-4.1414,29.9693,BI-MA,,
6030447,6034941,hydrographic,Kibayayu,Kibayayu,official,-4.3687,29.8054,BI-MA,,
6030471,6034965,hydrographic,Kagoti,Kagoti,official,-4.011,29.4678,BI-RM,,
6031222,6035716,settlement,Rwesero,Rwesero,official,-3.8273,29.8403,BI-BR,,
6031279,6035773,settlement,Muheweza,Muheweza,official,-3.964016,29.846982,BI-BR,,
6031327,6035821,settlement,Magarama,Magarama,official,-4.0009,29.8252,BI-BR,,
6030962,6035456,hydrographic,Nyamagamba,Nyamagamba,official,-4.1884,29.9187,BI-MA,,
6031302,6035796,settlement,Muyange,Muyange,official,-3.9836,29.8586,BI-RT,,
6030999,6035493,settlement,Gahororo,Gahororo,official,-4.2223,29.8066,BI-MA,,
6030541,12110774,settlement,Masango,Masango,official,-4.0695,29.6568,BI-BR,,
6031270,6035764,settlement,Bartye,Bartye,official,-3.9623,29.8245,BI-BR,,
6030410,6034904,hydrographic,Muka,Muka,official,-4.3401,29.8761,BI-MA,,
6030898,6035392,settlement,Kibuye,Kibuye,official,-4.1377,29.7572,BI-MA,,
6030832,6035326,settlement,Mugutu,Mugutu,official,-4.0966,29.7812,BI-MA,,
6030590,6035084,hypsographic,Nyumba,Nyumba,official,-4.1067,29.7461,BI-MA,,
6030926,6035420,hydrographic,Munyika,Munyika,official,-4.155739,29.804188,BI-MA,,
6031240,6035734,hydrographic,Kigogo,Kigogo,official,-3.837,29.9902,BI-RT,,
6031371,6035865,settlement,Mukibingo,Mukibingo,official,-3.7769,30.0914,BI-RT,,
6031266,6035760,hydrographic,Nyanzigo,Nyanzigo,official,-3.9602,29.7513,BI-BR,,
6030811,6035305,park,Mahembe,Mahembe,official,-4.0771,29.7692,BI-MA,,
6030540,6035034,hypsographic,Inanzegwe,Inanzegwe,official,-4.079931,29.747769,BI-000,,
6030324,6034818,hydrographic,Kazye,Kazye,official,-4.4023,29.6639,BI-MA,,
6030593,6035087,settlement,Njugu,Njugu,official,-4.1105,29.582,BI-BR,,
6031237,6035731,hypsographic,Rutanganika,Rutanganika,official,-3.834444,29.956389,BI-RT,,
6031036,6035530,settlement,Bukemba,Bukemba,official,-4.0069,30.0666,BI-RT,,
6030946,6035440,settlement,Gikombe,Gikombe,official,-4.1711,29.8407,BI-MA,,
6030597,6035091,settlement,Kibingwe,Kibingwe,official,-4.114,29.6745,BI-MA,,
6031176,6035670,hydrographic,Bigamba,Bigamba,official,-3.8001,29.9865,BI-RT,,
6030824,6035318,settlement,Nyabitsindu,Nyabitsindu,official,-4.0843,29.8101,BI-MA,,
6031113,6035607,hydrographic,Kivuruga,Kivuruga,official,-4.2709,30.0308,BI-MA,,
6030958,6035452,settlement,Nyankara,Nyankara,official,-4.1867,29.826,BI-MA,,
6030683,6035177,park,Gasasa,Gasasa,official,-4.1787,29.5271,BI-RM,,
6030850,6035344,hydrographic,Kibanga,Kibanga,official,-4.1114,29.8592,BI-MA,,
6030623,6035117,hypsographic,Gasasa,Gasasa,official,-4.1268,29.6612,BI-MA,,
6031380,6035874,hydrographic,Gahama,Gahama,official,-3.7968,30.0788,BI-RT,,
6030952,6035446,settlement,Gisenyi,Gisenyi,official,-4.1802,29.7857,BI-MA,,
6030486,6034980,hypsographic,Ndoha,Ndoha,official,-4.0239,29.6372,BI-BR,,
6031392,6035886,hydrographic,Ndurumu,Ndurumu,official,-3.7854,30.2207,BI-RT,,
6030899,6035393,settlement,Kanzege,Kanzege,official,-4.1391,29.7805,BI-MA,,
6030745,6035239,hydrographic,Munyura,Munyura,official,-4.006514,29.939218,BI-RT,,
6031313,6035807,settlement,Gasarende,Gasarende,official,-3.9884,29.8624,BI-RT,,
6030340,6034834,hypsographic,Gasagamba,Gasagamba,official,-4.4392,29.7281,BI-MA,,
6030332,6034826,hydrographic,Nyamasembe,Nyamasembe,official,-4.4226,29.6924,BI-MA,,
6030606,6035100,hypsographic,Gikama,Gikama,official,-4.1146,29.6309,BI-BR,,
6031361,6035855,hydrographic,Kabago,Kabago,official,-3.7686,30.2415,BI-RT,,
6031285,12132894,settlement,Barega,Barega,official,-3.9754,29.9422,BI-RT,,
6031012,6035506,hydrographic,Gisogo,Gisogo,official,-4.2095,29.842053,BI-MA,,
6030793,6035287,settlement,Rubuga,Rubuga,official,-4.0584,29.7881,BI-MA,,
6030865,6035359,settlement,Nyabutare,Nyabutare,official,-4.1228,29.9423,BI-MA,,
6031384,6035878,settlement,Mpombo,Mpombo,official,-3.7827,30.034,BI-RT,,
6030765,6035259,hypsographic,Muhuhure,Muhuhure,official,-4.0275,29.757222,BI-MA,,
6030316,6034810,settlement,Gitara,Gitara,official,-4.2955,29.5933,BI-MA,,
6030825,6035319,settlement,Karongwe,Karongwe,official,-4.0888,29.7748,BI-MA,,
6030861,6035355,hydrographic,Nyabitaka,Nyabitaka,official,-4.1223,29.8201,BI-MA,,
6030468,6034962,hydrographic,Nyaruzizi,Nyaruzizi,official,-4.001124,29.572026,BI-BR,,
6031179,6035673,hypsographic,Muyogoro,Muyogoro,official,-3.797778,29.815833,BI-BR,,
6030325,6034819,hypsographic,Mukarara,Mukarara,official,-4.4031,29.7419,BI-MA,,
6031284,6035778,settlement,Butambara,Butambara,official,-3.9739,29.9809,BI-RT,,
6031280,6035774,settlement,Jungwe,Jungwe,official,-3.9673,29.7826,BI-BR,,
6031344,6035838,settlement,Nyarugongo,Nyarugongo,official,-3.7555,30.1067,BI-RT,,
6030784,6035278,hypsographic,Ntongwe,Ntongwe,official,-4.047778,29.875278,BI-RT,,
6031381,6035875,settlement,Kayove,Kayove,official,-3.781,30.1555,BI-RT,,
6030880,6035374,settlement,Nyabigina,Nyabigina,official,-4.1294,29.8479,BI-MA,,
6030862,6035356,settlement,Marindye,Marindye,official,-4.1177,29.8505,BI-MA,,
6030679,6035173,settlement,Musivya,Musivya,official,-4.1748,29.7196,BI-MA,,
6031267,6035761,hypsographic,Gendo,Gendo,official,-3.958889,29.761667,BI-BR,,
6031128,6035622,settlement,Mugano,Mugano,official,-3.7665,29.7685,BI-GI,,
6030432,6034926,hydrographic,Kidubuga,Kidubuga,variant,-4.335025,29.7958,BI-MA,,
6031247,6035741,settlement,Ruvuye,Ruvuye,official,-3.9493,29.8444,BI-BR,,
6030532,6035026,settlement,Gahago,Gahago,official,-4.0622,29.6817,BI-BR,,
6030867,6035361,settlement,Kiguruka,Kiguruka,official,-4.1203,29.7605,BI-MA,,
6030733,6035227,vegetation,Mwubure,Mwubure,official,-4.2374,29.6208,BI-MA,,
6031354,6035848,settlement,Maganahe-Runyoni,Maganahe-Runyoni,official,-3.7656,30.0941,BI-RT,,
6030555,6035049,settlement,Rurambira,Rurambira,official,-4.0839,29.7116,BI-MA,,
6030885,6035379,settlement,Makamba,Makamba,official,-4.1348,29.804,BI-MA,,
6031072,6035566,settlement,Karama,Karama,official,-4.0867,30.0785,BI-MA,,
6030547,6035041,hydrographic,Gikuka,Gikuka,official,-4.0782,29.6702,BI-000,,
6031252,6035746,hydrographic,Ngendo,Ngendo,official,-3.9458,29.7853,BI-BR,,
6031167,6035661,settlement,Musama,Musama,official,-3.7888,29.8521,BI-BR,,
6031224,6035718,settlement,Kinganda,Kinganda,official,-3.8274,29.952,BI-RT,,
6031351,6035845,settlement,Gasaka,Gasaka,official,-3.7633,30.2395,BI-RT,,
6030878,6035372,settlement,Mihongo,Mihongo,official,-4.1276,29.9022,BI-MA,,
6031159,6035653,settlement,Butezi,Butezi,official,-3.7859,29.9423,BI-GI,,
6030448,6038326,settlement,Kitara,Kitara,official,-4.3669,29.7713,BI-MA,,
6030802,6035296,settlement,Nyamabuye,Nyamabuye,official,-4.0645,29.9861,BI-RT,,
6030685,6035179,hydrographic,Nyamanga,Nyamanga,official,-4.1957,29.6357,BI-MA,,
6030592,6035086,hydrographic,Gasangu,Gasangu,official,-4.112043,29.494986,BI-000,,
6030857,6035351,settlement,Kariba,Kariba,official,-4.1133,29.7806,BI-MA,,
6031379,6035873,settlement,Mbuza,Mbuza,official,-3.777,30.0329,BI-RT,,
6031245,6035739,hydrographic,Kayokwe,Kayokwe,official,-3.9633,29.9642,BI-RT,,
6031017,6035511,hydrographic,Nyagatwenzi,Nyagatwenzi,official,-4.2011,29.8213,BI-MA,,
6030529,6035023,hydrographic,Gitungugwe,Gitungugwe,official,-4.0679,29.4766,BI-RM,,
6031212,6035706,settlement,Kanyuzwa,Kanyuzwa,official,-3.819,29.8262,BI-BR,,
6031269,6035763,hypsographic,Rwamabuye,Rwamabuye,official,-3.961389,29.815556,BI-BR,,
6030726,6035220,park,Buheka,Buheka,official,-4.23,29.6542,BI-MA,,
6030336,6034830,hydrographic,Masokwe,Masokwe,official,-4.4338,29.7372,BI-MA,,
6031387,6035881,settlement,Kwitaba,Kwitaba,official,-3.7847,30.0536,BI-RT,,
6031218,6035712,settlement,Gatongati,Gatongati,official,-3.8234,29.9703,BI-RT,,
6031348,6035842,hydrographic,Nyangunga,Nyangunga,official,-3.7515,30.1682,BI-RT,,
6031169,6035663,settlement,Mihama,Mihama,official,-3.7936,29.9791,BI-RT,,
6030604,6035098,settlement,Kaberenge,Kaberenge,official,-4.1168,29.5657,BI-BR,,
6030487,6034981,hydrographic,Mugombe,Mugombe,official,-4.026919,29.513805,BI-000,,
6031171,6035665,hydrographic,Nyakagozi,Nyakagozi,official,-3.7961,29.8068,BI-BR,,
6030470,6038328,settlement,Katanga,Katanga,variant,-4.0096,29.7204,BI-BR,,
6030326,6034820,hypsographic,Baraga,Baraga,official,-4.3957,29.7158,BI-MA,,
6030904,6035398,hydrographic,Muhwima,Muhwima,official,-4.149863,29.793434,BI-MA,,
6030785,6035279,hypsographic,Nyakagonda,Nyakagonda,official,-4.047778,29.909444,BI-RT,,
6031021,6035515,hydrographic,Nyabivumba,Nyabivumba,official,-4.2257,29.8351,BI-MA,,
6030408,6034902,hydrographic,Nyakazi,Nyakazi,official,-4.3054,29.9687,BI-MA,,
6031060,6035554,hydrographic,Mutsindozi,Mutsindozi,official,-4.0505,30.1907,BI-000,,
6031166,6035660,hypsographic,Gikwazo,Gikwazo,official,-3.7787,29.8345,BI-BR,,
6030837,6035331,settlement,Kabizi,Kabizi,official,-4.1015,29.9867,BI-MA,,
6030466,6034960,settlement,Ndagano,Ndagano,official,-4.007,29.6784,BI-BR,,
6030433,6034927,settlement,Karangara,Karangara,official,-4.345018,29.788553,BI-MA,,
6030984,6035478,settlement,Kibara,Kibara,official,-4.2063,29.9581,BI-MA,,
6030567,6035061,hydrographic,Gitotwe,Gitotwe,official,-4.09,29.4857,BI-RM,,
6031234,6035728,settlement,Nyarubimba,Nyarubimba,official,-3.8322,29.9142,BI-RT,,
6030624,6035118,hypsographic,Rungu,Rungu,official,-4.1286,29.5651,BI-BR,,
6030627,6035121,settlement,Martyazo,Martyazo,official,-4.1358,29.7012,BI-MA,,
6030404,6034898,hydrographic,Kidumbugu,Kidumbugu,official,-4.2999,29.846,BI-MA,,
6030959,6035453,settlement,Ryirengeye,Ryirengeye,official,-4.187,29.7955,BI-MA,,
6030625,6035119,settlement,Nyamagana,Nyamagana,official,-4.1286,29.6264,BI-BR,,
6030445,6034939,settlement,Jenda,Jenda,official,-4.3611,29.7822,BI-MA,,
6030348,6034842,hydrographic,Ndyakarika,Ndyakarika,official,-4.446111,29.6625,BI-MA,,
6031315,6035809,settlement,Bigina,Bigina,official,-3.9867,29.9576,BI-RT,,
6030823,6035317,hypsographic,Kirogorya,Kirogorya,official,-4.084444,29.763889,BI-MA,,
6031014,6035508,hydrographic,Nyamuzenga,Nyamuzenga,official,-4.2366,29.918,BI-MA,,
6031185,6035679,settlement,Rweru,Rweru,official,-3.8012,29.9404,BI-GI,,
6031156,6035650,settlement,Kizama,Kizama,official,-3.78,29.8849,BI-GI,,
6031338,6035832,settlement,Kimina,Kimina,official,-3.7555,30.1273,BI-RT,,
6031004,6035498,settlement,Kabanga,Kabanga,official,-4.226,29.8511,BI-MA,,
6030660,6035154,settlement,Higiro,Higiro,official,-4.1584,29.714,BI-MA,,
6030771,6035265,hypsographic,Mubavu,Mubavu,official,-4.033611,29.826667,BI-RT,,
6031285,6035779,settlement,Barege,Barege,variant,-3.9754,29.9422,BI-RT,,
6031034,6035528,hydrographic,Nyabihere,Nyabihere,official,-3.997222,30.045833,BI-RT,,
6030603,6035097,hydrographic,Gasirozi,Gasirozi,official,-4.1144,29.5136,BI-RM,,
6031003,6035497,settlement,Kiyange,Kiyange,official,-4.2281,29.9161,BI-MA,,
6030682,6035176,park,Ruhunga,Ruhunga,official,-4.1789,29.7068,BI-MA,,
6030313,6034807,park,Rubindi,Rubindi,official,-4.2601,29.5767,BI-MA,,
6031375,6035869,hydrographic,Nyakijoro,Nyakijoro,official,-3.7855,30.0773,BI-RT,,
6030950,6035444,settlement,Nkuba,Nkuba,official,-4.1771,29.7816,BI-MA,,
6030476,6034970,settlement,Gitega,Gitega,official,-4.0117,29.5672,BI-BR,,
6030798,12084697,hydrographic,Nyamabuye,Nyamabuye,official,-4.08699,29.982215,BI-RT,,
6030356,6034850,settlement,Kibimba,Kibimba,official,-4.2603,29.7903,BI-MA,,
6031334,6035828,settlement,Butambara,Butambara,official,-3.7583,30.1766,BI-RT,,
6031145,6035639,hydrographic,Mihande,Mihande,official,-3.7768,29.7804,BI-GI,,
6030352,6034846,hydrographic,Gatare,Gatare,official,-4.2524,29.8386,BI-MA,,
6031255,6035749,settlement,Kabazo,Kabazo,official,-3.9518,29.8312,BI-BR,,
6031289,6035783,settlement,Gitanga,Gitanga,variant,-3.9853,29.9161,BI-RT,,
6030680,6035174,hypsographic,Rusesa,Rusesa,official,-4.1739,29.6503,BI-MA,,
6030924,6035418,hydrographic,Ruhanda,Ruhanda,official,-4.16,29.8125,BI-MA,,
6031370,6035864,settlement,Mahinga,Mahinga,official,-3.7774,30.0471,BI-RT,,
6030403,6034897,hydrographic,Gisenyi,Gisenyi,official,-4.304266,29.811022,BI-MA,,
6030385,6034879,settlement,Musaswe,Musaswe,official,-4.2823,29.8731,BI-MA,,
6030693,6035187,hydrographic,Musenyi,Musenyi,official,-4.17185,29.678364,BI-MA,,
6030449,6034943,hydrographic,Mashigiko,Mashigiko,official,-4.372,29.8725,BI-MA,,
6031173,6035667,park,Mahwa,Mahwa,official,-3.79439,29.77353,BI-GI,,
6030364,6034858,hydrographic,Gitakataka,Gitakataka,official,-4.261,29.8703,BI-MA,,
6031265,6035759,hydrographic,Ruvyironza,Ruvyironza,official,-3.9578,29.8542,BI-BR,,
6030767,6035261,hydrographic,Mugomera,Mugomera,official,-4.003,29.9563,BI-RT,,
6031352,6035846,settlement,Nyamugari,Nyamugari,official,-3.7634,30.0291,BI-RT,,
6031289,6038354,settlement,Bukemba,Bukemba,official,-3.9853,29.9161,BI-RT,,
6030398,6034892,settlement,Kibago,Kibago,official,-4.2913,29.8366,BI-MA,,
6030804,6035298,settlement,Kinzanza,Kinzanza,official,-4.0669,29.9376,BI-RT,,
6030750,6035244,settlement,Gahembe,Gahembe,official,-4.0147,29.876,BI-RT,,
6030484,6034978,hydrographic,Muyomvyi,Muyomvyi,official,-4.077914,29.669886,BI-BR,,
6031109,6035603,hydrographic,Mururindi,Mururindi,official,-4.2627,30.0154,BI-MA,,
6031027,6035521,settlement,Mara,Mara,official,-4.2465,29.8396,BI-MA,,
6030907,6035401,settlement,Gihongoro,Gihongoro,official,-4.1419,29.8272,BI-MA,,
6030645,6035139,settlement,Rabiro,Rabiro,official,-4.1452,29.746,BI-MA,,
6030518,6035012,hydrographic,Buzimba,Buzimba,official,-4.065614,29.465864,BI-000,,
6031322,6035816,hypsographic,Cinkwi,Cinkwi,official,-3.9947,29.9392,BI-RT,,
6030963,6035457,settlement,Bubera,Bubera,official,-4.1892,29.7712,BI-MA,,
6031075,6035569,settlement,Muramba,Muramba,official,-4.0946,30.0737,BI-MA,,
6030368,6034862,hydrographic,Nyagitanga,Nyagitanga,official,-4.2609,29.9124,BI-MA,,
6031388,6035882,settlement,Samanda,Samanda,variant,-3.7845,30.0907,BI-RT,,
6030587,6035081,vegetation,Murago,Murago,official,-4.1051,29.5716,BI-BR,,
6030398,6038321,settlement,"Mont Kibago","Mont Kibago",variant,-4.2913,29.8366,BI-MA,,
6030644,6035138,settlement,Kigwena,Kigwena,official,-4.1443,29.5317,BI-RM,,
6030415,6038324,hydrographic,Nyangende,Nyangende,variant,-4.3301,29.9501,BI-MA,,
6031323,6035817,settlement,Kazeba,Kazeba,official,-3.9939,29.9133,BI-RT,,
6031193,6035687,hydrographic,Karegeza,Karegeza,official,-3.8115,29.9854,BI-RT,,
6030711,6035205,hydrographic,Mugoma,Mugoma,official,-4.2042,29.6352,BI-MA,,
6031316,6035810,hydrographic,Kibanga,Kibanga,official,-3.9967,29.884,BI-RT,,
6030740,6035234,vegetation,Buganza,Buganza,official,-4.2502,29.5892,BI-MA,,
6031356,6035850,settlement,Nyamugongo,Nyamugongo,official,-3.7622,30.1852,BI-RT,,
6030801,6035295,hydrographic,Nyakabingo,Nyakabingo,official,-4.0694,29.815,BI-MA,,
6031178,6035672,settlement,Munyegeri,Munyegeri,official,-3.7981,29.8079,BI-BR,,
6031334,6038355,settlement,Butambala,Butambala,variant,-3.7583,30.1766,BI-RT,,
6031294,6035788,spot,Gitongo,Gitongo,official,-3.981389,29.755278,BI-BR,,
6031038,6035532,hydrographic,Nyangwe,Nyangwe,official,-4.0031,30.083,BI-RT,,
6030628,6035122,hydrographic,Mwuguzi,Mwuguzi,official,-4.1564,29.5755,BI-BR,,
6031324,6035818,settlement,Nkandansi,Nkandansi,official,-3.9966,29.9228,BI-RT,,
6031277,6035771,hydrographic,Rubande,Rubande,official,-3.9854,29.9863,BI-RT,,
6030652,6035146,hypsographic,Ndago,Ndago,official,-4.1396,29.7355,BI-MA,,
6030713,6035207,settlement,Mbizi,Mbizi,official,-4.2053,29.7106,BI-MA,,
6031023,6035517,settlement,Rutundu,Rutundu,official,-4.2413,29.7849,BI-MA,,
6030562,6035056,settlement,Kaganza,Kaganza,official,-4.0851,29.5946,BI-BR,,
6030552,6038330,settlement,Buhama,Buhama,variant,-4.0762,29.6194,BI-BR,,
6030600,6035094,hydrographic,Nyamibindi,Nyamibindi,official,-4.113576,29.720221,BI-MA,,
6031243,6035737,settlement,Ntobo,Ntobo,official,-3.9409,29.8756,BI-RT,,
6030985,6035479,settlement,Rutoke,Rutoke,official,-4.2081,29.7844,BI-MA,,
6030460,6038327,hypsographic,"Mont Ganza","Mont Ganza",variant,-4.003,29.5496,BI-BR,,
6031390,6035884,hydrographic,Gitanga,Gitanga,official,-3.7744,30.1382,BI-RT,,
6031026,6035520,settlement,Kiremba,Kiremba,official,-4.2429,29.8642,BI-MA,,
6030502,6034996,settlement,Nyarugera,Nyarugera,official,-4.0333,29.7056,BI-BR,,
6030663,6035157,vegetation,Nyakuguma,Nyakuguma,official,-4.1623,29.528,BI-RM,,
6030526,6035020,settlement,Kabagara,Kabagara,official,-4.0576,29.646,BI-BR,,
6031086,6038341,settlement,Kitongo,Kitongo,variant,-4.1293,30.0489,BI-MA,,
6031349,6035843,settlement,Migarika,Migarika,official,-3.7582,30.1936,BI-RT,,
6030595,6035089,hypsographic,Ramvyo,Ramvyo,official,-4.1097,29.6064,BI-BR,,
6031399,6035893,settlement,Kumuvumu,Kumuvumu,official,-3.7915,30.2063,BI-RT,,
6031081,6035575,settlement,Muyaga,Muyaga,official,-4.1145,30.0061,BI-MA,,
6030525,6035019,settlement,Binyuro,Binyuro,official,-4.0547,29.623,BI-BR,,
6030744,6035238,settlement,Gitambutso,Gitambutso,official,-4.0088,29.8932,BI-RT,,
6030705,6035199,hydrographic,Ngobe,Ngobe,official,-4.211747,29.553723,BI-MA,,
6030544,6035038,vegetation,Muzinza,Muzinza,official,-4.0713,29.4803,BI-RM,,
6030461,6034955,hydrographic,Murembwe,Murembwe,official,-4.0061,29.4264,BI-000,,
6030706,6035200,settlement,Nyabitabo,Nyabitabo,official,-4.1978,29.7363,BI-MA,,
6031019,6035513,hydrographic,Kadahura,Kadahura,official,-4.2372,29.9272,BI-MA,,
6030720,6035214,settlement,Nyanzogera,Nyanzogera,official,-4.2179,29.5939,BI-MA,,
6030910,6035404,settlement,Kiramvya,Kiramvya,official,-4.1432,29.7901,BI-MA,,
6030553,6035047,vegetation,Buganga,Buganga,official,-4.0785,29.5041,BI-RM,,
6030700,6035194,hypsographic,Gitoke,Gitoke,official,-4.1944,29.5687,BI-MA,,
6031055,6035549,hypsographic,Mwoga,Mwoga,official,-4.0387,30.0576,BI-RT,,
6031162,6035656,settlement,Buriza,Buriza,official,-3.788,29.869,BI-GI,,
6031239,6035733,settlement,Kabingo,Kabingo,official,-3.8346,29.7555,BI-BR,,
6031227,6035721,hydrographic,Nyaminwe,Nyaminwe,official,-3.8188,29.8814,BI-BR,,
6030822,6035316,settlement,Gitaba,Gitaba,official,-4.0836,29.7952,BI-MA,,
6033026,6037520,settlement,Kavumu,Kavumu,official,-3.6359,29.7659,BI-GI,,
6033056,6037550,hydrographic,Kirinzi,Kirinzi,official,-3.6463,29.968,BI-GI,,
6032211,6036705,settlement,Gisure,Gisure,official,-3.913889,29.444444,BI-RM,,
6034262,6038891,settlement,Nkonyovu,Nkonyovu,official,-3.3011,29.7095,BI-MU,,
6032502,6036996,settlement,Rweza,Rweza,official,-3.538,29.6678,BI-MW,,
6032131,6036625,settlement,Gitaramuka,Gitaramuka,official,-3.8307,29.4252,BI-RM,,
6032441,6036935,settlement,Kirambi,Kirambi,official,-3.5062,29.6408,BI-MW,,
6033434,6037928,hydrographic,Nyagashubi,Nyagashubi,official,-3.6249,30.0322,BI-GI,,
6034442,6039071,settlement,Ngara,Ngara,official,-3.4022,29.6813,BI-MU,,
6031676,6036170,settlement,Muntwana,Muntwana,official,-3.8176,30.2618,BI-RT,,
6032697,6037191,settlement,Ijuru,Ijuru,official,-3.6804,29.6431,BI-BR,,
6032782,6037276,settlement,Mugongo,Mugongo,official,-3.748,29.5273,BI-RM,,
6032765,6037259,settlement,Gisenyi,Gisenyi,official,-3.7365,29.5143,BI-RM,,
6032434,6038396,hydrographic,Katare,Katare,variant,-3.7516,29.3299,BI-RM,,
6032388,6036882,settlement,Nyabungere,Nyabungere,official,-3.6895,29.3937,BI-RM,,
6032610,6037104,settlement,Uwinryame,Uwinryame,official,-3.6136,29.5623,BI-BR,,
6031885,6036379,hypsographic,Taba,Taba,official,-3.88031,29.607713,BI-BR,,
6034384,6039013,settlement,Mushikamo,Mushikamo,official,-3.3678,29.6988,BI-MU,,
6034089,6038718,settlement,Dunga,Dunga,official,-3.4225,29.4357,BI-BL,,
6033385,6037879,settlement,Gahondo,Gahondo,official,-3.5904,30.1846,BI-RY,,
6031929,6036423,settlement,Rwamabuye,Rwamabuye,official,-3.9002,29.6436,BI-BR,,
6032931,6037425,settlement,Kibande,Kibande,official,-3.5854,29.8297,BI-GI,,
6034444,6039073,vegetation,Gisenyi,Gisenyi,official,-3.403333,29.657222,BI-MU,,
6031920,6036414,settlement,Mpinga,Mpinga,official,-3.8964,29.5754,BI-BR,,
6033191,6037685,hydrographic,Kindoro,Kindoro,variant,-3.7238,29.9172,BI-GI,,
6032350,6036844,hydrographic,Gatororongo,Gatororongo,official,-3.6368,29.3403,BI-RM,,
6033746,6038240,settlement,Kivoga,Kivoga,official,-3.6148,30.2621,BI-RY,,
6032036,6036530,hydrographic,Ndurumu,Ndurumu,official,-3.9767,29.6374,BI-BR,,
6033018,6037512,settlement,Bukirasazi,Bukirasazi,official,-3.632476,29.976863,BI-GI,,
6034369,6038998,settlement,Burenza,Burenza,official,-3.3601,29.689,BI-MU,,
6032920,6037414,settlement,Muzima,Muzima,official,-3.5805,29.8224,BI-GI,,
6031736,6036230,settlement,Kibungo,Kibungo,official,-3.7815,29.6494,BI-BR,,
6031615,6036109,settlement,Kiramvya,Kiramvya,official,-3.9598,30.1153,BI-RT,,
6033156,6037650,settlement,Muyuga,Muyuga,official,-3.7028,29.8348,BI-GI,,
6032925,6037419,settlement,Gitega,Gitega,official,-3.5789,29.8388,BI-GI,,
6032277,6036771,hydrographic,Nyamavuya,Nyamavuya,variant,-3.5514,29.4918,BI-BL,,
6034029,6038658,settlement,Sororezo,Sororezo,official,-3.3805,29.4066,BI-BL,,
6033308,6037802,hydrographic,Rutimbura,Rutimbura,official,-3.544,30.1231,BI-RY,,
6033737,6038231,vegetation,Rubashi,Rubashi,official,-3.6029,30.2628,BI-RY,,
6032365,6036859,hydrographic,Rutunga,Rutunga,official,-3.6468,29.3359,BI-RM,,
6034203,6038832,administrative_region,"iProvense ya Muramvya","iProvense ya Muramvya",official,-3.25,29.666667,BI-MU,,
6032626,6037120,hypsographic,Mukike,Mukike,official,-3.601056,29.53738,BI-000,,
6031412,6035906,settlement,Buhogo,Buhogo,official,-3.801,30.2329,BI-RT,,
6032310,6036804,settlement,Busenge,Busenge,official,-3.5911,29.3946,BI-RM,,
6032426,6036920,settlement,Rutumo,Rutumo,official,-3.735,29.3257,BI-RM,,
6032248,6036742,settlement,Ngambwe,Ngambwe,official,-3.5292,29.3816,BI-BL,,
6033116,6037610,settlement,Buhogo,Buhogo,official,-3.677392,29.84111,BI-GI,,
6033444,6037938,settlement,Nyakiyonga,Nyakiyonga,official,-3.6287,30.207,BI-RY,,
6033082,6037576,hydrographic,Migezi,Migezi,official,-3.6464,29.8083,BI-GI,,
6033967,6038596,hydrographic,Kigezi,Kigezi,official,-3.3421,29.4482,BI-BL,,
6033637,6038131,settlement,Kinombe,Kinombe,official,-3.7456,30.1629,BI-RT,,
6033221,6037715,settlement,Kayenzi,Kayenzi,official,-3.7435,29.9529,BI-GI,,
6032313,6036807,settlement,Gihondo,Gihondo,official,-3.5942,29.4073,BI-RM,,
6032793,6037287,settlement,Kibiri,Kibiri,official,-3.506,29.8625,BI-GI,,
6034295,6038924,hypsographic,Remera,Remera,official,-3.3095,29.6199,BI-MU,,
6032596,6037090,settlement,Mugendo-Ruko,Mugendo-Ruko,official,-3.6054,29.5889,BI-BR,,
6031463,6035957,hydrographic,"Chutes de la Karera","Chutes de la Karera",variant,-3.83,30.080278,BI-RT,,
6031874,6036368,settlement,Gihoro,Gihoro,official,-3.8709,29.6117,BI-BR,,
6033664,6038158,hypsographic,Nyabitsinda,Nyabitsinda,official,-3.515278,30.258333,BI-RY,,
6034425,6039054,settlement,Kayoyo,Kayoyo,official,-3.3907,29.5319,BI-BL,,
6034459,6039088,settlement,Bugera,Bugera,official,-3.4144,29.7382,BI-MW,,
6034117,6038746,hydrographic,Kizingwe,Kizingwe,official,-3.439,29.343,BI-000,,
6033947,6042292,spot,"Aroport Gakumbu Bujumbura","Aeroport Gakumbu Bujumbura",variant,-3.322,29.3208,BI-BM,,
6031414,6035908,settlement,Kimina,Kimina,official,-3.8016,30.0705,BI-RT,,
6034317,6038946,settlement,Rango,Rango,official,-3.3315,29.5629,BI-MU,,
6033411,6037905,settlement,Buhinda,Buhinda,official,-3.6078,30.0842,BI-GI,,
6033991,6038620,hydrographic,Nyabagere,Nyabagere,official,-3.344444,29.361111,BI-BM,,
6034398,6039027,hypsographic,Sunzwe,Sunzwe,official,-3.379597,29.652397,BI-MU,,
6033520,6038014,settlement,Gifunzo,Gifunzo,official,-3.6766,30.1415,BI-RT,,
6031557,6036051,hydrographic,Mwogo,Mwogo,official,-3.9026,30.2437,BI-RT,,
6034037,6038666,settlement,Vugizo,Vugizo,official,-3.3878,29.3857,BI-BM,,
6033301,6037795,settlement,Mbuzi,Mbuzi,official,-3.541,30.0949,BI-RY,,
6032954,6037448,settlement,Murangara,Murangara,official,-3.5981,29.8608,BI-GI,,
6032451,6036945,settlement,Mwaro,Mwaro,official,-3.5113,29.7051,BI-MW,,
6033107,6037601,settlement,Nyakarambo,Nyakarambo,official,-3.6745,29.8307,BI-GI,,
6033379,6037873,settlement,Buhinda,Buhinda,official,-3.5878,30.0856,BI-GI,,
6033527,6038021,settlement,Rugaga,Rugaga,official,-3.6785,30.1197,BI-RT,,
6032034,6036528,settlement,Kabogora,Kabogora,official,-3.9874,29.7113,BI-BR,,
6031489,6035983,hydrographic,Nyakayi,Nyakayi,official,-3.8304,30.0806,BI-RT,,
6032512,6037006,settlement,Nyarumanga,Nyarumanga,official,-3.5452,29.6064,BI-MW,,
6032754,6037248,settlement,Gitamo,Gitamo,official,-3.7261,29.5125,BI-RM,,
6032132,6036626,settlement,Gakuza,Gakuza,official,-3.8312,29.4562,BI-RM,,
6033164,6037658,settlement,Gitaramuka,Gitaramuka,official,-3.7061,29.8843,BI-GI,,
6032183,6036677,hydrographic,Katanyobwa,Katanyobwa,official,-3.913,29.4116,BI-RM,,
6032463,6036957,park,Rukina,Rukina,official,-3.517976,29.519125,BI-BL,,
6032415,6036909,hydrographic,Kantumvya,Kantumvya,official,-3.7293,29.3213,BI-RM,,
6031793,6036287,settlement,Kinwa,Kinwa,official,-3.8174,29.7154,BI-BR,,
6032632,6037126,settlement,Kivumu,Kivumu,official,-3.6306,29.7242,BI-MW,,
6031889,6038376,hydrographic,Mukorero,Mukorero,variant,-3.8889,29.6135,BI-BR,,
6032761,6037255,settlement,Nyarumanga,Nyarumanga,official,-3.7319,29.609,BI-BR,,
6034356,6038985,settlement,Rukoni,Rukoni,official,-3.3514,29.5086,BI-BL,,
6032413,6036907,settlement,Ntebe,Ntebe,official,-3.7179,29.3697,BI-RM,,
6032587,6037081,settlement,Uwibiti,Uwibiti,official,-3.5989,29.6016,BI-BR,,
6032398,6036892,settlement,Karambira,Karambira,official,-3.6979,29.3528,BI-RM,,
6032349,6036843,hydrographic,Ginge,Ginge,official,-3.6269,29.4191,BI-RM,,
6034373,6039002,settlement,Mutobo,Mutobo,official,-3.3612,29.5888,BI-MW,,
6033821,6038315,settlement,Mumwango,Mumwango,official,-3.7381,30.3123,BI-RT,,
6033682,6038176,hydrographic,Nyakarwe,Nyakarwe,official,-3.5365,30.4752,BI-RY,,
6031623,6036117,hydrographic,Nyamigezi,Nyamigezi,official,-3.9718,30.0783,BI-RT,,
6034331,6038960,settlement,Mwizinga,Mwizinga,official,-3.3375,29.5613,BI-MU,,
6033660,6038154,hydrographic,Mugera,Mugera,official,-3.5108,30.4357,BI-RY,,
6031680,6036174,hydrographic,Kumurago,Kumurago,official,-3.8513,30.2866,BI-RT,,
6031606,6036100,hydrographic,Mugenda,Mugenda,official,-3.9559,30.1272,BI-RT,,
6032997,6037491,settlement,Bukwavu,Bukwavu,official,-3.6227,29.8762,BI-GI,,
6031746,6036240,park,Buhana,Buhana,official,-3.7842,29.657,BI-BR,,
6033360,6037854,settlement,Buhevyi,Buhevyi,official,-3.5753,30.0309,BI-GI,,
6033021,6037515,hydrographic,Nyacijima,Nyacijima,official,-3.6274,29.7951,BI-GI,,
6031788,6036282,hydrographic,Muwingomo,Muwingomo,official,-3.8044,29.6717,BI-BR,,
6034172,6038801,spot,"Monument Livingstone-Stanley","Monument Livingstone-Stanley",official,-3.481111,29.352778,BI-BL,,
6032140,6036634,hypsographic,Busesa,Busesa,official,-3.841389,29.448889,BI-RM,,
6031478,6035972,settlement,Mihama,Mihama,official,-3.8373,30.1013,BI-RT,,
6034254,6038883,settlement,Migera,Migera,official,-3.3002,29.719,BI-MU,,
6034449,6039078,settlement,Kigutu,Kigutu,official,-3.5049,29.7084,BI-MW,,
6033371,6037865,settlement,Giterama,Giterama,official,-3.5808,30.1015,BI-RY,,
6033271,6037765,settlement,Nyamiyaga,Nyamiyaga,official,-3.5246,30.1089,BI-RY,,
6032535,6038402,hydrographic,Nyakatika,Nyakatika,variant,-3.5338,29.7122,BI-MW,,
6032418,6036912,settlement,Gisangazuba,Gisangazuba,variant,-3.7248,29.4482,BI-RM,,
6034427,6039056,settlement,Murago,Murago,official,-3.3903,29.7223,BI-MW,,
6033413,6038431,settlement,Nterakaronko,Nterakaronko,variant,-3.61,30.0477,BI-GI,,
6034261,6038890,hydrographic,Nyakarago,Nyakarago,official,-3.2924,29.5802,BI-MU,,
6033631,6038125,hydrographic,Mwiriba,Mwiriba,official,-3.7299,30.0463,BI-RT,,
6032829,6037323,settlement,Rukinya,Rukinya,official,-3.5326,29.9743,BI-GI,,
6034120,6038749,settlement,Buhina,Buhina,official,-3.4523,29.438,BI-BL,,
6032654,6037148,settlement,Nyarurambi,Nyarurambi,official,-3.6493,29.537,BI-BR,,
6032268,6036762,settlement,Cumba,Cumba,official,-3.5515,29.3752,BI-BL,,
6034144,6038773,settlement,Mugendo,Mugendo,official,-3.4778,29.4465,BI-BL,,
6033192,6037686,hydrographic,Mukuzanyana,Mukuzanyana,official,-3.7279,29.7729,BI-GI,,
6031754,6036248,hydrographic,Kagoma,Kagoma,official,-3.8078,29.6873,BI-BR,,
6033153,6037647,hypsographic,Musenyi,Musenyi,official,-3.692,29.8142,BI-GI,,
6032151,6036645,settlement,Migende,Migende,official,-3.85,29.4756,BI-RM,,
6032035,6036529,settlement,Gisanze,Gisanze,official,-3.9897,29.6125,BI-BR,,
6033718,6038212,settlement,Gitunguru,Gitunguru,official,-3.5719,30.2688,BI-RY,,
6033296,6037790,settlement,Kagoma,Kagoma,official,-3.5393,30.0234,BI-GI,,
6033617,6038111,hydrographic,Giterama,Giterama,official,-3.7258,30.0696,BI-RT,,
6033216,6037710,settlement,Ngoro,Ngoro,official,-3.739,29.7848,BI-GI,,
6034217,6038846,settlement,Kabwirika,Kabwirika,official,-3.2759,29.6777,BI-MU,,
6034236,6038865,settlement,Gasuru,Gasuru,official,-3.2864,29.6858,BI-MU,,
6033174,6037668,settlement,Ryansoro,Ryansoro,official,-3.714,29.7919,BI-GI,,
6034428,6039057,settlement,Bubaji,Bubaji,official,-3.392,29.6388,BI-MW,,
6032658,6037152,settlement,Nyarushushu,Nyarushushu,official,-3.6521,29.5076,BI-BL,,
6032286,6036780,settlement,Migera,Migera,official,-3.5688,29.3606,BI-BL,,
6031921,6036415,hypsographic,Gikuyo,Gikuyo,official,-3.8975,29.696667,BI-BR,,
6033757,6038251,settlement,Ruhongoro,Ruhongoro,official,-3.6366,30.3799,BI-RY,,
6031507,6036001,settlement,Gicumbi,Gicumbi,official,-3.8612,30.0087,BI-RT,,
6033256,6037750,hypsographic,Musenga,Musenga,official,-3.513897,30.080472,BI-RY,,
6031853,6036347,settlement,Kiryama,Kiryama,official,-3.8545,29.721,BI-BR,,
6034421,6039050,settlement,Gasuru,Gasuru,official,-3.3865,29.5799,BI-BL,,
6031467,6035961,hypsographic,Nyarukona,Nyarukona,official,-3.8334,30.1489,BI-RT,,
6031905,6036399,settlement,Buzamana,Buzamana,official,-3.8861,29.5488,BI-RM,,
6034061,6038690,settlement,Bugomba,Bugomba,official,-3.4067,29.462,BI-BL,,
