wgdPlaceId,wgdId,type,name,fullName,nameType,latitude,longitude,administrationGroup,isHistorical,isCapital
14595050,18967798,settlement,Jimmit,Jimmit,official,15.371451,-61.403139,DM-10,,
-3750740,-4988025,hypsographic,Antillen,Antillen,variant,18.733333,-69.15,S1-000,,
-3750740,-4988024,hypsographic,Antillas,Antillas,variant,18.733333,-69.15,S1-000,,
-3750740,-4988026,hypsographic,Antilles,Antilles,colloquial,18.733333,-69.15,S1-000,,
-1544444,-2196990,hypsographic,Antillas,Antillas,variant,19.383333,-71.216667,S1-000,,
-1544444,-2196991,hypsographic,Antilles,Antilles,variant,19.383333,-71.216667,S1-000,,
-1544444,-2199262,hypsographic,West-Indië,West-Indie,variant,19.383333,-71.216667,S1-000,,
-1544444,-2199263,hypsographic,"West Indies","West Indies",colloquial,19.383333,-71.216667,S1-000,,
-1352287,-1946934,hypsographic,"Pointe Mulâtre","Pointe Mulatre",official,15.280225,-61.253614,DM-09,,
-1352330,-1947017,hydrographic,"Saint Davids Bay","Saint Davids Bay",variant,15.435767,-61.253482,DM-03,,
-1352137,20082330,hydrographic,Delaford,Delaford,official,15.639481,-61.423436,DM-02,,
-1352060,-1946624,hydrographic,"Balthazar River","Balthazar River",official,15.616006,-61.405747,DM-02,,
-1352205,-1946821,hydrographic,"Hampstead River","Hampstead River",official,15.597599,-61.361902,DM-02,,
-1352055,-1946619,hypsographic,"Pointe Augustine","Pointe Augustine",official,15.540427,-61.274837,DM-02,,
-1352075,-1946648,hydrographic,"Bellibu River","Bellibu River",official,15.593794,-61.357728,DM-02,,
-1352322,-1946981,hydrographic,"Point Mulâtre River","Point Mulatre River",official,15.275608,-61.254794,DM-09,,
-1352066,-1946639,spot,Bataly,Bataly,official,15.466667,-61.433333,DM-06,,
-1352330,-1946991,hydrographic,"Anse Quanery","Anse Quanery",official,15.435767,-61.253482,DM-03,,
-1352289,-1946936,hypsographic,"Morne Negres Marrons","Morne Negres Marrons",official,15.408665,-61.331994,DM-000,,
-1352161,-1946764,hydrographic,"Espagnole River","Espagnole River",official,15.531194,-61.475075,DM-11,,
-1352249,-1946884,hydrographic,"Mahaut River","Mahaut River",official,15.360574,-61.396817,DM-10,,
-1352406,-1947089,settlement,"Vielle Case","Vielle Case",variant,15.614179,-61.408231,DM-02,,
-1352206,-1946822,spot,"Hatton Garden","Hatton Garden",variant,15.517946,-61.277218,DM-02,,
-1352215,-1946840,hypsographic,"Pointe de Jenny","Pointe de Jenny",variant,15.466628,-61.242627,DM-03,,
-1352306,20082298,hydrographic,Penton,Penton,official,15.592476,-61.360052,DM-02,,
-1352072,-1946645,settlement,"Bellevue Chopin","Bellevue Chopin",official,15.266744,-61.345987,DM-04,,
-1352396,-1947076,settlement,Toucari,Toucari,official,15.611241,-61.46382,DM-05,,
-1352385,-1947065,settlement,Tanetane,Tanetane,official,15.601879,-61.461108,DM-05,,
-1352258,-1946894,settlement,Marigot,Marigot,official,15.537433,-61.281999,DM-02,,
-1352087,-1946661,settlement,Boetica,Boetica,official,15.309106,-61.250526,DM-09,,
-1352187,-1946795,hydrographic,"Good Hope River","Good Hope River",official,15.407974,-61.253195,DM-03,,
-1352320,-1946979,hydrographic,"Pointe Mulâtre Bay","Pointe Mulatre Bay",official,15.282948,-61.251638,DM-09,,
-1352315,20082297,hydrographic,Picard,Picard,official,15.56167,-61.459934,DM-05,,
-1352110,20082336,hydrographic,"Castle Bruce","Castle Bruce",official,15.431912,-61.255557,DM-03,,
-1352269,-1946701,hydrographic,"Clyde River","Clyde River",variant,15.548094,-61.2925,DM-02,,
-1352328,-1946987,hypsographic,"Prince Rupert Bluff","Prince Rupert Bluff",variant,15.586075,-61.478249,DM-05,,
-1352298,-1946948,hypsographic,"Pagua Point","Pagua Point",variant,15.516589,-61.258732,DM-03,,
-1352412,-1947097,hypsographic,"West Cabri","West Cabri",variant,15.586155,-61.476924,DM-05,,
-1352056,-1946620,settlement,"Au Parc","Au Parc",official,15.611428,-61.406455,DM-02,,
-1352301,-1946952,hypsographic,"Morne Paix Bouche","Morne Paix Bouche",official,15.262358,-61.264114,DM-09,,
-1352383,20082285,hydrographic,Taberi,Taberi,official,15.342317,-61.255249,DM-03,,
-1352299,20082299,hydrographic,Pagua,Pagua,official,15.518396,-61.273832,DM-000,,
-1352125,-1946710,settlement,Cottage,Cottage,official,15.615789,-61.463688,DM-05,,
-1352139,-1946729,hypsographic,"Morne aux Delices","Morne aux Delices",official,15.386802,-61.263522,DM-03,,
-1352298,-1946626,hypsographic,"Baraisir Point","Baraisir Point",variant,15.516589,-61.258732,DM-03,,
-1352103,18967785,hypsographic,Capucin,Capucin,variant,15.638368,-61.458471,DM-05,,
-1352130,-1946716,hypsographic,"Pointe Crabier","Pointe Crabier",official,15.497245,-61.470177,DM-11,,
-1352190,-1946798,spot,"Governor Estate","Governor Estate",official,15.532592,-61.333263,DM-02,,
-1352281,-1946927,settlement,"Morne Raquette","Morne Raquette",official,15.456375,-61.447322,DM-06,,
-1352414,-1947101,settlement,"Woodford Hill","Woodford Hill",official,15.580934,-61.331488,DM-02,,
-1352062,20082349,hydrographic,Barry,Barry,official,15.572673,-61.453669,DM-05,,
-1352108,-1946691,hydrographic,"Cario River","Cario River",official,15.546356,-61.47251,DM-05,,
-1352274,-1946920,hydrographic,"Middle Bay","Middle Bay",official,15.542588,-61.283509,DM-02,,
-1352209,-1946762,spot,"En Gregg","En Gregg",variant,15.397002,-61.41546,DM-06,,
-1352239,-1946874,hypsographic,L’Ilet,L'Ilet,official,15.403815,-61.242356,DM-03,,
-1352081,20082343,hydrographic,Bibiay,Bibiay,official,15.346015,-61.249276,DM-03,,
-1352312,-1946965,settlement,"Petite Soufrière","Petite Soufriere",official,15.390245,-61.25617,DM-03,,
-1352407,-1947090,hypsographic,"Wakaman Pointe","Wakaman Pointe",official,15.450018,-61.249147,DM-03,,
-1352321,-1946980,hypsographic,"Point Mulâtre","Point Mulatre",official,15.288923,-61.247877,DM-09,,
-1352241,-1946876,hydrographic,Loubiere,Loubiere,official,15.266667,-61.383333,DM-04,,
-1352163,-1946766,settlement,"Fond Cani","Fond Cani",official,15.317067,-61.357949,DM-04,,
-1352156,-1946758,settlement,Dubuc,Dubuc,official,15.246714,-61.303788,DM-09,,
-1352086,-1946659,hydrographic,"Boeri River","Boeri River",official,15.330586,-61.395834,DM-10,,
-1352213,-1946837,hypsographic,"Morne Jalousie","Morne Jalousie",official,15.466902,-61.431275,DM-06,,
-1352149,-1946746,administrative_region,"Presidency of Dominica","Presidency of Dominica",variant,15.433333,-61.35,DM-000,,
-1352366,-1947040,hypsographic,"Satisbie Isles","Satisbie Isles",variant,15.493135,-61.245882,DM-03,,
-1352267,-1946906,spot,"Melville Hall","Melville Hall",variant,15.546596,-61.301191,DM-02,,
-1352250,-1946885,hydrographic,"Mahaut River","Mahaut River",official,15.474722,-61.247795,DM-03,,
-1352286,18966136,hydrographic,"Anse Mulatre","Anse Mulatre",variant,15.505766,-61.468397,DM-11,,
-1352147,-1946738,hypsographic,"Mount Diabletin","Mount Diabletin",variant,15.501048,-61.39643,DM-000,,
-1352250,-1946845,hydrographic,"Kuerek River","Kuerek River",variant,15.474722,-61.247795,DM-03,,
-1352247,-1946882,hypsographic,"Pointe Mahaut","Pointe Mahaut",official,15.482945,-61.247594,DM-03,,
-1352315,-1946972,hydrographic,"Picara River","Picara River",variant,15.56167,-61.459934,DM-05,,
-1352388,-1947000,hypsographic,"Rodney’s Rock","Rodney's Rock",variant,15.3805,-61.411807,DM-10,,
-1352169,18967793,hypsographic,"Pointe Des Fous","Pointe Des Fous",official,15.212531,-61.330676,DM-09,,
-1352245,18966143,settlement,Majini,Majini,variant,15.467655,-61.249371,DM-03,,
-1352191,-1946777,hypsographic,"Gabière Point","Gabiere Point",variant,15.5,-61.483333,DM-05,,
-1352311,-1947042,hypsographic,"Point Savanne","Point Savanne",variant,15.256287,-61.258267,DM-09,,
-1352368,-1946629,hydrographic,"Baroui River","Baroui River",variant,15.433186,-61.436566,DM-06,,
-1352062,-1946632,hydrographic,"Barry River","Barry River",official,15.572673,-61.453669,DM-05,,
-1352334,-1946996,hypsographic,"Pointe Retireau","Pointe Retireau",official,15.243948,-61.271806,DM-09,,
-1352411,-1947096,settlement,Wesley,Wesley,official,15.564373,-61.310826,DM-02,,
-1352323,-1946982,settlement,"Pont Cassé","Pont Casse",official,15.380175,-61.343651,DM-10,,
-1352337,-1946999,settlement,"Rivière Ciriques","Riviere Ciriques",official,15.359898,-61.258354,DM-03,,
-1352314,-1946967,hypsographic,"Petit L’Ilet","Petit L'Ilet",official,15.494873,-61.250453,DM-03,,
-1352382,-1947049,settlement,"Silvannia Estate","Silvannia Estate",variant,15.359299,-61.355553,DM-10,,
-1352315,-1946974,hydrographic,"Picard River","Picard River",official,15.56167,-61.459934,DM-05,,
-1352235,-1946868,hypsographic,"Le Grand Maison","Le Grand Maison",official,15.232311,-61.364596,DM-08,,
-1352065,-1946638,hydrographic,"Batali River","Batali River",official,15.453917,-61.446982,DM-06,,
-1352215,-1946869,hypsographic,"L’Escalier Tête-chien","L'Escalier Tete-chien",variant,15.466628,-61.242627,DM-03,,
-1352115,-1946699,hydrographic,"Clarke’s River","Clarke's River",official,15.373832,-61.273688,DM-03,,
-1352307,-1946958,hydrographic,"Petit Baptiste Bay","Petit Baptiste Bay",official,15.596172,-61.335192,DM-02,,
-1352243,-1946878,hypsographic,"Morne Macaque","Morne Macaque",official,15.342139,-61.319173,DM-04,,
-1352383,-1947063,hydrographic,"Taberi River","Taberi River",official,15.342317,-61.255249,DM-03,,
-1352266,-1946903,hydrographic,"Mayette Spring","Mayette Spring",official,15.332956,-61.354989,DM-000,,
-1352292,-1946940,hypsographic,Noble,Noble,official,15.565631,-61.294243,DM-02,,
-1352236,-1946870,hypsographic,"Morne Les Resources","Morne Les Resources",official,15.501886,-61.413414,DM-000,,
-1352214,-1946839,hypsographic,"Point Jaquet","Point Jaquet",official,15.633333,-61.433333,DM-000,,
-1352343,20082294,hydrographic,Rosalie,Rosalie,official,15.373482,-61.251822,DM-03,,
-1352234,-1946867,hydrographic,"Layou River","Layou River",official,15.394704,-61.425327,DM-06,,
-1352085,-1946658,hydrographic,"Boeri Lake","Boeri Lake",official,15.352202,-61.321102,DM-03,,
-1352170,-1946774,hydrographic,"Anse Francais","Anse Francais",official,15.452142,-61.247694,DM-03,,
-1352226,-1946858,hypsographic,"La Pointe","La Pointe",official,15.566667,-61.483333,DM-05,,
-1352133,-1946720,hydrographic,"Crayfish River","Crayfish River",official,15.502322,-61.258259,DM-03,,
-1352118,-1946703,hypsographic,"Pointe Coco","Pointe Coco",official,15.287477,-61.246025,DM-09,,
-1352186,-1946794,settlement,"Good Hope","Good Hope",official,15.411677,-61.254056,DM-03,,
-1352305,-1946956,settlement,Peineville,Peineville,official,15.628997,-61.420025,DM-02,,
-1352328,-1946988,hypsographic,"Prince Rupert Bluff Point","Prince Rupert Bluff Point",official,15.586075,-61.478249,DM-05,,
-1352225,-1946857,hypsographic,"La Pointe","La Pointe",official,15.487369,-61.465464,DM-11,,
-1352267,-1946908,spot,"Melville Hall Airfield","Melville Hall Airfield",short,15.546596,-61.301191,DM-02,,
-1352123,-1946708,hydrographic,"Colihaut River","Colihaut River",official,15.484327,-61.463548,DM-11,,
-1352263,-1946900,hydrographic,"Massacre River","Massacre River",official,15.346726,-61.393123,DM-10,,
-1352112,-1946696,settlement,"Charlotte Ville","Charlotte Ville",official,15.291883,-61.379314,DM-04,,
-1352100,-1946683,spot,"Canefield Airport","Canefield Airport",short,15.336781,-61.392124,DM-10,,
-1352345,20082293,hydrographic,Roseau,Roseau,official,15.299081,-61.390754,DM-04,,
-1352390,-1947070,settlement,"Tête Morne","Tete Morne",official,15.235449,-61.333957,DM-09,,
-1352313,-1946966,hydrographic,"Petite Soufrière Bay","Petite Soufriere Bay",official,15.387254,-61.247363,DM-03,,
-1352322,18966493,hydrographic,"Point Mulatre River","Point Mulatre River",variant,15.275608,-61.254794,DM-09,,
-1352083,-1946656,hydrographic,"Bioche River","Bioche River",official,15.508712,-61.467108,DM-11,,
-1352167,18966229,hypsographic,"Pointe Du Fort","Pointe Du Fort",official,15.499074,-61.252908,DM-03,,
-1352371,-1947041,hydrographic,"Savane River","Savane River",official,15.249646,-61.263396,DM-09,,
-1352078,-1946651,settlement,Belvidere,Belvidere,official,15.283333,-61.25,DM-09,,
-1352088,-1946662,hydrographic,"Boiling Lake","Boiling Lake",official,15.318347,-61.294383,DM-09,,
-1352135,-1946724,hypsographic,"Morne Daniel","Morne Daniel",official,15.319286,-61.391301,DM-10,,
-1352389,20082284,hydrographic,Tarou,Tarou,official,15.387974,-61.415451,DM-10,,
-1352377,18967789,settlement,Soufriere,Soufriere,variant,15.233844,-61.35908,DM-08,,
-1352129,-1946715,hypsographic,"Morne Couronne","Morne Couronne",official,15.403804,-61.357456,DM-06,,
-1352378,-1947056,hydrographic,"Soufrière Bay","Soufriere Bay",official,15.224875,-61.36353,DM-08,,
-1352381,18967788,hydrographic,"Sulphur Springs","Sulphur Springs",variant,15.234314,-61.349244,DM-08,,
-1352413,-1947099,hydrographic,"Woodbridge Bay","Woodbridge Bay",official,15.314764,-61.390978,DM-000,,
-1352331,20082295,hydrographic,Quanery,Quanery,official,15.333333,-61.283333,DM-03,,
-1352326,18967774,settlement,"Potter’s Ville","Potter's Ville",official,15.302433,-61.389583,DM-04,,
-1352066,-1946636,spot,Batalie,Batalie,variant,15.466667,-61.433333,DM-06,,
-1352346,-1947012,hydrographic,"Rough Bay","Rough Bay",official,15.572723,-61.304307,DM-02,,
-1352401,-1947081,settlement,Trafalgar,Trafalgar,official,15.321774,-61.347811,DM-04,,
-1352352,-1947020,hypsographic,"Point Saint Jean","Point Saint Jean",official,15.251277,-61.260066,DM-09,,
-1352299,-1946950,hydrographic,"Pagua River","Pagua River",official,15.518396,-61.273832,DM-000,,
-1352257,-1946893,hydrographic,"Maréchal River","Marechal River",official,15.520445,-61.275058,DM-02,,
-1352147,-1946739,hypsographic,"Morne Diablotin","Morne Diablotin",variant,15.501048,-61.39643,DM-000,,
-1352410,-1947094,hypsographic,"Morne Watt","Morne Watt",variant,15.306526,-61.305326,DM-09,,
-1352311,-1946963,hypsographic,"Petite Savane Pointe","Petite Savane Pointe",variant,15.256287,-61.258267,DM-09,,
-1352221,-1946852,settlement,"Là Haut","La Haut",official,15.635112,-61.424628,DM-02,,
-1352277,-1946923,settlement,"Morne Aux Frégates","Morne Aux Fregates",official,15.357406,-61.262061,DM-03,,
-1352100,-1946681,spot,Canefield,Canefield,variant,15.336781,-61.392124,DM-10,,
-1352181,-1946812,settlement,Griaudel,Griaudel,variant,15.288441,-61.348791,DM-04,,
-1352071,20082346,hydrographic,"Belle Fille","Belle Fille",official,15.424911,-61.270497,DM-03,,
-1352212,-1946835,hypsographic,"Pointe Jaco","Pointe Jaco",official,15.639509,-61.422815,DM-02,,
-1352266,18966118,hydrographic,"Mayette Springs","Mayette Springs",variant,15.332956,-61.354989,DM-000,,
-1352192,-1946802,hydrographic,"Grand Baptiste Bay","Grand Baptiste Bay",official,15.596471,-61.340958,DM-02,,
-1352294,-1946942,vegetation,"Northern Forest Reserve","Northern Forest Reserve",official,15.508973,-61.388698,DM-02,,
-1352182,-1946790,settlement,Glanvillia,Glanvillia,official,15.567074,-61.456124,DM-05,,
-1352218,-1946849,settlement,Lagon,Lagon,official,15.579982,-61.457823,DM-05,,
-1352325,-1946984,settlement,Portsmouth,Portsmouth,official,15.576124,-61.454465,DM-05,,
-1352325,-1946800,settlement,Grand-Anse,Grand-Anse,variant,15.576124,-61.454465,DM-05,,
-1352172,-1946871,hydrographic,L’etang,L'etang,variant,15.343184,-61.308213,DM-04,,
-1352243,-1946919,hypsographic,Microtin,Microtin,variant,15.342139,-61.319173,DM-04,,
-1352255,-1946891,hypsographic,"Mang Peak","Mang Peak",official,15.474763,-61.339816,DM-000,,
-1352232,-1946865,settlement,Laudat,Laudat,official,15.334601,-61.331097,DM-04,,
-1352412,-1947098,hypsographic,"West Cabrit","West Cabrit",official,15.586155,-61.476924,DM-05,,
-1352392,-1947072,settlement,Thibaud,Thibaud,official,15.599689,-61.397287,DM-02,,
-1352344,-1947009,settlement,Roseau,Roseau,official,15.3,-61.4,DM-04,,
-1352273,-1946915,hypsographic,"La Pointe Michel","La Pointe Michel",variant,15.25,-61.4,DM-07,,
-1352208,-1946828,hydrographic,"Hillsborough Bay","Hillsborough Bay",official,15.6,-61.333333,DM-02,,
-1352280,-1946926,settlement,"Morne Prosper","Morne Prosper",official,15.310797,-61.344601,DM-04,,
-1352329,-1946990,hydrographic,"Pringles Bay","Pringles Bay",official,15.337087,-61.394627,DM-10,,
-1352389,-1947069,hydrographic,"Tarou River","Tarou River",official,15.387974,-61.415451,DM-10,,
-1352343,-1947008,hydrographic,"Rosalie River","Rosalie River",official,15.373482,-61.251822,DM-03,,
-1352322,20082296,hydrographic,"Point Mulâtre","Point Mulatre",official,15.275608,-61.254794,DM-09,,
-1352398,20082281,hydrographic,Toucari,Toucari,official,15.609804,-61.464021,DM-05,,
-1352337,18965192,settlement,"Riviere Ciriques","Riviere Ciriques",variant,15.359898,-61.258354,DM-03,,
-1352395,20082282,hydrographic,Torité,Torite,official,15.6,-61.55,DM-05,,
-1352400,-1947080,hypsographic,"Pointe Tourterelles","Pointe Tourterelles",official,15.459687,-61.245722,DM-03,,
-1352120,-1946705,hydrographic,"Anse Cola","Anse Cola",official,15.480505,-61.461807,DM-11,,
-1352094,-1946668,hypsographic,"Morne Bruce","Morne Bruce",official,15.299358,-61.377314,DM-04,,
-1352140,-1946730,settlement,Demitrie,Demitrie,official,15.633387,-61.425331,DM-02,,
-1352177,-1946782,hydrographic,"Geneva River","Geneva River",official,15.244396,-61.307987,DM-09,,
-1352203,-1946819,settlement,Hampstead,Hampstead,official,15.594571,-61.366305,DM-02,,
-1352103,-1946805,hypsographic,"Grand Capucin","Grand Capucin",variant,15.638368,-61.458471,DM-05,,
-1352404,20082279,hydrographic,"Trois Pitons","Trois Pitons",official,15.326639,-61.335156,DM-04,,
-1352243,-1946918,hypsographic,Micotrin,Micotrin,variant,15.342139,-61.319173,DM-04,,
-1352152,-1946888,hydrographic,"Malalia Bay","Malalia Bay",variant,15.595864,-61.465543,DM-05,,
-1352349,-1947015,administrative_region,"Saint David","Saint David",official,15.466667,-61.283333,DM-03,,
-1352182,-1946789,settlement,Glanville,Glanville,variant,15.567074,-61.456124,DM-05,,
-1352381,-1947060,hydrographic,"Sulphur Spring","Sulphur Spring",official,15.234314,-61.349244,DM-08,,
-1352168,-1946771,hypsographic,Foundland,Foundland,official,15.272191,-61.286853,DM-09,,
-1352309,-1946964,settlement,"Petite Savanne","Petite Savanne",variant,15.255344,-61.267922,DM-09,,
-1352050,-1946614,hydrographic,"Agoucha Bay","Agoucha Bay",official,15.637593,-61.422017,DM-02,,
-1352416,-1947100,spot,"Woodford Hill","Woodford Hill",variant,15.583098,-61.318923,DM-02,,
-1352356,-1947024,hydrographic,"Saint Joseph River","Saint Joseph River",official,15.40416,-61.426645,DM-06,,
-1352390,19575112,settlement,Montine,Montine,variant,15.235449,-61.333957,DM-09,,
-1352297,-1946946,hydrographic,"Pagoua Bay","Pagoua Bay",variant,15.52122,-61.271326,DM-000,,
-1352146,-1946737,hypsographic,"Morne aux Diables","Morne aux Diables",official,15.612653,-61.435917,DM-000,,
-1352282,-1946928,settlement,"Morne Soleil","Morne Soleil",official,15.613743,-61.465367,DM-05,,
-1352238,-1946873,hypsographic,L’Ilet,L'Ilet,official,15.297432,-61.243797,DM-09,,
-1352308,-1946959,spot,"Petit Coulibri Estate","Petit Coulibri Estate",official,15.214727,-61.339412,DM-08,,
-1352242,-1946877,settlement,Loubiere,Loubiere,official,15.275166,-61.372517,DM-04,,
-1352365,-1947033,settlement,Salibia,Salibia,variant,15.493818,-61.257526,DM-03,,
-1352227,-1946859,settlement,Larieu,Larieu,official,15.586169,-61.328701,DM-02,,
-1352191,-1946799,hypsographic,"Grabière Point","Grabiere Point",official,15.5,-61.483333,DM-05,,
-1352141,20082329,hydrographic,Demitrie,Demitrie,official,15.636126,-61.4214,DM-02,,
-1352418,-1947106,hypsographic,"Pointe Zicac","Pointe Zicac",official,15.428044,-61.249049,DM-03,,
-1352200,-1946816,hypsographic,"Gueule Lion Point","Gueule Lion Point",official,15.464649,-61.455177,DM-11,,
-1352058,18967813,hydrographic,"Anse Atwassi","Anse Atwassi",variant,15.500334,-61.254194,DM-03,,
-1352152,-1946754,hydrographic,"Douglas Bay","Douglas Bay",official,15.595864,-61.465543,DM-05,,
-1352141,-1946731,hydrographic,"Demitrie River","Demitrie River",official,15.636126,-61.4214,DM-02,,
-1352164,20082324,hydrographic,"Fond Figues","Fond Figues",official,15.410023,-61.300653,DM-03,,
-1352378,-1947053,hydrographic,"Souffrière Bay","Souffriere Bay",variant,15.224875,-61.36353,DM-08,,
-1352105,-1946688,hypsographic,"Carib Point","Carib Point",official,15.241395,-61.290042,DM-09,,
-1352106,-1946689,hypsographic,"Carib Point","Carib Point",official,15.639654,-61.423511,DM-02,,
-1352188,-1946796,settlement,Goodwill,Goodwill,official,15.305097,-61.383518,DM-04,,
-1352313,-1946971,hydrographic,"Petit Soufriere Bay","Petit Soufriere Bay",variant,15.387254,-61.247363,DM-03,,
-1352313,18966133,hydrographic,"Petite Soufriere Bay","Petite Soufriere Bay",variant,15.387254,-61.247363,DM-03,,
-1352164,-1946767,hydrographic,"Fond Figues River","Fond Figues River",official,15.410023,-61.300653,DM-03,,
-1352340,-1947005,settlement,Rosalie,Rosalie,official,15.37181,-61.253247,DM-03,,
-1352124,-1946709,hypsographic,"Morne Concorde","Morne Concorde",official,15.512212,-61.300635,DM-02,,
-1352311,-1946969,hypsographic,"Petit Savanne","Petit Savanne",variant,15.256287,-61.258267,DM-09,,
-1352273,-1946917,hypsographic,"Michelle Point","Michelle Point",variant,15.25,-61.4,DM-07,,
-1352204,-1946820,hypsographic,"Hampstead Ridge","Hampstead Ridge",official,15.5796,-61.365138,DM-02,,
-1352177,-1947057,hydrographic,"Stewart’s River","Stewart's River",variant,15.244396,-61.307987,DM-09,,
-1352277,18967783,settlement,"Morne Aux Fregates","Morne Aux Fregates",variant,15.357406,-61.262061,DM-03,,
-1352297,-1946947,hydrographic,"Pagua Bay","Pagua Bay",official,15.52122,-61.271326,DM-000,,
-1352345,-1947010,hydrographic,"River Roseau","River Roseau",variant,15.299081,-61.390754,DM-04,,
-1352195,-1946808,settlement,"Grand Fond","Grand Fond",official,15.356258,-61.281871,DM-03,,
-1352368,-1946631,hydrographic,"Barry River","Barry River",variant,15.433186,-61.436566,DM-06,,
-1352372,-1946673,hypsographic,"Pointe Cachacrou","Pointe Cachacrou",variant,15.214332,-61.372937,DM-08,,
-1352411,-1946861,settlement,"La Soie","La Soie",variant,15.564373,-61.310826,DM-02,,
-1352178,-1946783,hypsographic,"Pointe Georgie","Pointe Georgie",official,15.418217,-61.248591,DM-03,,
-1352065,20082348,hydrographic,Batali,Batali,official,15.453917,-61.446982,DM-06,,
-1352158,-1946760,hypsographic,"East Cabrit","East Cabrit",official,15.586331,-61.471664,DM-02,,
-1352162,-1946765,hypsographic,"Fabre Hill","Fabre Hill",official,15.249142,-61.273446,DM-09,,
-1352136,-1946725,hypsographic,"Pointe Daniel","Pointe Daniel",official,15.290849,-61.245519,DM-09,,
-1352095,19575291,hypsographic,"Morne Brule","Morne Brule",variant,15.592141,-61.435723,DM-000,,
-1352177,20082323,hydrographic,Geneva,Geneva,official,15.244396,-61.307987,DM-09,,
-1352398,-1947078,hydrographic,"Toucari River","Toucari River",official,15.609804,-61.464021,DM-05,,
-1352117,-1946702,settlement,Cochrane,Cochrane,official,15.33749,-61.361524,DM-10,,
-1352272,-1946914,hydrographic,"Micham River","Micham River",official,15.249329,-61.315315,DM-09,,
-1352275,-1946921,settlement,"Monkey Hill","Monkey Hill",official,15.499588,-61.264814,DM-03,,
-1352373,-1947047,settlement,"Scotts Head Village","Scotts Head Village",variant,15.212328,-61.366999,DM-08,,
-1352268,-1946907,settlement,"Melville Hall","Melville Hall",official,15.545258,-61.292222,DM-02,,
-1352189,-1946797,hypsographic,"Morne Gouverneur","Morne Gouverneur",official,15.31994,-61.274606,DM-09,,
-1352296,20082300,hydrographic,Ouayaneri,Ouayaneri,official,15.342276,-61.246922,DM-000,,
-1352099,20082338,hydrographic,Canari,Canari,official,15.284617,-61.375454,DM-04,,
-1352372,-1947044,hypsographic,"Scots Head","Scots Head",variant,15.214332,-61.372937,DM-08,,
-1352416,-1947103,spot,"Woodford Hill Estate","Woodford Hill Estate",official,15.583098,-61.318923,DM-02,,
-1352245,-1946880,settlement,Madjini,Madjini,official,15.467655,-61.249371,DM-03,,
-1352228,-1946860,hydrographic,"La Ronde River","La Ronde River",official,15.318391,-61.245273,DM-09,,
-1352052,20082352,hydrographic,"Anse Du Mé","Anse Du Me",official,15.593473,-61.377644,DM-02,,
-1352380,-1947059,hydrographic,"River Subaya","River Subaya",official,15.278232,-61.255338,DM-09,,
-1352258,-1946968,settlement,"Petit Marigot","Petit Marigot",variant,15.537433,-61.281999,DM-02,,
-1352107,-1946690,park,"Carib Reserve","Carib Reserve",official,15.484685,-61.263081,DM-03,,
-1352356,20082292,hydrographic,"Saint Joseph","Saint Joseph",official,15.40416,-61.426645,DM-06,,
-1352270,-1946911,settlement,Méro,Mero,official,15.418657,-61.428939,DM-06,,
-1352184,-1946792,hypsographic,"Pointe Gombo","Pointe Gombo",official,15.519279,-61.26462,DM-03,,
-1352114,-1946698,hydrographic,"River Claire","River Claire",official,15.308066,-61.362487,DM-04,,
-1352197,-1946810,hypsographic,"Grand Savanna","Grand Savanna",official,15.433333,-61.466667,DM-06,,
-1352264,-1946901,hypsographic,Mastle,Mastle,official,15.561581,-61.296343,DM-02,,
-1352053,-1946617,hydrographic,"Aouya River","Aouya River",official,15.619978,-61.408628,DM-02,,
-1352244,20082312,hydrographic,Macoucheri,Macoucheri,official,15.428154,-61.435965,DM-06,,
-1352373,-1946672,settlement,Cachacrou,Cachacrou,variant,15.212328,-61.366999,DM-08,,
-1352181,-1946787,settlement,Giraudel,Giraudel,official,15.288441,-61.348791,DM-04,,
-1352279,-1946925,settlement,"Morne Jaune","Morne Jaune",official,15.352853,-61.264008,DM-03,,
-1352305,18967792,settlement,Penville,Penville,variant,15.628997,-61.420025,DM-02,,
-1352209,-1946829,spot,"Hillsborough Estate","Hillsborough Estate",official,15.397002,-61.41546,DM-06,,
-1352417,-1947104,hydrographic,"Woodford Hill River","Woodford Hill River",official,15.586236,-61.317762,DM-02,,
-1352134,-1946723,hypsographic,"Crumpton Point","Crumpton Point",variant,15.583428,-61.303655,DM-02,,
-1352179,-1946785,hydrographic,"River Gillon","River Gillon",official,15.277407,-61.374662,DM-04,,
-1352379,-1947058,settlement,Stowe,Stowe,official,15.245678,-61.293361,DM-09,,
-1352084,-1946657,hydrographic,"Blenheim River","Blenheim River",official,15.593988,-61.390462,DM-02,,
-1352351,-1947019,administrative_region,"Saint George","Saint George",official,15.3,-61.366667,DM-04,,
-1352399,-1947079,hydrographic,"Toulaman River","Toulaman River",official,15.558055,-61.297707,DM-02,,
-1352248,20082311,hydrographic,Mahaut,Mahaut,official,15.356339,-61.250969,DM-03,,
-1352248,-1946883,hydrographic,"Mahaut River","Mahaut River",official,15.356339,-61.250969,DM-03,,
-1352304,18966114,hypsographic,"Pointe a Peine","Pointe a Peine",variant,15.395626,-61.241476,DM-03,,
-1352382,-1947061,settlement,Sylvania,Sylvania,official,15.359299,-61.355553,DM-10,,
-1352132,-1946719,settlement,"Crayfish River","Crayfish River",official,15.497024,-61.257545,DM-03,,
-1352358,-1947026,administrative_region,"Saint Mark","Saint Mark",official,15.216667,-61.366667,DM-08,,
-1352151,20082328,hydrographic,Douce,Douce,official,15.592724,-61.351955,DM-02,,
-1352408,-1947091,hydrographic,"Walkers Rest Bay","Walkers Rest Bay",official,15.569048,-61.301617,DM-02,,
-1352402,-1947082,hydrographic,"Trafalgar Falls","Trafalgar Falls",official,15.327363,-61.334707,DM-04,,
-1352063,-1946633,settlement,"Basin Will","Basin Will",variant,15.433333,-61.366667,DM-06,,
-1352113,-1946697,hydrographic,"Check Hall River","Check Hall River",official,15.341997,-61.393134,DM-10,,
-1352159,-1946761,hydrographic,"Eden River","Eden River",official,15.579989,-61.305931,DM-02,,
-1352332,-1946994,hydrographic,"Raymond Bay","Raymond Bay",official,15.462549,-61.24514,DM-03,,
-1352288,-1946935,park,"National Park","National Park",official,15.341575,-61.29235,DM-000,,
-1352086,-1946660,hydrographic,"River Boery","River Boery",variant,15.330586,-61.395834,DM-10,,
-1352265,-1946902,spot,"Mayambe Estate","Mayambe Estate",official,15.286401,-61.27885,DM-09,,
-1352309,-1946960,settlement,"Petite Savane","Petite Savane",official,15.255344,-61.267922,DM-09,,
-1352409,-1947092,settlement,"Wall House","Wall House",official,15.278218,-61.37139,DM-04,,
-1352169,-1946772,hypsographic,"Point des Fous","Point des Fous",variant,15.212531,-61.330676,DM-09,,
-1352185,-1946793,settlement,Gommier,Gommier,official,15.609695,-61.403469,DM-02,,
-1352378,-1947043,hydrographic,"Scots Bay","Scots Bay",variant,15.224875,-61.36353,DM-08,,
-1352324,18967791,hypsographic,Porte-la-Fin,Porte-la-Fin,variant,15.594467,-61.354108,DM-02,,
-1352335,-1946997,hydrographic,"Richmond Bay","Richmond Bay",official,15.456769,-61.245767,DM-03,,
-1352367,-1947035,settlement,Salisbury,Salisbury,official,15.436891,-61.436368,DM-06,,
-1352096,-1946670,hydrographic,"River Bway","River Bway",official,15.432898,-61.358356,DM-06,,
-1352312,18965193,settlement,"Petite Soufriere","Petite Soufriere",variant,15.390245,-61.25617,DM-03,,
-1352180,-1946786,hypsographic,"Pointe Giraud","Pointe Giraud",official,15.329247,-61.242004,DM-09,,
-1352179,20082322,hydrographic,Gillon,Gillon,official,15.277407,-61.374662,DM-04,,
-1352298,18966148,hypsographic,"Baraisiri Pointe","Baraisiri Pointe",variant,15.516589,-61.258732,DM-03,,
-1352099,-1946680,hydrographic,"River Canari","River Canari",official,15.284617,-61.375454,DM-04,,
-1352189,18967777,hypsographic,"Morne Gouveneur","Morne Gouveneur",variant,15.31994,-61.274606,DM-09,,
-1352165,-1946768,settlement,"Fond Saint Jean","Fond Saint Jean",official,15.244846,-61.282107,DM-09,,
-1352154,-1946756,settlement,Dublanc,Dublanc,official,15.514917,-61.469365,DM-11,,
-1352246,-1946881,settlement,Mahaut,Mahaut,official,15.362699,-61.397711,DM-10,,
-1352371,20082287,hydrographic,Savane,Savane,official,15.249646,-61.263396,DM-09,,
-1352304,-1946955,hypsographic,"Pointe à Peine","Pointe a Peine",official,15.395626,-61.241476,DM-03,,
-1352128,20082332,hydrographic,Coulibistri,Coulibistri,official,15.459846,-61.451833,DM-06,,
-1352133,20082331,hydrographic,Crayfish,Crayfish,official,15.502322,-61.258259,DM-03,,
-1352155,20082327,hydrographic,Dublanc,Dublanc,official,15.514145,-61.469306,DM-11,,
-1352399,20082280,hydrographic,Toulaman,Toulaman,official,15.558055,-61.297707,DM-02,,
-1352122,-1946707,settlement,Colihaut,Colihaut,official,15.485639,-61.461918,DM-11,,
-1352054,-1946618,settlement,Atkinson,Atkinson,official,15.515149,-61.262643,DM-03,,
-1352144,-1946734,hypsographic,"Morne Destinée","Morne Destinee",official,15.58992,-61.427391,DM-000,,
-1352214,-1946838,hypsographic,"Point Jaqnet","Point Jaqnet",variant,15.633333,-61.433333,DM-000,,
-1352209,-1946826,spot,Hillsboro,Hillsboro,variant,15.397002,-61.41546,DM-06,,
-1352222,20082315,hydrographic,Lamoins,Lamoins,official,15.550056,-61.465234,DM-05,,
-1352367,-1946628,settlement,Baroui,Baroui,variant,15.436891,-61.436368,DM-06,,
-1352253,-1946889,hydrographic,"Mamelabou River","Mamelabou River",official,15.590065,-61.33398,DM-02,,
-1352201,-1946817,hypsographic,"Pointe Guignard","Pointe Guignard",official,15.241365,-61.373178,DM-07,,
-1352296,-1946945,hydrographic,"River Ouayaneri","River Ouayaneri",official,15.342276,-61.246922,DM-000,,
-1352342,-1947007,hypsographic,"Rosalie Point","Rosalie Point",official,15.378996,-61.245808,DM-03,,
-1352369,-1947038,hydrographic,"Sandwich Bay","Sandwich Bay",official,15.601267,-61.394862,DM-02,,
-1352134,-1946721,hypsographic,"Crompton Point","Crompton Point",official,15.583428,-61.303655,DM-02,,
-1352285,-1946931,hypsographic,"Mosquito Mountain","Mosquito Mountain",official,15.485332,-61.381684,DM-000,,
-1352387,-1947067,hypsographic,"Tarou Cliffs","Tarou Cliffs",official,15.390006,-61.420295,DM-10,,
-1352074,20082345,hydrographic,"Bell Hall","Bell Hall",official,15.59404,-61.462867,DM-05,,
-1352127,-1946712,settlement,Coulibistri,Coulibistri,variant,15.460656,-61.450894,DM-06,,
-1352157,-1946759,hypsographic,"Dubuc Point","Dubuc Point",official,15.595557,-61.3339,DM-02,,
-1352232,-1946913,settlement,Meudon,Meudon,variant,15.334601,-61.331097,DM-04,,
-1352092,-1946666,hydrographic,"River Bouleau","River Bouleau",official,15.469585,-61.457789,DM-11,,
-1352115,20082334,hydrographic,Clarke’s,Clarke's,official,15.373832,-61.273688,DM-03,,
-1352222,-1946853,hydrographic,"Lamoins River","Lamoins River",official,15.550056,-61.465234,DM-05,,
-1352410,-1947095,hypsographic,"Watt Mountain","Watt Mountain",official,15.306526,-61.305326,DM-09,,
-1352103,-1946686,hypsographic,"Cape Capucin","Cape Capucin",official,15.638368,-61.458471,DM-05,,
-1352073,-1946646,hypsographic,"Bellevue Mountain","Bellevue Mountain",official,15.615101,-61.431372,DM-02,,
-1352391,-1947071,settlement,"The Cross","The Cross",official,15.363603,-61.273708,DM-03,,
-1352149,14062797,administrative_region,Dominica,Dominica,official,15.433333,-61.35,DM-000,,
-1352067,-1946640,hydrographic,"Anse Bateaux","Anse Bateaux",official,15.246571,-61.373922,DM-07,,
-1352287,-1946933,hypsographic,"Point Mulatre","Point Mulatre",variant,15.280225,-61.253614,DM-09,,
-1352267,18964706,spot,"Melville Hall Airport","Melville Hall Airport",variant,15.546596,-61.301191,DM-02,,
-1352386,-1947066,settlement,Tarou,Tarou,official,15.388624,-61.414844,DM-10,,
-1352393,20082283,hydrographic,Thibaud,Thibaud,official,15.600698,-61.395759,DM-02,,
-1352161,20082325,hydrographic,Espagnole,Espagnole,official,15.531194,-61.475075,DM-11,,
-1352080,-1946804,settlement,"Grand Bay","Grand Bay",official,15.240273,-61.316886,DM-09,,
-1352377,-1947055,settlement,Soufrière,Soufriere,official,15.233844,-61.35908,DM-08,,
-1352367,-1946630,settlement,Barroui,Barroui,variant,15.436891,-61.436368,DM-06,,
-1352405,-1947085,hypsographic,"Morne Turner","Morne Turner",official,15.537485,-61.414882,DM-000,,
-1352095,-1946669,hypsographic,"Morne Brulés","Morne Brules",official,15.592141,-61.435723,DM-000,,
-1352127,19575620,settlement,Coulibistrie,Coulibistrie,official,15.460656,-61.450894,DM-06,,
-1352310,-1946961,hydrographic,"Petite Savane Bay","Petite Savane Bay",official,15.249427,-61.26242,DM-09,,
-1352273,-1946916,hypsographic,"Point Michel","Point Michel",official,15.25,-61.4,DM-07,,
-1352172,-1946776,hydrographic,"Fresh Water Lake","Fresh Water Lake",official,15.343184,-61.308213,DM-04,,
-1352205,20082320,hydrographic,Hampstead,Hampstead,official,15.597599,-61.361902,DM-02,,
-1352169,-1946773,hypsographic,"Pointe des Fous","Pointe des Fous",variant,15.212531,-61.330676,DM-09,,
-1352327,-1946989,hydrographic,"Prince Ruperts","Prince Ruperts",variant,15.563097,-61.464007,DM-05,,
-1352122,-1946714,settlement,Coulihaut,Coulihaut,variant,15.485639,-61.461918,DM-11,,
-1352368,-1947036,hydrographic,"Salisbury River","Salisbury River",official,15.433186,-61.436566,DM-06,,
-1352315,-1946973,hydrographic,"River Picard","River Picard",variant,15.56167,-61.459934,DM-05,,
-1352364,-1947032,hydrographic,"Salée River","Salee River",official,15.593738,-61.34641,DM-02,,
-1352065,-1946637,hydrographic,"Batalie River","Batalie River",variant,15.453917,-61.446982,DM-06,,
-1352199,-1946815,hypsographic,"Pointe Gros Rochers","Pointe Gros Rochers",official,15.473885,-61.24511,DM-03,,
-1352289,18965180,hypsographic,"Morne Laurent","Morne Laurent",variant,15.408665,-61.331994,DM-000,,
-1352320,18966346,hydrographic,"Pointe Mulatre Bay","Pointe Mulatre Bay",variant,15.282948,-61.251638,DM-09,,
-1352098,-1946679,hydrographic,"Canal River","Canal River",short,15.544244,-61.301911,DM-02,,
-1352350,-1947018,hypsographic,"Pointe Sainte Claire","Pointe Sainte Claire",official,15.407308,-61.252773,DM-03,,
-1352330,-1947016,hydrographic,"Saint David Bay","Saint David Bay",variant,15.435767,-61.253482,DM-03,,
-1352257,20082306,hydrographic,Maréchal,Marechal,official,15.520445,-61.275058,DM-02,,
-1352347,-1947013,administrative_region,"Saint Andrew","Saint Andrew",official,15.566667,-61.366667,DM-02,,
-1352151,-1946753,hydrographic,"Douce River","Douce River",official,15.592724,-61.351955,DM-02,,
-1352080,-1946653,settlement,Berekua,Berekua,variant,15.240273,-61.316886,DM-09,,
-1352366,-1947034,hypsographic,"Salibia Isles","Salibia Isles",official,15.493135,-61.245882,DM-03,,
-1352060,20082350,hydrographic,Balthazar,Balthazar,official,15.616006,-61.405747,DM-02,,
-1352202,-1946818,settlement,Guillet,Guillet,official,15.605103,-61.461063,DM-05,,
-1352217,-1946844,spot,"Kinellan Estate","Kinellan Estate",official,15.434116,-61.387163,DM-06,,
-1352109,-1946692,settlement,"Castle Bruce","Castle Bruce",official,15.443971,-61.257227,DM-03,,
-1352214,-1946836,hypsographic,"Point Jacquet","Point Jacquet",variant,15.633333,-61.433333,DM-000,,
-1352206,-1946823,spot,"Hatton Garden Estate","Hatton Garden Estate",official,15.517946,-61.277218,DM-02,,
-1352150,18967794,settlement,"Dos D’Ane","Dos D'Ane",variant,15.585156,-61.412709,DM-02,,
-1352096,20082339,hydrographic,Bway,Bway,official,15.432898,-61.358356,DM-06,,
-1352064,-1946635,settlement,Bataka,Bataka,official,15.506459,-61.266296,DM-03,,
-1352054,18964891,settlement,Akinson,Akinson,variant,15.515149,-61.262643,DM-03,,
-1352175,-1946780,settlement,Gaulette,Gaulette,official,15.482551,-61.252788,DM-03,,
-1352057,-1946621,hydrographic,"Autrou Bay","Autrou Bay",official,15.617445,-61.405337,DM-02,,
-1352382,-1947062,settlement,"Sylvania Estate","Sylvania Estate",variant,15.359299,-61.355553,DM-10,,
-1352372,-1947045,hypsographic,"Scott Head","Scott Head",variant,15.214332,-61.372937,DM-08,,
-1352101,-1946684,spot,"Canefield Estate","Canefield Estate",official,15.333245,-61.389834,DM-10,,
-1352223,-1946854,hydrographic,"Lamothe Bay","Lamothe Bay",official,15.618435,-61.466534,DM-05,,
-1352148,-1946742,hypsographic,Dominica,Dominica,official,15.5,-61.333333,DM-000,,
-1352283,-1946929,hypsographic,"Morne Turner Ridge","Morne Turner Ridge",official,15.534836,-61.408083,DM-000,,
-1352318,-1946977,hypsographic,"Morne Plat Pays","Morne Plat Pays",official,15.249417,-61.347078,DM-000,,
-1352406,-1946833,settlement,Itassi,Itassi,variant,15.614179,-61.408231,DM-02,,
-1352295,-1946944,hydrographic,"North River","North River",official,15.577453,-61.457922,DM-05,,
-1352311,-1946962,hypsographic,"Petite Savane Point","Petite Savane Point",official,15.256287,-61.258267,DM-09,,
-1352374,-1947048,settlement,Sibouli,Sibouli,official,15.257952,-61.377022,DM-07,,
-1352339,-1947004,hypsographic,"Pointe Ronde","Pointe Ronde",official,15.538365,-61.478763,DM-05,,
-1352243,18965179,hypsographic,"Morne Microtin","Morne Microtin",variant,15.342139,-61.319173,DM-04,,
-1352380,20082286,hydrographic,Subaya,Subaya,official,15.278232,-61.255338,DM-09,,
-1352084,20082341,hydrographic,Blenheim,Blenheim,official,15.593988,-61.390462,DM-02,,
-1352316,-1946975,settlement,Pichelin,Pichelin,official,15.26425,-61.325782,DM-09,,
-1352359,-1947027,administrative_region,"Saint Patrick","Saint Patrick",official,15.283333,-61.3,DM-09,,
-1352262,-1946899,settlement,Massacre,Massacre,official,15.347657,-61.392618,DM-10,,
-1352089,-1946663,hypsographic,"Bois d’Inde","Bois d'Inde",official,15.231959,-61.318682,DM-09,,
-1352207,-1946825,hydrographic,"Hermitage Bay","Hermitage Bay",official,15.620219,-61.466439,DM-05,,
-1352353,-1947021,administrative_region,"Saint John","Saint John",official,15.583333,-61.45,DM-05,,
-1352276,-1946922,spot,"Moore Park Estate","Moore Park Estate",official,15.595675,-61.418713,DM-02,,
-1352327,-1946986,hydrographic,"Prince Rupert Bay","Prince Rupert Bay",official,15.563097,-61.464007,DM-05,,
-1352260,-1946896,hydrographic,"Marigot Bay","Marigot Bay",official,15.57122,-61.302647,DM-02,,
-1352224,-1946855,settlement,"La Plaine","La Plaine",official,15.32768,-61.247534,DM-09,,
-1352103,-1946905,hypsographic,"Cape Melville","Cape Melville",variant,15.638368,-61.458471,DM-05,,
-1352150,-1946752,settlement,"Dos D’Âne","Dos D'Ane",official,15.585156,-61.412709,DM-02,,
-1352081,-1946654,hydrographic,"River Bibiay","River Bibiay",official,15.346015,-61.249276,DM-03,,
-1352345,-1947011,hydrographic,"Roseau River","Roseau River",official,15.299081,-61.390754,DM-04,,
-1352193,-1946803,hydrographic,"Grand Bay","Grand Bay",official,15.24165,-61.305142,DM-09,,
-1352079,-1946652,settlement,Bense,Bense,official,15.587713,-61.375584,DM-02,,
-1352052,-1946616,hydrographic,"Anse Du Mé River","Anse Du Me River",official,15.593473,-61.377644,DM-02,,
-1352187,20082321,hydrographic,"Good Hope","Good Hope",official,15.407974,-61.253195,DM-03,,
-1352269,-1946910,hydrographic,"Melville Hall River","Melville Hall River",official,15.548094,-61.2925,DM-02,,
-1352364,20082290,hydrographic,Salée,Salee,official,15.593738,-61.34641,DM-02,,
-1352403,-1947083,hypsographic,"Morne Trois Pitons","Morne Trois Pitons",official,15.368613,-61.325046,DM-000,,
-1352104,-1946687,settlement,Capucin,Capucin,official,15.630709,-61.461241,DM-05,,
-1352133,-1946832,hydrographic,"Isulukati River","Isulukati River",variant,15.502322,-61.258259,DM-03,,
-1352326,-1946985,settlement,"Potters Ville","Potters Ville",variant,15.302433,-61.389583,DM-04,,
-1352357,-1947025,administrative_region,"Saint Luke","Saint Luke",official,15.266667,-61.383333,DM-07,,
-1352317,-1946976,hydrographic,"Plaisance Bay","Plaisance Bay",official,15.316208,-61.244592,DM-09,,
-1352054,-1947093,settlement,Warakal,Warakal,variant,15.515149,-61.262643,DM-03,,
-1352173,-1946778,hydrographic,"Anse Gabriel","Anse Gabriel",official,15.476469,-61.459995,DM-11,,
-1352375,-1947050,settlement,Sineku,Sineku,official,15.466317,-61.248249,DM-03,,
-1352253,20082307,hydrographic,Mamelabou,Mamelabou,official,15.590065,-61.33398,DM-02,,
-1352333,-1946995,hypsographic,"Pointe Reposoir","Pointe Reposoir",official,15.639821,-61.430639,DM-02,,
-1352302,-1946953,hydrographic,"Panto Hole Bay","Panto Hole Bay",official,15.542411,-61.280439,DM-02,,
-1352211,20082318,hydrographic,Jack,Jack,official,15.283263,-61.270387,DM-09,,
-1352211,-1946834,hydrographic,"River Jack","River Jack",official,15.283263,-61.270387,DM-09,,
-1352063,-1946634,settlement,Bassinville,Bassinville,official,15.433333,-61.366667,DM-06,,
-1352348,-1947014,settlement,"Saint Cyr","Saint Cyr",official,15.490252,-61.25353,DM-03,,
-1352090,-1946664,settlement,Bornes,Bornes,variant,15.579464,-61.420759,DM-05,,
-1352319,-1946856,settlement,"La Pointe","La Pointe",variant,15.262366,-61.376694,DM-07,,
-1352069,-1946642,hydrographic,"Belfast River","Belfast River",official,15.365275,-61.402598,DM-10,,
-1352102,-1946685,hypsographic,"Captain Scott Rock","Captain Scott Rock",short,15.533333,-61.283333,DM-02,,
-1352363,-1947031,hydrographic,"Saint Sauveur River","Saint Sauveur River",official,15.403671,-61.254348,DM-03,,
-1352251,-1946886,hydrographic,"Anse Maho","Anse Maho",official,15.478556,-61.245799,DM-03,,
-1352101,-1946682,spot,Canefield,Canefield,variant,15.333245,-61.389834,DM-10,,
-1352058,-1946622,hydrographic,"Anse Aywass","Anse Aywass",official,15.500334,-61.254194,DM-03,,
-1352210,-1946831,hydrographic,"Indian River","Indian River",official,15.570915,-61.456128,DM-05,,
-1352122,-1946846,settlement,Kulihao,Kulihao,variant,15.485639,-61.461918,DM-11,,
-1352250,20082309,hydrographic,Mahaut,Mahaut,official,15.474722,-61.247795,DM-03,,
-1352149,-1946744,administrative_region,"Colony of Dominica","Colony of Dominica",variant,15.433333,-61.35,DM-000,,
-1352404,18967800,hydrographic,"Trois Piton River","Trois Piton River",variant,15.326639,-61.335156,DM-04,,
-1352373,19575111,settlement,"Scotts Head","Scotts Head",official,15.212328,-61.366999,DM-08,,
-1352355,-1947023,settlement,"Saint Joseph","Saint Joseph",official,15.406428,-61.42414,DM-06,,
-1352363,20082291,hydrographic,"Saint Sauveur","Saint Sauveur",official,15.403671,-61.254348,DM-03,,
-1352240,-1946875,hydrographic,"Londonderry Bay","Londonderry Bay",official,15.554094,-61.294494,DM-02,,
-1352137,-1946727,hydrographic,"Delaford River","Delaford River",official,15.639481,-61.423436,DM-02,,
-1352376,-1947052,hydrographic,"Sophia Bay","Sophia Bay",official,15.567353,-61.300812,DM-02,,
-1352234,20082313,hydrographic,Layou,Layou,official,15.394704,-61.425327,DM-06,,
-1352287,18966443,hypsographic,"Pointe Mulatre","Pointe Mulatre",variant,15.280225,-61.253614,DM-09,,
-1352252,-1946887,hydrographic,"Malabuka River","Malabuka River",official,15.243725,-61.284447,DM-09,,
-1352134,-1946718,hypsographic,"Crampton Point","Crampton Point",variant,15.583428,-61.303655,DM-02,,
-1352406,-1947087,settlement,"Veille Case","Veille Case",variant,15.614179,-61.408231,DM-02,,
-1352259,-1946895,hydrographic,"Marigot Bay","Marigot Bay",official,15.54227,-61.286756,DM-02,,
-1352061,-1946625,hypsographic,"Morne Balvine","Morne Balvine",official,15.553842,-61.441831,DM-05,,
-1352103,-1946904,hypsographic,"Cape Melvill","Cape Melvill",variant,15.638368,-61.458471,DM-05,,
-1352220,20082316,hydrographic,Lagoon,Lagoon,official,15.511375,-61.467953,DM-11,,
-1352167,-1946770,hypsographic,"Pointe du Fort","Pointe du Fort",variant,15.499074,-61.252908,DM-03,,
-1352116,-1946700,settlement,Clifton,Clifton,official,15.623804,-61.462843,DM-05,,
-1352153,-1946755,hypsographic,"Douglas Point","Douglas Point",official,15.60676,-61.465555,DM-05,,
-1352324,-1946983,hypsographic,Porte-La-Fin,Porte-La-Fin,official,15.594467,-61.354108,DM-02,,
-1352393,-1947073,hydrographic,"Thibaud River","Thibaud River",official,15.600698,-61.395759,DM-02,,
-1352197,-1946806,hypsographic,"Grande Savanne","Grande Savanne",variant,15.433333,-61.466667,DM-06,,
-1352365,-1947037,settlement,Salybia,Salybia,official,15.493818,-61.257526,DM-03,,
-1352138,-1946728,settlement,Délices,Delices,official,15.287346,-61.266174,DM-09,,
-1352409,-1946784,settlement,Gillon,Gillon,variant,15.278218,-61.37139,DM-04,,
-1352399,-1947086,hydrographic,"Tweed River","Tweed River",variant,15.558055,-61.297707,DM-02,,
-1352417,20082278,hydrographic,"Woodford Hill","Woodford Hill",official,15.586236,-61.317762,DM-02,,
-1352083,20082342,hydrographic,Bioche,Bioche,official,15.508712,-61.467108,DM-11,,
-1352209,-1946827,spot,Hillsborough,Hillsborough,variant,15.397002,-61.41546,DM-06,,
-1352196,-1946809,hydrographic,"Grand Marigot Bay","Grand Marigot Bay",official,15.405782,-61.250644,DM-03,,
-1352119,-1946704,settlement,Cocoyer,Cocoyer,official,15.616767,-61.460352,DM-05,,
-1352199,-1946847,hypsographic,"Point Kusarawa","Point Kusarawa",variant,15.473885,-61.24511,DM-03,,
-1352271,20082303,hydrographic,Mero,Mero,official,15.416814,-61.428012,DM-06,,
-1352104,19575274,settlement,Capuchin,Capuchin,variant,15.630709,-61.461241,DM-05,,
-1352174,-1946779,settlement,Galion,Galion,official,15.223416,-61.357894,DM-08,,
-1352155,-1946757,hydrographic,"Dublanc River","Dublanc River",official,15.514145,-61.469306,DM-11,,
-1352370,20082288,hydrographic,Sarisari,Sarisari,official,15.338302,-61.24559,DM-09,,
-1352256,-1946892,hydrographic,"Marceau Bay","Marceau Bay",official,15.629676,-61.463787,DM-05,,
-1352112,-1946938,settlement,"New Town","New Town",variant,15.291883,-61.379314,DM-04,,
-1352253,-1946830,hydrographic,"Hodges River","Hodges River",variant,15.590065,-61.33398,DM-02,,
-1352080,-1946801,settlement,"Grand Baie","Grand Baie",variant,15.240273,-61.316886,DM-09,,
-1352111,-1946694,park,"Central Forest Reserve","Central Forest Reserve",official,15.452824,-61.32415,DM-000,,
-1352075,20082344,hydrographic,Bellibu,Bellibu,official,15.593794,-61.357728,DM-02,,
-1352269,-1946842,hydrographic,"Kachibona River","Kachibona River",variant,15.548094,-61.2925,DM-02,,
-1352069,20082347,hydrographic,Belfast,Belfast,official,15.365275,-61.402598,DM-10,,
-1352384,-1947064,hypsographic,"Pointe Tanama","Pointe Tanama",official,15.228898,-61.314791,DM-09,,
-1352121,-1946706,hypsographic,"Morne Cola Anglais","Morne Cola Anglais",official,15.355672,-61.366985,DM-10,,
-1352068,-1946641,hypsographic,"Pointe Belair","Pointe Belair",official,15.491801,-61.248607,DM-03,,
-1352131,-1946717,hydrographic,"Anse Crainte","Anse Crainte",official,15.615477,-61.466778,DM-05,,
-1352296,18966131,hydrographic,"River Quayaneri","River Quayaneri",variant,15.342276,-61.246922,DM-000,,
-1352091,-1946665,hydrographic,"Anse Bouleau","Anse Bouleau",official,15.469147,-61.457766,DM-11,,
-1352160,-1946763,hypsographic,"Morne Espagnol","Morne Espagnol",official,15.525078,-61.470963,DM-11,,
-1352199,-1946848,hypsographic,"Pointe Kusarawa","Pointe Kusarawa",variant,15.473885,-61.24511,DM-03,,
-1352370,18967850,hydrographic,"Sarisari River","Sarisari River",variant,15.338302,-61.24559,DM-09,,
-1352300,-1946951,settlement,"Paix Bouche","Paix Bouche",official,15.592484,-61.41133,DM-02,,
-1352295,20082301,hydrographic,North,North,official,15.577453,-61.457922,DM-05,,
-1352298,-1946949,hypsographic,"Pagua Pointe","Pagua Pointe",official,15.516589,-61.258732,DM-03,,
-1352059,-1946623,spot,"Badineau Estate","Badineau Estate",official,15.290021,-61.365632,DM-04,,
-1352378,-1946676,hydrographic,"Cachacrou Soufriere","Cachacrou Soufriere",variant,15.224875,-61.36353,DM-08,,
-1352145,-1946735,hypsographic,"Deux Jardins","Deux Jardins",official,15.386389,-61.405536,DM-10,,
-1352293,-1946941,hydrographic,"L’anse Noire","L'anse Noire",official,15.588501,-61.330308,DM-02,,
-1352054,18964890,settlement,Waraka,Waraka,variant,15.515149,-61.262643,DM-03,,
-1352268,-1946909,settlement,"Melville Hall Estate","Melville Hall Estate",variant,15.545258,-61.292222,DM-02,,
-1352093,-1946667,hydrographic,"Bout Sable Bay","Bout Sable Bay",official,15.348682,-61.248546,DM-03,,
-1352372,-1947046,hypsographic,"Scotts Head","Scotts Head",official,15.214332,-61.372937,DM-08,,
-1352215,-1946841,hypsographic,"Jenny Point","Jenny Point",official,15.466628,-61.242627,DM-03,,
-1352230,-1946863,settlement,"La Source","La Source",official,15.58788,-61.405737,DM-02,,
-1352415,-1947102,hydrographic,"Woodford Hill Bay","Woodford Hill Bay",official,15.587177,-61.319219,DM-02,,
-1352254,-1946890,hydrographic,"Mango Hole Bay","Mango Hole Bay",official,15.546259,-61.289969,DM-02,,
-1352050,-1946613,hydrographic,"Aboucha Bay","Aboucha Bay",variant,15.637593,-61.422017,DM-02,,
-1352412,-1946671,hypsographic,Cabrit,Cabrit,variant,15.586155,-61.476924,DM-05,,
-1352216,-1946843,hypsographic,"Kasayu Point","Kasayu Point",official,15.492564,-61.249089,DM-03,,
-1352395,-1947075,hydrographic,"Torité River","Torite River",official,15.6,-61.55,DM-05,,
-1352146,-1946736,hypsographic,"Morne au Diable","Morne au Diable",variant,15.612653,-61.435917,DM-000,,
-1352097,-1946677,settlement,Calibishi,Calibishi,variant,15.592967,-61.349008,DM-02,,
-1352269,20082304,hydrographic,"Melville Hall","Melville Hall",official,15.548094,-61.2925,DM-02,,
-1352053,20082351,hydrographic,Aouya,Aouya,official,15.619978,-61.408628,DM-02,,
-1352249,20082310,hydrographic,Mahaut,Mahaut,official,15.360574,-61.396817,DM-10,,
-1352303,-1946954,hypsographic,"Morne Patates","Morne Patates",official,15.226639,-61.355876,DM-08,,
-1352138,18966403,settlement,Delices,Delices,variant,15.287346,-61.266174,DM-09,,
-1352194,-1946807,hypsographic,"Grande Soufrière Hills","Grande Soufriere Hills",official,15.310431,-61.275672,DM-09,,
-1352082,-1946655,settlement,Bioche,Bioche,official,15.508952,-61.466832,DM-11,,
-1352171,-1946775,hypsographic,"Morne Fraser","Morne Fraser",official,15.452064,-61.277632,DM-03,,
-1352280,-1946741,settlement,Docteur,Docteur,variant,15.310797,-61.344601,DM-04,,
-1352219,-1946850,hydrographic,"Lagon River","Lagon River",official,15.580129,-61.458994,DM-05,,
-1352071,-1946644,hydrographic,"Belle Fille River","Belle Fille River",official,15.424911,-61.270497,DM-03,,
-1352051,19575279,settlement,"Anse de Mai","Anse de Mai",official,15.593113,-61.382777,DM-02,,
-1352077,-1946650,settlement,Belmanier,Belmanier,official,15.58867,-61.407249,DM-02,,
-1352110,-1946693,hydrographic,"Castle Bruce River","Castle Bruce River",official,15.431912,-61.255557,DM-03,,
-1352341,-1947006,hydrographic,"Rosalie Bay","Rosalie Bay",official,15.371197,-61.249053,DM-03,,
-1352368,20082289,hydrographic,Salisbury,Salisbury,official,15.433186,-61.436566,DM-06,,
-1352160,-1946627,hypsographic,"Barber’s Block","Barber's Block",variant,15.525078,-61.470963,DM-11,,
-1352354,-1947022,administrative_region,"Saint Joseph","Saint Joseph",official,15.433333,-61.433333,DM-06,,
-1352284,-1946930,settlement,Morpo,Morpo,official,15.426635,-61.255562,DM-03,,
-1352397,-1947077,hydrographic,"Toucari Bay","Toucari Bay",official,15.609907,-61.465555,DM-05,,
-1352252,20082308,hydrographic,Malabuka,Malabuka,official,15.243725,-61.284447,DM-09,,
-1352345,-1946993,hydrographic,"Queens River","Queens River",variant,15.299081,-61.390754,DM-04,,
-1352228,20082314,hydrographic,"La Ronde","La Ronde",official,15.318391,-61.245273,DM-09,,
-1352278,-1946924,hypsographic,"Morne Brandy Ridge","Morne Brandy Ridge",official,15.549842,-61.433891,DM-05,,
-1352181,-1946788,settlement,Giraudet,Giraudet,variant,15.288441,-61.348791,DM-04,,
-1352338,-1947001,settlement,Roger,Roger,official,15.339044,-61.388117,DM-10,,
-1352286,-1946932,hydrographic,"Anse Mulâtre","Anse Mulatre",official,15.505766,-61.468397,DM-11,,
-1352339,-1947003,hypsographic,"Point Ronde","Point Ronde",variant,15.538365,-61.478763,DM-05,,
-1352339,-1947002,hypsographic,"Rollo Head","Rollo Head",variant,15.538365,-61.478763,DM-05,,
-1352206,-1946824,spot,"Hatton Gardens","Hatton Gardens",variant,15.517946,-61.277218,DM-02,,
-1352143,-1946733,hypsographic,"Valley of Desolation","Valley of Desolation",official,15.314999,-61.296994,DM-09,,
-1352128,-1946713,hydrographic,"Coulibistri River","Coulibistri River",official,15.459846,-61.451833,DM-06,,
-1352159,20082326,hydrographic,Eden,Eden,official,15.579989,-61.305931,DM-02,,
-1352272,20082302,hydrographic,Micham,Micham,official,15.249329,-61.315315,DM-09,,
-1352219,20082317,hydrographic,Lagon,Lagon,official,15.580129,-61.458994,DM-05,,
-1352237,-1946872,hydrographic,"Anse à Liane","Anse a Liane",official,15.492096,-61.467582,DM-11,,
-1352233,-1946866,settlement,Layou,Layou,official,15.397,-61.42546,DM-06,,
-1352361,-1947029,administrative_region,"Saint Peter","Saint Peter",official,15.516667,-61.45,DM-11,,
-1352229,-1946862,hypsographic,"Pointe La Soie","Pointe La Soie",official,15.589414,-61.317266,DM-02,,
-1352149,-1946745,administrative_region,"Commonwealth of Dominica","Commonwealth of Dominica",official,15.433333,-61.35,DM-000,,
-1352169,-1946726,hypsographic,"Point De Fous","Point De Fous",variant,15.212531,-61.330676,DM-09,,
-1352306,-1946957,hydrographic,"Penton River","Penton River",official,15.592476,-61.360052,DM-02,,
-1352076,-1946649,settlement,Bells,Bells,official,15.422144,-61.339327,DM-06,,
-1352271,-1946912,hydrographic,"Mero River","Mero River",official,15.416814,-61.428012,DM-06,,
-1352199,-1946814,hypsographic,"Point Gros Rochers","Point Gros Rochers",variant,15.473885,-61.24511,DM-03,,
-1352336,-1946998,settlement,Riversdale,Riversdale,official,15.416667,-61.366667,DM-06,,
-1352142,-1946732,hypsographic,"Pointe Des Herbes","Pointe Des Herbes",official,15.519228,-61.259837,DM-03,,
-1352394,-1947074,settlement,Tobino,Tobino,official,15.614354,-61.405915,DM-02,,
-1352418,-1947105,hypsographic,"Point Zicac","Point Zicac",variant,15.428044,-61.249049,DM-03,,
-1352244,-1946879,hydrographic,"Macoucheri River","Macoucheri River",official,15.428154,-61.435965,DM-06,,
-1352360,-1947028,administrative_region,"Saint Paul","Saint Paul",official,15.35,-61.383333,DM-10,,
-1352290,-1946937,park,Newfoundland,Newfoundland,official,15.379747,-61.275513,DM-03,,
-1352051,-1946615,settlement,"Anse Du Mé","Anse Du Me",variant,15.593113,-61.382777,DM-02,,
-1352372,-1946674,hypsographic,"Cachacrou Head","Cachacrou Head",variant,15.214332,-61.372937,DM-08,,
-1352216,-1947051,hypsographic,"Pointe Sipiyo","Pointe Sipiyo",variant,15.492564,-61.249089,DM-03,,
-1352344,-1946695,settlement,"Charlotte Town","Charlotte Town",variant,15.3,-61.4,DM-04,,
-1352370,-1947039,hydrographic,"River Sarisari","River Sarisari",official,15.338302,-61.24559,DM-09,,
-1352086,20082340,hydrographic,Boeri,Boeri,official,15.330586,-61.395834,DM-10,,
-1352166,-1946769,hypsographic,"Pointe Fonsen","Pointe Fonsen",official,15.494316,-61.469013,DM-11,,
-1352406,-1946943,settlement,"Northern Loop","Northern Loop",variant,15.614179,-61.408231,DM-02,,
-1352126,-1946711,hydrographic,"Anse Coubari","Anse Coubari",official,15.496211,-61.470237,DM-11,,
-1352134,-1946722,hypsographic,"Pointe Crumpton","Pointe Crumpton",variant,15.583428,-61.303655,DM-02,,
-1352388,-1947068,hypsographic,"Tarou Point","Tarou Point",official,15.3805,-61.411807,DM-10,,
-1352198,-1946813,hypsographic,"Gros L’Ilet","Gros L'Ilet",official,15.493176,-61.245696,DM-03,,
-1352176,-1946781,settlement,Geneva,Geneva,official,15.245388,-61.316584,DM-09,,
-1352183,-1946791,hypsographic,"Glassé Point","Glasse Point",official,15.309191,-61.246696,DM-09,,
-1352149,-1946747,administrative_region,"State of Dominica","State of Dominica",variant,15.433333,-61.35,DM-000,,
-1352097,-1946678,settlement,Calibishie,Calibishie,official,15.592967,-61.349008,DM-02,,
-1352210,20082319,hydrographic,Indian,Indian,official,15.570915,-61.456128,DM-05,,
-1352090,19575553,settlement,Borne,Borne,official,15.579464,-61.420759,DM-05,,
-1352070,-1946643,hydrographic,"Anse Bell","Anse Bell",official,15.625117,-61.465244,DM-05,,
-1352231,-1946864,hydrographic,"La Taille Bay","La Taille Bay",official,15.587898,-61.326253,DM-02,,
-1352263,20082305,hydrographic,Massacre,Massacre,official,15.346726,-61.393123,DM-10,,
-1352319,-1946978,settlement,"Pointe Michel","Pointe Michel",official,15.262366,-61.376694,DM-07,,
-1352390,18967787,settlement,"Tete Morne","Tete Morne",variant,15.235449,-61.333957,DM-09,,
-1352194,-1946811,hypsographic,"Grand Soufrière Hills","Grand Soufriere Hills",variant,15.310431,-61.275672,DM-09,,
-1352123,20082333,hydrographic,Colihaut,Colihaut,official,15.484327,-61.463548,DM-11,,
-1352372,-1946675,hypsographic,"Cachacrou Souffrière","Cachacrou Souffriere",variant,15.214332,-61.372937,DM-08,,
-1352406,-1947088,settlement,"Vieille Case","Vieille Case",official,15.614179,-61.408231,DM-02,,
-1352074,-1946647,hydrographic,"Bell Hall River","Bell Hall River",official,15.59404,-61.462867,DM-05,,
-1352313,-1946970,hydrographic,"Petit Souffriere Bay","Petit Souffriere Bay",variant,15.387254,-61.247363,DM-03,,
-1352345,18967775,hydrographic,"Queen’s River","Queen's River",variant,15.299081,-61.390754,DM-04,,
-1352215,18966149,hypsographic,"L’Escalier Tete-chien","L'Escalier Tete-chien",variant,15.466628,-61.242627,DM-03,,
-1352362,-1947030,settlement,"Saint Sauveur","Saint Sauveur",official,15.40258,-61.2547,DM-03,,
-1352313,-1947054,hydrographic,"Souffriere Bay","Souffriere Bay",variant,15.387254,-61.247363,DM-03,,
-1352220,-1946851,hydrographic,"Lagoon River","Lagoon River",official,15.511375,-61.467953,DM-11,,
-1352404,-1947084,hydrographic,"Trois Pitons River","Trois Pitons River",official,15.326639,-61.335156,DM-04,,
-1352331,-1946992,hydrographic,"River Quanery","River Quanery",official,15.333333,-61.283333,DM-03,,
-1352323,18967784,settlement,"Pond Casse","Pond Casse",variant,15.380175,-61.343651,DM-10,,
-1352160,18966339,hypsographic,"Barbers Block","Barbers Block",variant,15.525078,-61.470963,DM-11,,
-1352113,20082335,hydrographic,"Check Hall","Check Hall",official,15.341997,-61.393134,DM-10,,
-1352108,20082337,hydrographic,Cario,Cario,official,15.546356,-61.47251,DM-05,,
-1352147,-1946740,hypsographic,"Morne Diablotins","Morne Diablotins",official,15.501048,-61.39643,DM-000,,
-1352291,-1946939,spot,"New Venture Estate","New Venture Estate",official,15.456635,-61.335645,DM-06,,
-1203904,-1769442,hypsographic,"Windward Islands","Windward Islands",colloquial,13.883333,-60.966667,S1-000,,
-1203233,-1767220,hypsographic,"Antilles Menores","Antilles Menores",variant,14.666667,-61.016667,S1-000,,
-1203233,-1768235,hypsographic,"Kleine Antillen","Kleine Antillen",variant,14.666667,-61.016667,S1-000,,
-1203233,-1768798,hypsographic,"Pequeñas Antillas","Pequenas Antillas",variant,14.666667,-61.016667,S1-000,,
-1203233,-1768849,hypsographic,"Petites Antilles","Petites Antilles",variant,14.666667,-61.016667,S1-000,,
-1203233,-1768455,hypsographic,"Lesser Antilles","Lesser Antilles",colloquial,14.666667,-61.016667,S1-000,,
54613,69299,hypsographic,Sugarloaf,Sugarloaf,short,15.570833,-61.454167,DM-000,,
14595060,18967809,hydrographic,"Boetica River","Boetica River",official,15.312199,-61.246087,DM-09,,
14595060,20083894,hydrographic,Boetica,Boetica,official,15.312199,-61.246087,DM-09,,
14594678,18967333,park,"Cabrits National Park","Cabrits National Park",official,15.58679,-61.471615,DM-02,,
14595051,18967799,settlement,Campbell,Campbell,official,15.375211,-61.372819,DM-10,,
14595074,18967846,settlement,Warner,Warner,official,15.392978,-61.393751,DM-10,,
14595049,18967797,settlement,"Grand Savane","Grand Savane",official,15.444912,-61.435183,DM-06,,
14595076,18967849,settlement,Picard,Picard,official,15.552811,-61.459387,DM-05,,
14595043,18967776,settlement,Eggleston,Eggleston,official,15.297845,-61.356875,DM-04,,
14595043,19633093,settlement,"Eggleston Estate","Eggleston Estate",variant,15.297845,-61.356875,DM-04,,
14595048,18967796,hydrographic,"Connor Bay","Connor Bay",official,15.637039,-61.46024,DM-05,,
14906122,19575114,settlement,Fortuné,Fortune,variant,15.291177,-61.376023,DM-04,,
14906120,19569159,hydrographic,"Ravine Sina","Ravine Sina",official,15.292453,-61.380824,DM-04,,
14906115,19569129,spot,"Princess Margaret Hospital","Princess Margaret Hospital",official,15.306307,-61.384227,DM-04,,
14906117,19569131,settlement,"Bath Estate","Bath Estate",official,15.302647,-61.377519,DM-04,,
14906143,19569162,hydrographic,"River Douce","River Douce",official,15.304085,-61.371104,DM-04,,
14906118,19569133,spot,"Lolot Estate","Lolot Estate",official,15.312347,-61.378973,DM-04,1,
14906121,19569160,hydrographic,"Ravine Melville","Ravine Melville",official,15.291474,-61.379523,DM-04,,
14906122,19569161,settlement,"Fortuné Estate","Fortune Estate",official,15.291177,-61.376023,DM-04,,
14906117,19569132,settlement,Lacoudrée,Lacoudree,variant,15.302647,-61.377519,DM-04,,
14906116,19569130,settlement,"Emsall Estate","Emsall Estate",official,15.302321,-61.373849,DM-04,,
14908915,19575623,settlement,"River Estate","River Estate",official,15.328493,-61.387319,DM-10,,
14908775,19575117,settlement,"Copt Hall","Copt Hall",variant,15.312987,-61.357563,DM-04,,
14908650,19574791,park,"Lindo Park","Lindo Park",official,15.304816,-61.385503,DM-04,,
14908774,19575116,settlement,"Stock Farm","Stock Farm",official,15.310174,-61.38484,DM-04,,
14908652,19574793,settlement,"Castle Comfort Estate","Castle Comfort Estate",official,15.284333,-61.370205,DM-04,,
14908782,19575126,settlement,Laronde,Laronde,official,15.319117,-61.247817,DM-09,,
14908648,19574788,park,"Windsor Park","Windsor Park",official,15.301856,-61.384447,DM-04,,
14908775,19644938,settlement,"Copt Hall Estate","Copt Hall Estate",official,15.312987,-61.357563,DM-04,,
14908652,19575113,settlement,"Castle Comfort","Castle Comfort",variant,15.284333,-61.370205,DM-04,,
14908773,19575115,settlement,"Kings Hill","Kings Hill",official,15.296849,-61.377895,DM-04,,
14908649,19574790,park,"Peebles Park","Peebles Park",official,15.296009,-61.386647,DM-04,,
14908752,19575144,settlement,"Bon Repos","Bon Repos",official,15.373594,-61.38572,DM-10,,
14908652,19574835,settlement,"Beaubois Estate","Beaubois Estate",variant,15.284333,-61.370205,DM-04,,
14908651,19574792,park,"Newtown Savannah","Newtown Savannah",official,15.294281,-61.383126,DM-04,,
14908776,19575118,settlement,"Wotten Waven","Wotten Waven",official,15.318221,-61.339122,DM-04,,
14926433,19620974,hydrographic,"Ravine Edwin","Ravine Edwin",official,15.295563,-61.374946,DM-04,,
14926432,19620953,hydrographic,"La Riviere Padu","La Riviere Padu",official,15.319449,-61.351958,DM-04,,
14926435,19620976,hydrographic,"Ravine Bernard","Ravine Bernard",official,15.337362,-61.392651,DM-10,,
14926429,19620950,settlement,"Fond Colé","Fond Cole",variant,15.316882,-61.38773,DM-04,,
14926431,19620952,hydrographic,"River Blanc","River Blanc",official,15.320081,-61.341322,DM-04,,
14926434,19620975,hydrographic,"Ravine Newland","Ravine Newland",official,15.335106,-61.393157,DM-10,,
14926430,19620951,hydrographic,"Ravine Coque","Ravine Coque",official,15.317822,-61.390767,DM-04,,
14926429,19620948,settlement,"Fond Colet","Fond Colet",official,15.316882,-61.38773,DM-04,,
14926436,19620977,hydrographic,"Ravine Giraud","Ravine Giraud",official,15.346341,-61.393099,DM-10,,
14931205,19632456,park,Battery,Battery,variant,15.295464,-61.372006,DM-04,,
14931204,19632455,spot,"Champfleury Estate","Champfleury Estate",official,15.294224,-61.367021,DM-04,,
14931466,19633095,spot,"Babillard Estate","Babillard Estate",official,15.301803,-61.351344,DM-04,,
14931212,19632473,spot,"Morne Desmoulins Estate","Morne Desmoulins Estate",official,15.2931,-61.369371,DM-04,,
14931464,19633092,spot,"Saint Mary Estate","Saint Mary Estate",official,15.295024,-61.350875,DM-04,,
14931465,19633094,spot,"Durham Estate","Durham Estate",official,15.294435,-61.345216,DM-04,,
14931205,19632472,park,"Adville Battery","Adville Battery",official,15.295464,-61.372006,DM-04,,
14931470,19633100,spot,"Everton Estate","Everton Estate",official,15.273195,-61.370488,DM-04,,
14931203,19632454,settlement,Citronnière,Citronniere,official,15.28919,-61.376985,DM-04,,
14931206,19632457,settlement,"Charlotte Valley","Charlotte Valley",official,15.293362,-61.378077,DM-04,,
14931211,19632471,park,"Morne Louis","Morne Louis",official,15.309309,-61.366947,DM-04,,
14931459,19633086,spot,"Gommier Létang Estate","Gommier Letang Estate",official,15.278696,-61.351965,DM-04,,
14931463,19633091,spot,"Ridgefield Estate","Ridgefield Estate",official,15.292201,-61.357947,DM-04,,
14931209,19632466,settlement,"Mount Saint Mary’s","Mount Saint Mary's",official,15.290634,-61.372903,DM-04,,
14931462,19633089,spot,"Morne Vrai Estate","Morne Vrai Estate",official,15.288311,-61.359615,DM-04,,
14931469,19633099,spot,"Là Haut Estate","La Haut Estate",official,15.278031,-61.366762,DM-04,,
14931207,19632458,settlement,"Saint Aromant Estate","Saint Aromant Estate",official,15.30666,-61.37376,DM-04,,
14931467,19633096,spot,"Glasgow Estate","Glasgow Estate",official,15.315624,-61.37086,DM-04,,
14931461,19633088,park,Cecilia,Cecilia,official,15.282341,-61.352831,DM-04,,
14931208,19632459,spot,"Stock Farm","Stock Farm",official,15.311509,-61.384107,DM-04,,
14931462,19633090,spot,"Corlet Estate","Corlet Estate",variant,15.288311,-61.359615,DM-04,,
14931210,19632469,spot,"Reigate Estate","Reigate Estate",official,15.30035,-61.370936,DM-04,,
14931460,19633087,spot,"Gommier Stewart Estate","Gommier Stewart Estate",official,15.28595,-61.356115,DM-04,,