wgdPlaceId,wgdId,type,name,fullName,nameType,latitude,longitude,administrationGroup,isHistorical,isCapital
10057527,10229857,hypsographic,"Loma Antoyo","Loma Antoyo",official,-11.97255,-75.37458,PE-JUN,,
10058126,10230456,settlement,Churco,Churco,official,-11.79257,-75.27183,PE-JUN,,
10060119,10232550,hydrographic,"Quebrada Inchic Cayan","Quebrada Inchic Cayan",official,-9.387309,-76.684326,PE-HUC,,
10059790,10232221,settlement,Auqui,Auqui,official,-9.455802,-76.998427,PE-ANC,,
10059541,10231972,hypsographic,"Cerro Torre Punta","Cerro Torre Punta",official,-9.444224,-76.511468,PE-HUC,,
10059619,10232050,hypsographic,"Cerro Ocococha","Cerro Ocococha",official,-9.039931,-76.843632,PE-HUC,,
10058325,10230655,settlement,"San Juán de Mataula","San Juan de Mataula",official,-11.92204,-75.35098,PE-JUN,,
10058096,10230426,settlement,"Dos de Mayo","Dos de Mayo",official,-11.84753,-75.28304,PE-JUN,,
10057606,10229936,hypsographic,"Cerro Urcuhuay","Cerro Urcuhuay",official,-11.983562,-75.167696,PE-JUN,,
10059421,10231852,hydrographic,"Laguna Parina","Laguna Parina",official,-9.195967,-76.824762,PE-ANC,,
10058010,10230340,settlement,Ancal,Ancal,official,-11.87783,-75.23321,PE-JUN,,
10058068,10230398,settlement,"San Antonio","San Antonio",official,-11.84389,-75.42539,PE-JUN,,
10057704,10230034,hypsographic,"Cerro Monterayoc","Cerro Monterayoc",official,-11.77876,-75.31101,PE-JUN,,
10058320,10230650,settlement,Chalhua,Chalhua,official,-11.55475,-75.11619,PE-JUN,,
10059524,10231955,hypsographic,"Cerro Antarraga","Cerro Antarraga",official,-9.38092,-76.83528,PE-HUC,,
10058352,10230682,settlement,Alameda,Alameda,official,-11.9105,-75.31842,PE-JUN,,
10060034,10232465,hydrographic,"Quebrada Perolcocha","Quebrada Perolcocha",official,-9.265002,-76.649338,PE-HUC,,
10059922,10232353,settlement,Cachi,Cachi,official,-9.329211,-76.921043,PE-ANC,,
10057579,10229909,hypsographic,"Cerro Tamias","Cerro Tamias",official,-11.628978,-75.264176,PE-JUN,,
10057753,10230083,hypsographic,"Cerro Sayhua","Cerro Sayhua",official,-11.701475,-75.155824,PE-JUN,,
10057479,10229809,hypsographic,"Nevado Panchamaco","Nevado Panchamaco",official,-11.777571,-75.101524,PE-JUN,,
10057355,10229685,hydrographic,"Quebrada Astillería","Quebrada Astilleria",official,-11.61694,-75.04416,PE-JUN,,
10059478,10231909,hydrographic,"Laguna Yurac Cocha","Laguna Yurac Cocha",official,-9.449937,-76.552421,PE-HUC,,
10057258,10229588,hydrographic,"Quebrada Livicocha","Quebrada Livicocha",official,-11.6608,-75.08608,PE-JUN,,
10057538,10229868,hypsographic,"Cerro Cristón","Cerro Criston",official,-11.91239,-75.43554,PE-JUN,,
10057210,10229540,hydrographic,"Quebrada Sillaloma","Quebrada Sillaloma",official,-11.65137,-75.30195,PE-JUN,,
10057781,10230111,hydrographic,"Laguna Cushurococha","Laguna Cushurococha",official,-11.7082,-75.05035,PE-JUN,,
10060054,10232485,hydrographic,"Quebrada Cayay","Quebrada Cayay",official,-9.149999,-76.659833,PE-HUC,,
10058390,10230720,settlement,Hijadero,Hijadero,official,-11.79522,-75.43191,PE-JUN,,
10058062,10230392,settlement,"Los Andes","Los Andes",official,-11.84681,-75.47146,PE-JUN,,
10057727,10230057,hypsographic,"Cerro Ventanilla","Cerro Ventanilla",official,-11.593582,-75.122786,PE-JUN,,
10057193,10229523,hydrographic,"Quebrada Uchallma","Quebrada Uchallma",official,-11.80208,-75.31537,PE-JUN,,
10059583,10232014,hypsographic,"Cerro Paracsha","Cerro Paracsha",official,-9.461465,-76.715843,PE-HUC,,
10057627,10229957,hypsographic,"Sicnahuanca Cerro","Sicnahuanca Cerro",official,-11.84336,-75.1975,PE-JUN,,
10059562,10231993,hypsographic,"Cerro Huaca Rumipunta","Cerro Huaca Rumipunta",official,-9.403675,-76.620901,PE-HUC,,
10059353,10231784,spot,"Zona Arqueológica Anco","Zona Arqueologica Anco",official,-9.374601,-76.68515,PE-HUC,,
10059691,10232122,hypsographic,"Cerro Cusicancha","Cerro Cusicancha",official,-9.205263,-76.709916,PE-HUC,,
10057429,10229759,hypsographic,"Cerro Saihua","Cerro Saihua",official,-11.814668,-75.067748,PE-JUN,,
10057891,10230221,hydrographic,"Laguna Yanacocha","Laguna Yanacocha",official,-11.62523,-75.42708,PE-JUN,,
10058186,10230516,settlement,Pusacpampa,Pusacpampa,official,-11.73995,-75.06858,PE-JUN,,
10057185,10229515,hydrographic,"Quebrada Tanquispata","Quebrada Tanquispata",official,-11.95312,-75.24627,PE-JUN,,
10060165,10232596,hydrographic,"Quebrada Taptash","Quebrada Taptash",official,-9.43346,-76.683879,PE-HUC,,
10059914,10232345,settlement,Recresh,Recresh,variant,-9.31008048,-76.98061913,PE-ANC,,
10057126,10229456,hydrographic,"Quebrada Aguila","Quebrada Aguila",official,-11.66087,-75.006758,PE-JUN,,
10057265,10229595,hydrographic,"Quebrada Malmamera","Quebrada Malmamera",official,-11.89426,-75.15849,PE-JUN,,
10059892,10232323,settlement,"Casa Cruz","Casa Cruz",official,-9.41469,-76.79875,PE-HUC,,
10059810,10232241,settlement,Escalón,Escalon,official,-9.497368,-76.852935,PE-HUC,,
10057783,10230113,hydrographic,"Laguna Verdecocha","Laguna Verdecocha",official,-11.69816,-75.0586,PE-JUN,,
10059383,10231814,park,Calero,Calero,official,-9.362736,-76.743675,PE-HUC,,
10057577,10229907,hypsographic,"Cerro Cacachurco","Cerro Cacachurco",official,-11.66259,-75.28967,PE-JUN,,
10058081,10230411,settlement,Shinca,Shinca,official,-11.84751,-75.35404,PE-JUN,,
10057561,10229891,hypsographic,"Cerro Derrumbo","Cerro Derrumbo",official,-11.53133,-75.27686,PE-JUN,,
10059849,10232280,settlement,"El Carmen","El Carmen",official,-9.310412,-76.936711,PE-ANC,,
10058195,10230525,settlement,Aichanlalaco,Aichanlalaco,official,-11.738286,-75.01455,PE-JUN,,
10057221,10229551,hydrographic,"Quebrada Quispatuna","Quebrada Quispatuna",official,-11.76105,-75.14058,PE-JUN,,
10059405,10231836,hydrographic,"Laguna Rancash","Laguna Rancash",official,-9.026586,-76.862291,PE-HUC,,
10060052,10232483,hydrographic,"Quebrada Shalaragra","Quebrada Shalaragra",official,-9.015726,-76.791921,PE-HUC,,
10058431,10230761,park,"Llama Corral","Llama Corral",official,-11.60441,-75.02469,PE-JUN,,
10059952,10232383,settlement,"Santa Rosa de Tingo","Santa Rosa de Tingo",variant,-9.36479524,-76.98068852,PE-ANC,,
10060169,10232600,hydrographic,"Quebrada Huagrish","Quebrada Huagrish",official,-9.415348,-76.784414,PE-HUC,,
10059703,10232134,hypsographic,"Cerro Chupi","Cerro Chupi",official,-9.246304,-76.774241,PE-HUC,,
10059601,10232032,hypsographic,"Cerro Chilía","Cerro Chilia",official,-9.103445,-76.918418,PE-ANC,,
10059442,10231873,hydrographic,"Laguna Mesacocha","Laguna Mesacocha",official,-9.269699,-76.833137,PE-ANC,,
10057445,10229775,hypsographic,"Cerro Mercé","Cerro Merce",official,-11.97322,-75.03872,PE-JUN,,
10059645,10232076,hypsographic,"Cerro Magra Punta","Cerro Magra Punta",official,-9.066823,-76.831058,PE-HUC,,
10057267,10229597,hydrographic,"Quebrada Mamallaynioc","Quebrada Mamallaynioc",official,-11.58989,-75.08909,PE-JUN,,
10057230,10229560,hydrographic,"Quebrada Pachacancha","Quebrada Pachacancha",official,-11.71513,-75.38601,PE-JUN,,
10057505,10229835,hypsographic,"Cerro Yauli","Cerro Yauli",official,-11.99822,-75.23096,PE-JUN,,
10059624,10232055,hypsographic,"Cerro Rangra","Cerro Rangra",official,-9.010637,-76.852832,PE-HUC,,
10060166,10232597,hydrographic,"Quebrada Jashgash","Quebrada Jashgash",official,-9.430871,-76.686404,PE-HUC,,
10060030,10232461,hydrographic,"Quebrada Aimamachay","Quebrada Aimamachay",official,-9.435494,-76.537945,PE-HUC,,
10058244,10230574,settlement,Chiapampa,Chiapampa,official,-11.64464,-75.11202,PE-JUN,,
10058417,10230747,park,"Mesa Corral","Mesa Corral",official,-11.8767,-75.46906,PE-JUN,,
10059361,10231792,park,"Santa Villacruz","Santa Villacruz",official,-9.218234,-76.869524,PE-ANC,,
10058372,10230702,settlement,Chulcan,Chulcan,official,-11.84369,-75.38639,PE-JUN,,
10058187,10230517,settlement,Uyacancha,Uyacancha,official,-11.74858,-75.07419,PE-JUN,,
10059599,10232030,hypsographic,"Loma Mancachallou","Loma Mancachallou",official,-9.130764,-76.949634,PE-ANC,,
10057562,10229892,hypsographic,"Cerro Sujuputo","Cerro Sujuputo",official,-11.52653,-75.29212,PE-JUN,,
10057399,10229729,hypsographic,"Cerro Capishpotrero","Cerro Capishpotrero",official,-11.58019,-75.42385,PE-JUN,,
10057679,10230009,hypsographic,"Cerro Misquiyacopata","Cerro Misquiyacopata",official,-11.68727,-75.47103,PE-JUN,,
10059812,10232243,settlement,"Pisco Marcán","Pisco Marcan",official,-9.464406,-76.826885,PE-HUC,,
10058146,10230476,settlement,"San Martín","San Martin",official,-11.78225,-75.43758,PE-JUN,,
10058089,10230419,settlement,"Barrio Tercero","Barrio Tercero",official,-11.85422,-75.29015,PE-JUN,,
10058398,10230728,park,Huamanpata,Huamanpata,official,-11.59935,-75.13599,PE-JUN,,
10059508,10231939,hypsographic,"Cerro Hualla Pincush","Cerro Hualla Pincush",official,-9.275585,-76.977416,PE-ANC,,
10059917,10232348,settlement,"La Merced","La Merced",official,-9.274052,-76.941308,PE-ANC,,
10058367,10230697,settlement,Chicchuy,Chicchuy,official,-11.84939,-75.44657,PE-JUN,,
10058198,10230528,settlement,Putac,Putac,official,-11.70075,-75.02543,PE-JUN,,
10057443,10229773,hypsographic,"Cerro Huaritanga","Cerro Huaritanga",official,-11.998196,-75.055078,PE-JUN,,
10057884,10230214,hydrographic,"Lagunas Morococha","Lagunas Morococha",official,-11.5782,-75.409565,PE-JUN,,
10057832,10230162,hydrographic,"Laguna Puricchampa","Laguna Puricchampa",official,-11.68366,-75.26593,PE-JUN,,
10470671,11005645,settlement,"San Miguel","San Miguel",official,-13.036213,-76.330587,PE-LIM,,
10876494,11867000,settlement,Shimbiluyco,Shimbiluyco,official,-7.10491,-76.365428,PE-SAM,,
10877055,11867091,settlement,MIramar,MIramar,official,-7.183343,-76.329944,PE-SAM,,
10877058,11867108,settlement,Pacasmayo,Pacasmayo,official,-7.140902,-76.524205,PE-SAM,,
10877060,11867131,settlement,"La Union","La Union",official,-7.159808,-76.512305,PE-SAM,,
10877061,11867132,settlement,Valparaiso,Valparaiso,official,-7.146295,-76.487541,PE-SAM,,
10877063,11867134,settlement,"Dos de Mayo","Dos de Mayo",official,-7.192726,-76.509758,PE-SAM,,
10877064,11867135,settlement,"San Juan","San Juan",official,-7.192699,-76.499332,PE-SAM,,
10877208,11867600,settlement,"Santa Isabel","Santa Isabel",official,-6.598838,-76.497942,PE-SAM,,
10877213,11867607,settlement,Tangarana,Tangarana,official,-6.676311,-76.403046,PE-SAM,,
10877275,11867672,settlement,Copacabana,Copacabana,official,-6.62878,-76.704649,PE-SAM,,
10877277,11867673,settlement,"Vista Alegre","Vista Alegre",official,-6.707887,-76.420235,PE-SAM,,
10877279,11867680,settlement,Florida,Florida,official,-6.741054,-76.436225,PE-SAM,,
10877280,11867683,settlement,"Dos de Mayo","Dos de Mayo",official,-6.608702,-76.341597,PE-SAM,,
10877281,11867685,settlement,"Las Pampas","Las Pampas",official,-6.60835,-76.317079,PE-SAM,,
10877282,11867687,settlement,"Puerto Lazo","Puerto Lazo",official,-6.585122,-76.305934,PE-SAM,,
10877283,11867691,settlement,Campesino,Campesino,official,-6.645614,-76.288871,PE-SAM,,
10877284,11867693,settlement,"Ugarte California","Ugarte California",variant,-6.651336,-76.286084,PE-SAM,,
10877284,15344901,settlement,Ugarte,Ugarte,official,-6.651336,-76.286084,PE-SAM,,
10877285,11867694,settlement,Chimbote,Chimbote,official,-6.672288,-76.280897,PE-SAM,,
10877286,11867695,settlement,"Puerto Peru","Puerto Peru",official,-6.670642,-76.257953,PE-SAM,,
10877287,11867696,settlement,"La Perla","La Perla",official,-6.680145,-76.258657,PE-SAM,,
10877340,11867937,settlement,"Yacu Toro","Yacu Toro",official,-6.736478,-76.270705,PE-SAM,,
10877341,11867938,settlement,"Monte Verde","Monte Verde",official,-6.757149,-76.248185,PE-SAM,,
10877446,17142456,hydrographic,"Rio Mishquiyacu","Rio Mishquiyacu",official,-6.763871,-76.291211,PE-SAM,,
10877446,11868324,hydrographic,"Rio Misquiyacu","Rio Misquiyacu",variant,-6.763871,-76.291211,PE-SAM,,
10877454,11869549,settlement,"Cedro Pampa","Cedro Pampa",official,-6.859862,-76.322442,PE-SAM,,
10877739,11869617,settlement,Shancapilla,Shancapilla,official,-6.574694,-76.174141,PE-SAM,,
10877740,11869619,settlement,Olaya,Olaya,official,-6.609808,-76.148274,PE-SAM,,
10877735,11869550,settlement,Barranquita,Barranquita,official,-6.890002,-76.310006,PE-SAM,,
10877736,11869611,settlement,Aipena,Aipena,variant,-6.951639,-76.2628,PE-SAM,,
10877736,17142462,settlement,Aypena,Aypena,official,-6.951639,-76.2628,PE-SAM,,
10877737,11869612,settlement,"Leoncio Prado","Leoncio Prado",official,-6.991594,-76.230022,PE-SAM,,
10877742,11869621,settlement,"Aguanana Muyuna","Aguanana Muyuna",official,-6.577042,-76.087003,PE-SAM,,
10877743,11869622,settlement,"Ramón Castilla","Ramon Castilla",official,-6.600659,-76.076131,PE-SAM,,
10877744,11869624,settlement,Pucayaca,Pucayaca,official,-6.585664,-76.041142,PE-SAM,,
10877745,11869625,settlement,"Santa Rosa","Santa Rosa",official,-6.572793,-76.051889,PE-SAM,,
10877746,11869626,settlement,Yanayoc,Yanayoc,official,-6.564421,-76.055013,PE-SAM,,
10877747,11869629,settlement,Shilcayo,Shilcayo,official,-6.560547,-76.069508,PE-SAM,,
10877748,11869630,settlement,Achinamiza,Achinamiza,official,-6.549675,-76.061636,PE-SAM,,
10877750,11869632,settlement,Chipeda,Chipeda,official,-6.56667,-76.027147,PE-SAM,,
10877751,11869633,settlement,Puyosirina,Puyosirina,official,-6.682433,-76.086362,PE-SAM,,
10877752,11869635,settlement,Trapiche,Trapiche,official,-6.981817,-76.4199,PE-SAM,,
10881489,11886713,settlement,Angamos,Angamos,official,-7.104666,-76.65001,PE-SAM,,
10881490,11886714,settlement,Pashaco,Pashaco,official,-7.108923,-76.64582,PE-SAM,,
10881491,11886715,settlement,Izango,Izango,official,-7.122767,-76.663017,PE-SAM,,
10881632,11887218,settlement,"La Unión","La Union",official,-7.037304,-76.694905,PE-SAM,,
10881757,11887275,settlement,Aguilar,Aguilar,official,-7.070373,-76.65239,PE-SAM,,
10881758,11887276,settlement,Requena,Requena,official,-7.07339,-76.64763,PE-SAM,,
10880914,11883437,settlement,"San Jorge","San Jorge",official,-6.752549,-76.679371,PE-SAM,,
10880955,11883440,settlement,Florida,Florida,official,-6.758425,-76.620605,PE-SAM,,
10880956,11883441,settlement,Libertad,Libertad,official,-6.788946,-76.642216,PE-SAM,,
10880957,11883444,settlement,Iman,Iman,official,-6.776813,-76.597289,PE-SAM,,
10880958,11883445,settlement,"Peña Negra","Pena Negra",official,-6.77469,-76.59386,PE-SAM,,
10880959,11883446,settlement,"Dos Unidos","Dos Unidos",official,-6.824963,-76.563735,PE-SAM,,
10880960,11883447,settlement,Berlin,Berlin,official,-6.860535,-76.568888,PE-SAM,,
10880961,11883448,settlement,"San Isidro","San Isidro",official,-6.901344,-76.569627,PE-SAM,,
10881433,11886512,settlement,"Las Malvinas","Las Malvinas",official,-7.19544,-76.73443,PE-SAM,,
10881434,11886519,settlement,Churra,Churra,official,-7.208576,-76.616522,PE-SAM,,
10881488,11886712,settlement,Rocafuerte,Rocafuerte,official,-7.101314,-76.636635,PE-SAM,,
10881476,11886525,settlement,"Nueva Leticia","Nueva Leticia",official,-7.223778,-76.621796,PE-SAM,,
10881477,11886528,settlement,Capirona,Capirona,official,-7.225019,-76.627535,PE-SAM,,
10881479,11886541,settlement,Limón,Limon,official,-7.050898,-76.54234,PE-SAM,,
10881480,11886542,settlement,Ledoy,Ledoy,official,-7.122225,-76.65061,PE-SAM,,
10881481,11886543,settlement,Pajarillo,Pajarillo,official,-7.17472,-76.687667,PE-SAM,,
10881483,11886545,settlement,Juñao,Junao,official,-7.213834,-76.719873,PE-SAM,,
10881484,11886546,settlement,"Bajo Juñao","Bajo Junao",official,-7.230789,-76.714131,PE-SAM,,
10881485,11886548,settlement,"Alto Juñao","Alto Junao",short,-7.25056,-76.691908,PE-SAM,,
10881486,11886550,settlement,"Costa Rica","Costa Rica",official,-7.264772,-76.677829,PE-SAM,,
10881487,11886711,settlement,Sangapilla,Sangapilla,official,-7.096989,-76.6304,PE-SAM,,
10881492,11886716,settlement,"Buena Esperanza","Buena Esperanza",official,-7.093939,-76.653564,PE-SAM,,
10881493,11886717,settlement,Trinidad,Trinidad,official,-7.096118,-76.65648,PE-SAM,,
10881494,11886718,settlement,"Santa Bárbara","Santa Barbara",official,-7.106007,-76.661139,PE-SAM,,
10881515,11886719,settlement,"San Martín","San Martin",official,-7.119621,-76.685917,PE-SAM,,
10881518,11886722,settlement,"Villa Prado","Villa Prado",official,-7.133677,-76.701258,PE-SAM,,
10881519,11886723,hydrographic,"Brazo del Río Huallaga","Brazo del Rio Huallaga",official,-7.094408,-76.630233,PE-SAM,,
10881520,11886724,hydrographic,"Quebrada Zanjaseca","Quebrada Zanjaseca",official,-7.13194,-76.705553,PE-SAM,,
10881568,11886726,hydrographic,"Quebrada Chaquishca","Quebrada Chaquishca",official,-7.151702,-76.724281,PE-SAM,,
10881569,11886835,hydrographic,"Quebrada Juanjuiycillo","Quebrada Juanjuiycillo",official,-7.183337,-76.728647,PE-SAM,,
10881570,11886836,hydrographic,"Quebrada Bombonaje","Quebrada Bombonaje",official,-7.180273,-76.734277,PE-SAM,,
10881571,11886837,hydrographic,"Quebrada Cangrejo","Quebrada Cangrejo",official,-7.202487,-76.735196,PE-SAM,,
10881572,11886838,hydrographic,"Quebrada Juñao","Quebrada Junao",official,-7.199269,-76.724281,PE-SAM,,
10881573,11886839,hydrographic,"Quebrada Angashyaquilla","Quebrada Angashyaquilla",official,-7.201867,-76.683661,PE-SAM,,
10881574,11886841,hydrographic,"Quebrada Shiruyco","Quebrada Shiruyco",official,-7.179331,-76.672136,PE-SAM,,
10881619,11887157,settlement,"Gran Bretaña","Gran Bretana",official,-7.139657,-76.640645,PE-SAM,,
10881620,11887158,settlement,Meseta,Meseta,official,-7.18958,-76.709574,PE-SAM,,
10881621,11887160,settlement,"Puerto Tarata","Puerto Tarata",official,-7.215968,-76.737187,PE-SAM,,
10881622,11887161,settlement,Vacaciprana,Vacaciprana,short,-7.161162,-76.673353,PE-SAM,,
10881623,11887163,hypsographic,"Cerro Shiuryco","Cerro Shiuryco",short,-7.215824,-76.638358,PE-SAM,,
10881625,11887167,settlement,"Las Palmeras","Las Palmeras",official,-7.114973,-76.506405,PE-SAM,,
10881626,11887168,settlement,"José Gálvez","Jose Galvez",official,-7.069636,-76.523937,PE-SAM,,
10881627,11887203,settlement,Cangrejillo,Cangrejillo,official,-7.015741,-76.707927,PE-SAM,,
10881628,11887214,settlement,"La Granja","La Granja",official,-7.025163,-76.702374,PE-SAM,,
10881629,11887215,settlement,"Nuevo Oriente","Nuevo Oriente",official,-7.028954,-76.697778,PE-SAM,,
10881630,11887216,settlement,Huayranga,Huayranga,official,-7.032133,-76.702527,PE-SAM,,
10881631,14973331,settlement,Vistoso,Vistoso,official,-7.036997,-76.705093,PE-SAM,,
10881631,11887217,settlement,Vistosos,Vistosos,variant,-7.036997,-76.705093,PE-SAM,,
10881633,11887219,settlement,Germania,Germania,official,-7.04167,-76.69525,PE-SAM,,
10881634,11887220,settlement,Oros,Oros,official,-7.044925,-76.710302,PE-SAM,,
10881715,11887221,settlement,"Los Alpes","Los Alpes",official,-7.047529,-76.706319,PE-SAM,,
10881716,11887224,settlement,"La Piedra","La Piedra",official,-7.049225,-76.695457,PE-SAM,,
10881717,11887225,settlement,España,Espana,official,-7.057564,-76.705821,PE-SAM,,
10881718,11887227,settlement,Berlín,Berlin,official,-7.059287,-76.714476,PE-SAM,,
10881719,11887229,settlement,Urito,Urito,official,-7.055496,-76.718842,PE-SAM,,
10881720,11887230,settlement,Parcoy,Parcoy,official,-7.054385,-76.717846,PE-SAM,,
10881721,11887232,settlement,Filadelfia,Filadelfia,short,-7.050612,-76.721614,PE-SAM,,
10881722,11887233,settlement,Machacuy,Machacuy,official,-7.039132,-76.640859,PE-SAM,,
10881723,11887234,settlement,"Aumento Machacuy","Aumento Machacuy",official,-7.039467,-76.631104,PE-SAM,,
10881724,11887235,hypsographic,"Cerro Machacuy","Cerro Machacuy",short,-7.030914,-76.658653,PE-SAM,,
10881725,11887236,settlement,Libertad,Libertad,official,-7.072012,-76.690732,PE-SAM,,
10881726,11887237,settlement,Gallito,Gallito,official,-7.067796,-76.684212,PE-SAM,,
10881727,11887238,settlement,"Puerto Meliosilvo","Puerto Meliosilvo",official,-7.0692,-76.670894,PE-SAM,,
10881728,11887239,settlement,Tinguillo,Tinguillo,official,-7.064775,-76.664089,PE-SAM,,
10881729,11887240,settlement,Shimbillo,Shimbillo,official,-7.060585,-76.653429,PE-SAM,,
10881730,11887241,hypsographic,"Cerro Frontera","Cerro Frontera",official,-7.038519,-76.684392,PE-SAM,,
10881731,11887242,settlement,"Dos de Mayo","Dos de Mayo",official,-7.053144,-76.560877,PE-SAM,,
10881732,11887246,settlement,Llocllada,Llocllada,official,-7.057267,-76.560073,PE-SAM,,
10881733,11887248,settlement,Nauta,Nauta,official,-7.059278,-76.550754,PE-SAM,,
10881734,11887250,settlement,Raudal,Raudal,official,-7.043959,-76.522529,PE-SAM,,
10881735,11887251,settlement,Algarrobo,Algarrobo,official,-7.039299,-76.535737,PE-SAM,,
10881736,11887252,settlement,Valencia,Valencia,official,-7.037749,-76.567483,PE-SAM,,
10881737,11887253,settlement,Baños,Banos,official,-7.035578,-76.580253,PE-SAM,,
10881738,11887255,settlement,"La Cabaña","La Cabana",official,-7.040271,-76.556218,PE-SAM,,
10881740,11887256,settlement,Misquiyacu,Misquiyacu,short,-7.015757,-76.586219,PE-SAM,,
10881741,11887258,settlement,Siambal,Siambal,official,-7.016572,-76.599661,PE-SAM,,
10881745,11887264,settlement,Mosquito,Mosquito,official,-7.057334,-76.616456,PE-SAM,,
10881746,11887266,settlement,Intiyacu,Intiyacu,official,-7.062764,-76.597885,PE-SAM,,
10881752,11887270,settlement,Atlantico,Atlantico,official,-7.076039,-76.637976,PE-SAM,,
10881755,11887273,hypsographic,"Cerro Anterro","Cerro Anterro",variant,-7.09096,-76.714246,PE-SAM,,
10881755,14973323,hypsographic,"Cerro Antero","Cerro Antero",official,-7.09096,-76.714246,PE-SAM,,
10881756,11887274,settlement,Yanshama,Yanshama,official,-7.068813,-76.695008,PE-SAM,,
10881759,11887277,settlement,"Santa Teresa","Santa Teresa",official,-7.077614,-76.644278,PE-SAM,,
10881760,11887278,settlement,"El Cruce","El Cruce",official,-7.083547,-76.639418,PE-SAM,,
10881761,14973330,settlement,"Eli Golan","Eli Golan",variant,-7.084888,-76.645552,PE-SAM,,
10881761,11887280,settlement,"El Golán","El Golan",official,-7.084888,-76.645552,PE-SAM,,
10881762,11887282,settlement,Acomayo,Acomayo,official,-7.090821,-76.6482,PE-SAM,,
10881763,11887283,settlement,"Santa Isabel","Santa Isabel",official,-7.075603,-76.663419,PE-SAM,,
10881764,11887284,settlement,Delicia,Delicia,official,-7.07599,-76.674523,PE-SAM,,
10881765,11887285,settlement,Bombonaje,Bombonaje,official,-7.067915,-76.690702,PE-SAM,,
10881766,11887286,settlement,"El Triunfo","El Triunfo",official,-7.046892,-76.688698,PE-SAM,,
10881767,11887287,settlement,"Santa Rosa","Santa Rosa",official,-7.071007,-76.727498,PE-SAM,,
10881768,11887288,settlement,"Las Palmas","Las Palmas",official,-7.070815,-76.720719,PE-SAM,,
10881769,11887289,settlement,"Nuevo Ambiente","Nuevo Ambiente",official,-7.073343,-76.73106,PE-SAM,,
10881770,11887290,settlement,"San Marcos","San Marcos",official,-7.078705,-76.742549,PE-SAM,,
10881771,11887311,settlement,"Cerro Ríoblanco","Cerro Rioblanco",official,-7.147106,-76.747413,PE-SAM,,
10881772,11887312,settlement,Juanjuiycillo,Juanjuiycillo,official,-7.179316,-76.734545,PE-SAM,,
10881773,11887313,settlement,Cangrejo,Cangrejo,official,-7.198465,-76.739447,PE-SAM,,
10881774,11887314,settlement,"Santa Cruz","Santa Cruz",official,-7.203482,-76.737264,PE-SAM,,
10881795,11887315,settlement,Huamor,Huamor,official,-7.205627,-76.730485,PE-SAM,,
10881796,11887316,settlement,"San José de Juñao","San Jose de Junao",short,-7.210486,-76.718216,PE-SAM,,
10881797,11887317,settlement,Richoja,Richoja,official,-7.146494,-76.702374,PE-SAM,,
10881798,11887318,settlement,"La Esperanza","La Esperanza",official,-7.057401,-76.610623,PE-SAM,,
10881801,11887324,settlement,"Dos Unidos","Dos Unidos",official,-7.177004,-76.515255,PE-SAM,,
10883003,11889511,settlement,"San Nicolás","San Nicolas",official,-6.552109,-76.677496,PE-SAM,,
10882998,11888486,settlement,"San Pedro","San Pedro",official,-6.665114,-76.683812,PE-SAM,,
10882999,11888487,settlement,Recreo,Recreo,official,-6.616946,-76.698077,PE-SAM,,
10883000,11888488,settlement,"Vista Alegre","Vista Alegre",official,-6.693986,-76.68668,PE-SAM,,
10883001,11888489,settlement,"Señorita Rosillo","Senorita Rosillo",official,-6.645611,-76.681135,PE-SAM,,
10883002,11888490,settlement,"Santa Rita","Santa Rita",official,-6.537579,-76.687636,PE-SAM,,
10883004,11889512,settlement,Shatoja,Shatoja,official,-6.523776,-76.717475,PE-SAM,,
10883008,11889518,settlement,Barranquita,Barranquita,official,-6.733676,-76.592767,PE-SAM,,
10883009,16833244,settlement,"Santa Marta","Santa Marta",official,-6.668597,-76.620196,PE-SAM,,
10883009,11889520,settlement,"Santa Maria","Santa Maria",variant,-6.668597,-76.620196,PE-SAM,,
10883010,11889521,settlement,"Vista Alegre","Vista Alegre",official,-6.709665,-76.620523,PE-SAM,,
10883011,11889522,settlement,"Centro América","Centro America",official,-6.889357,-76.569712,PE-SAM,,
10883012,11889523,settlement,Peruarte,Peruarte,official,-6.937963,-76.554,PE-SAM,,
10883012,16749721,settlement,Peruate,Peruate,variant,-6.937963,-76.554,PE-SAM,,
10883013,11889525,settlement,Pasaraya,Pasaraya,official,-6.765395,-76.814637,PE-SAM,,
10883014,11889526,settlement,"San Regis","San Regis",short,-6.86432,-76.805062,PE-SAM,,
10883411,11890967,hypsographic,"Cordillera Ayu Mayo","Cordillera Ayu Mayo",short,-6.533424,-76.657978,PE-SAM,,
10883412,11891333,settlement,Divisoria,Divisoria,official,-7.067751,-76.720489,PE-SAM,,
10883413,11891711,settlement,Porvenir,Porvenir,official,-7.051173,-76.571416,PE-SAM,,
10883866,11891762,settlement,"Tingo de Ponasa","Tingo de Ponasa",official,-6.932368,-76.25212,PE-SAM,,
11402758,13448308,administrative_region,"Lima Metropolitana","Lima Metropolitana",variant,-12.033333,-76.916667,PE-LMA,,
11402758,13502609,administrative_region,"Lima Llaqta Suyu","Lima Llaqta Suyu",variant,-12.033333,-76.916667,PE-LMA,,
11402758,13502608,administrative_region,"Lima Hatun Llaqta","Lima Hatun Llaqta",variant,-12.033333,-76.916667,PE-LMA,,
11402758,13448309,administrative_region,"Municipalidad Metropolitana de Lima","Municipalidad Metropolitana de Lima",variant,-12.033333,-76.916667,PE-LMA,,
11402758,13448307,administrative_region,"Provincia de Lima","Provincia de Lima",official,-12.033333,-76.916667,PE-LMA,,
11402758,13448310,administrative_region,Lima,Lima,official,-12.033333,-76.916667,PE-LMA,,
11456946,13559727,hydrographic,"Ensenada Lobos","Ensenada Lobos",official,-9.164924,-78.594722,PE-ANC,,
11644912,13981933,settlement,"Hacienda Cochas","Hacienda Cochas",variant,-11.973034,-75.806686,PE-JUN,,
11644912,13979902,settlement,Cochas,Cochas,official,-11.973034,-75.806686,PE-JUN,,
11644913,13979903,settlement,Chacapalpa,Chacapalpa,official,-11.732785,-75.758181,PE-JUN,,
11644405,13978905,hydrographic,"Río Grande","Rio Grande",official,-15.033333,-69.333336,PE-PUN,,
11644911,13981851,settlement,Suitu-Cancha,Suitu-Cancha,variant,-11.78767,-75.936481,PE-JUN,,
11644911,13981850,settlement,Sintocancha,Sintocancha,variant,-11.78767,-75.936481,PE-JUN,,
11644405,13978908,hydrographic,Suches,Suches,variant,-15.033333,-69.333336,PE-PUN,,
11644911,13979901,settlement,Suitucancha,Suitucancha,official,-11.78767,-75.936481,PE-JUN,,
11644912,13981932,settlement,"Cochas Hacienda","Cochas Hacienda",variant,-11.973034,-75.806686,PE-JUN,,
11644913,13981934,settlement,Chacapalca,Chacapalca,variant,-11.732785,-75.758181,PE-JUN,,
-646388,14398665,hydrographic,"Rio Icá","Rio Ica",variant,-3.136977,-67.978178,S1-000,,
11867121,14473521,hypsographic,"Cerro Santa Ana","Cerro Santa Ana",official,-11.759037,-76.995679,PE-LIM,,
11867126,14473528,spot,"Cooperativa Agraria de Producción Tres Unidos","Cooperativa Agraria de Produccion Tres Unidos",official,-11.753684,-76.983225,PE-LIM,,
11867154,14473583,spot,"Cooperativa Agraria de Proddución María Parado de Bellido","Cooperativa Agraria de Prodducion Maria Parado de Bellido",official,-11.762873,-76.973372,PE-LIM,,
11867165,14473625,hypsographic,"Cerro Piedra Batán","Cerro Piedra Batan",official,-11.752247,-76.80326,PE-LIM,,
11867166,14473626,hypsographic,"Cerro Loma Grande","Cerro Loma Grande",official,-11.752459,-76.767993,PE-LIM,,
11867362,14473888,settlement,"Tupac Amaru","Tupac Amaru",official,-11.944616,-76.976472,PE-LIM,,
11867363,14473889,settlement,Caleras,Caleras,official,-11.937011,-76.987362,PE-LIM,,
11867328,14473630,hypsographic,"Cerro Cinco Corrales","Cerro Cinco Corrales",official,-11.77424,-76.888846,PE-LIM,,
11867330,14473812,hypsographic,"Cerro Veladero","Cerro Veladero",official,-11.772359,-76.907924,PE-LIM,,
11867332,14473813,hypsographic,"Cerro Conde","Cerro Conde",official,-11.780043,-76.995311,PE-LIM,,
11867335,14473818,settlement,Fraternidad,Fraternidad,official,-11.77734,-76.975173,PE-LIM,,
11867336,14473819,spot,"Fundo Casinelli","Fundo Casinelli",official,-11.784256,-76.977982,PE-LIM,,
11867338,14473820,hypsographic,"Cerro San Antonio","Cerro San Antonio",official,-11.788707,-76.947616,PE-LIM,,
11867339,14473823,hypsographic,"Cerro Totorita","Cerro Totorita",official,-11.791596,-76.888713,PE-LIM,,
11867340,14473824,settlement,Huaycoloro,Huaycoloro,official,-11.789714,-76.800001,PE-LIM,,
11867347,14473830,hypsographic,"Cerro Champacara","Cerro Champacara",official,-11.77946,-76.761474,PE-LIM,,
11867348,14473831,spot,"Fundo Carmelito","Fundo Carmelito",official,-11.816556,-76.990754,PE-LIM,,
11867349,14473872,settlement,"La Campana","La Campana",official,-11.825353,-76.989535,PE-LIM,,
11867350,14473873,settlement,Punchauca,Punchauca,official,-11.830573,-76.997775,PE-LIM,,
11867351,14473875,hypsographic,"Cerro Campana","Cerro Campana",official,-11.829566,-76.934315,PE-LIM,,
11867352,14473876,hypsographic,"Pampas de Pampay","Pampas de Pampay",official,-11.822147,-76.867039,PE-LIM,,
11867353,14473877,hypsographic,"Cerro Pampa Grande","Cerro Pampa Grande",official,-11.824187,-76.755698,PE-LIM,,
11867354,14473878,hypsographic,"Cerro Silencio","Cerro Silencio",official,-11.841543,-76.760997,PE-LIM,,
11867356,14473881,settlement,Blanca,Blanca,official,-11.846895,-76.994649,PE-LIM,,
11867357,14473882,spot,"Señal Cerro Colorado Norte","Senal Cerro Colorado Norte",official,-11.868702,-76.89608,PE-LIM,,
11867358,14473883,spot,"Señal Canteria","Senal Canteria",official,-11.872995,-76.963806,PE-LIM,,
11867360,14473886,hypsographic,"Cerros de Huampani","Cerros de Huampani",official,-11.939953,-76.757951,PE-LIM,,
11867361,14473887,settlement,Montenegro,Montenegro,official,-11.931686,-76.966006,PE-LIM,,
11867364,14473890,settlement,Bayovar,Bayovar,official,-11.958607,-76.997484,PE-LIM,,
11867367,14473895,spot,"Señal Santa Maria","Senal Santa Maria",official,-11.938442,-76.929599,PE-LIM,,
11867388,14473896,spot,"Señal Camote Sur","Senal Camote Sur",official,-11.952327,-76.918152,PE-LIM,,
11867390,14473899,spot,"Señal Mata Buey","Senal Mata Buey",official,-11.96282,-76.850902,PE-LIM,,
11867391,14473900,hypsographic,"Cerro La Parra","Cerro La Parra",official,-11.955506,-76.844702,PE-LIM,,
11867392,14473901,hypsographic,"Cerro Algarrobo","Cerro Algarrobo",official,-11.962396,-76.823928,PE-LIM,,
11867393,14473902,settlement,"San Alberto","San Alberto",official,-11.963615,-76.752969,PE-LIM,,
11867394,14473903,settlement,"Santa Inés","Santa Ines",official,-11.971405,-76.75864,PE-LIM,,
11867395,14473904,settlement,"Alfonso Cobran","Alfonso Cobran",official,-11.982533,-76.805539,PE-LIM,,
11867396,14473905,spot,"Fundo Caraponguillo","Fundo Caraponguillo",official,-11.991648,-76.852227,PE-LIM,,
11867398,14473907,spot,"Señal Cota","Senal Cota",official,-11.98778,-76.882381,PE-LIM,,
11867399,14473908,settlement,Chambal,Chambal,official,-11.998008,-76.905116,PE-LIM,,
11867400,14473909,spot,"Señal Ventana","Senal Ventana",official,-11.989211,-76.964999,PE-LIM,,
11867401,14473910,settlement,"El Triunfo","El Triunfo",official,-11.980573,-76.953261,PE-LIM,,
11867402,14473911,settlement,"Juan Pablo II","Juan Pablo II",official,-11.976916,-76.97989,PE-LIM,,
11867403,14473972,spot,"Centro Penitenciario Miguel Castro Castro","Centro Penitenciario Miguel Castro Castro",official,-11.980599,-76.987495,PE-LIM,,
11867404,14473973,spot,"Centro Penitenciario San Pedro","Centro Penitenciario San Pedro",official,-11.989184,-76.994199,PE-LIM,,
11867405,14473974,settlement,Jicamarca,Jicamarca,official,-11.97008,-76.936435,PE-LIM,,
11867406,14473975,settlement,"Sector Oeste","Sector Oeste",official,-11.975724,-76.945259,PE-LIM,,
11867407,14473976,hypsographic,"Cerro Sauce","Cerro Sauce",official,-11.992099,-76.983914,PE-LIM,,
11867448,14473977,hypsographic,"Cerros de Chaclacayo","Cerros de Chaclacayo",official,-11.997251,-76.749995,PE-LIM,,
11867448,14524392,hypsographic,"Cerro Chaclacayo","Cerro Chaclacayo",variant,-11.997251,-76.749995,PE-LIM,,
11867449,14473978,park,"El Cuadro","El Cuadro",official,-11.989927,-76.790591,PE-LIM,,
11867450,14473979,hydrographic,"Quebrada Carachoso","Quebrada Carachoso",official,-11.780308,-76.781794,PE-LIM,,
11867451,14473980,hydrographic,"Quebrada Tambo Pardo","Quebrada Tambo Pardo",official,-11.785396,-76.78455,PE-LIM,,
11867452,14473981,hydrographic,"Quebrada Nahuimpuquio","Quebrada Nahuimpuquio",official,-11.793663,-76.795467,PE-LIM,,
11867456,14478402,hypsographic,"Quebrada Caballero","Quebrada Caballero",variant,-11.78317,-76.957205,PE-LIM,,
11867456,14473986,hypsographic,"Quebrada Río Seco","Quebrada Rio Seco",official,-11.78317,-76.957205,PE-LIM,,
11867459,14474012,hypsographic,"Quebrada Campana","Quebrada Campana",official,-11.793947,-76.96054,PE-LIM,,
11867460,14474013,hypsographic,"Quebrada de Pampay","Quebrada de Pampay",official,-11.790926,-76.941174,PE-LIM,,
11867462,14474016,hypsographic,"Quebrada Carnero","Quebrada Carnero",official,-11.797345,-76.940365,PE-LIM,,
11867465,14474021,hydrographic,"Quebrada Mito Dulce","Quebrada Mito Dulce",official,-11.809374,-76.887826,PE-LIM,,
11867466,14474022,hydrographic,"Quebrada Batán","Quebrada Batan",official,-11.82027,-76.818673,PE-LIM,,
11867467,14474023,hydrographic,"Quebrada Agua Salada","Quebrada Agua Salada",official,-11.82437,-76.814088,PE-LIM,,
11867469,14474026,hydrographic,"Quebrada Blanca","Quebrada Blanca",official,-11.89881,-76.757071,PE-LIM,,
11867470,14474027,hypsographic,"Quebrada Silencio","Quebrada Silencio",official,-11.929125,-76.840088,PE-LIM,,
11867471,14474028,hypsographic,"Quebrada Vizcachera","Quebrada Vizcachera",official,-11.963432,-76.792241,PE-LIM,,
11867472,14474029,hydrographic,"Quebrada La Laguna","Quebrada La Laguna",official,-11.985332,-76.840034,PE-LIM,,
11867473,14474030,settlement,"Villa Leticia","Villa Leticia",official,-11.984469,-76.896888,PE-LIM,,
11867474,14474031,hydrographic,"Quebrada El Progreso","Quebrada El Progreso",official,-11.877287,-76.990747,PE-LIM,,
11867475,14474052,hypsographic,"Quebrada Torre Blanca","Quebrada Torre Blanca",official,-11.845731,-76.990154,PE-LIM,,
11867476,14474053,hydrographic,"Quebrada Carmelito","Quebrada Carmelito",official,-11.822752,-76.991772,PE-LIM,,
11867477,14474054,spot,"Ruinas Trujillo","Ruinas Trujillo",official,-11.998845,-76.912316,PE-LIM,,
11868672,14475795,hypsographic,"Cerro Cayrachin","Cerro Cayrachin",official,-11.742757,-76.518018,PE-LIM,,
11868673,14475796,hypsographic,"Cerro Yanapaccha","Cerro Yanapaccha",official,-11.732107,-76.514557,PE-LIM,,
11868675,14475798,hypsographic,"Cerro Chucuhuasi","Cerro Chucuhuasi",official,-11.738996,-76.558053,PE-LIM,,
11868679,14475808,settlement,Garbanzopata,Garbanzopata,official,-11.552666,-76.505638,PE-LIM,,
11868680,14476133,settlement,Chinchilcay,Chinchilcay,official,-11.504046,-76.577421,PE-LIM,,
11868681,14476134,hypsographic,"Cerro Pauca Alto","Cerro Pauca Alto",official,-11.507307,-76.601748,PE-LIM,,
11868990,14476235,hypsographic,"Cerro Chacra Mito","Cerro Chacra Mito",official,-11.504212,-76.551663,PE-LIM,,
11868968,14476152,settlement,Retama,Retama,official,-11.507207,-76.673432,PE-LIM,,
11868969,14476153,settlement,Pirahuanca,Pirahuanca,official,-11.510735,-76.692966,PE-LIM,,
11868970,14476154,settlement,Concuy,Concuy,official,-11.505876,-76.663348,PE-LIM,,
11868971,14476155,settlement,Vallecito,Vallecito,official,-11.502981,-76.668839,PE-LIM,,
11868972,14476156,settlement,"San Miguel","San Miguel",official,-11.505676,-76.669837,PE-LIM,,
11868973,14476157,park,Pasna,Pasna,official,-11.51333,-76.664579,PE-LIM,,
11868974,14476159,settlement,Pacaybamba,Pacaybamba,official,-11.51586,-76.680653,PE-LIM,,
11868975,14476160,settlement,Lucma,Lucma,official,-11.517524,-76.713533,PE-LIM,,
11868976,14476161,hypsographic,"Cerro Tauripunco","Cerro Tauripunco",official,-11.500748,-76.699044,PE-LIM,,
11868977,14476162,settlement,Chupa,Chupa,official,-11.520086,-76.718325,PE-LIM,,
11868978,14476163,hypsographic,"Cerro Puromarca","Cerro Puromarca",official,-11.505943,-76.722751,PE-LIM,,
11868979,14476164,settlement,Huaripa,Huaripa,official,-11.514129,-76.72984,PE-LIM,,
11868980,14476165,settlement,Lancha,Lancha,official,-11.520386,-76.732369,PE-LIM,,
11868981,14476166,spot,"Mina Benedicha-Aropampa","Mina Benedicha-Aropampa",official,-11.524313,-76.72741,PE-LIM,,
11868982,14476167,settlement,Callpacocha,Callpacocha,official,-11.520885,-76.748709,PE-LIM,,
11868983,14476168,park,Tupna,Tupna,official,-11.531368,-76.717227,PE-LIM,,
11868984,14476169,park,Huayupampa,Huayupampa,official,-11.530236,-76.739224,PE-LIM,,
11868985,14476170,settlement,Huayo,Huayo,official,-11.527374,-76.68052,PE-LIM,,
11868986,14476171,hypsographic,"Cerro San Cristóbal","Cerro San Cristobal",official,-11.523913,-76.638655,PE-LIM,,
11868987,14476232,hydrographic,"Laguna Azulcocha","Laguna Azulcocha",official,-11.509969,-76.566506,PE-LIM,,
11868988,14476233,hydrographic,"Laguna Barroza","Laguna Barroza",official,-11.500784,-76.5289,PE-LIM,,
11868989,14476234,hypsographic,"Cerro Colorado","Cerro Colorado",official,-11.507973,-76.527137,PE-LIM,,
11869042,14476368,settlement,Surca,Surca,official,-11.566344,-76.639087,PE-LIM,,
11868991,14476236,hydrographic,"Quebrada Jatumpata","Quebrada Jatumpata",official,-11.534596,-76.516787,PE-LIM,,
11868992,14476237,settlement,Yurgamito,Yurgamito,official,-11.53789,-76.514923,PE-LIM,,
11868993,14476238,hypsographic,"Loma Huishla","Loma Huishla",official,-11.519853,-76.506703,PE-LIM,,
11868994,14476239,hypsographic,"Cerro Ampatu","Cerro Ampatu",official,-11.527428,-76.540119,PE-LIM,,
11868995,14476240,hydrographic,"Laguna Huagurcancha","Laguna Huagurcancha",official,-11.534011,-76.528329,PE-LIM,,
11868996,14476241,settlement,Ampatu,Ampatu,official,-11.525211,-76.554991,PE-LIM,,
11868997,14476242,hydrographic,"Quebrada Fundición","Quebrada Fundicion",official,-11.523714,-76.5701,PE-LIM,,
11868998,14476243,hypsographic,"Cerro Sayhua","Cerro Sayhua",official,-11.532466,-76.576756,PE-LIM,,
11868999,14476244,hypsographic,"Cerro Huiracaca","Cerro Huiracaca",official,-11.547376,-76.568442,PE-LIM,,
11869001,14476247,settlement,Curicuto,Curicuto,official,-11.545079,-76.581082,PE-LIM,,
11869002,14476248,hypsographic,"Cerro Callanquiri","Cerro Callanquiri",official,-11.553731,-76.584244,PE-LIM,,
11869003,14476249,settlement,Cancaopucro,Cancaopucro,official,-11.532266,-76.607073,PE-LIM,,
11869004,14476250,settlement,Chacallpampa,Chacallpampa,official,-11.528173,-76.61293,PE-LIM,,
11869005,14476251,hydrographic,"Quebrada Chacallpampa","Quebrada Chacallpampa",official,-11.516658,-76.6108,PE-LIM,,
11869006,14476352,hydrographic,"Quebrada Chacallhuaygue","Quebrada Chacallhuaygue",official,-11.522283,-76.620218,PE-LIM,,
11869007,14476353,settlement,Quisquichaca,Quisquichaca,official,-11.522882,-76.629437,PE-LIM,,
11869028,14476354,settlement,Carayhuaca,Carayhuaca,official,-11.537258,-76.623313,PE-LIM,,
11869029,14476355,settlement,Huayoco,Huayoco,official,-11.537092,-76.640618,PE-LIM,,
11869030,14476356,hypsographic,"Cerro la Mina","Cerro la Mina",official,-11.523913,-76.659321,PE-LIM,,
11869031,14476357,settlement,Ramo,Ramo,official,-11.570737,-76.724848,PE-LIM,,
11869032,14476358,settlement,Maramara,Maramara,official,-11.55849,-76.72365,PE-LIM,,
11869033,14476359,settlement,Cucucha,Cucucha,official,-11.560321,-76.718991,PE-LIM,,
11869034,14476360,settlement,Tacurma,Tacurma,official,-11.567342,-76.705945,PE-LIM,,
11869035,14476361,settlement,Rucumani,Rucumani,official,-11.563282,-76.698291,PE-LIM,,
11869036,14476362,settlement,Arrachacra,Arrachacra,official,-11.568374,-76.728841,PE-LIM,,
11869037,14476363,settlement,Shihualla,Shihualla,official,-11.567476,-76.676427,PE-LIM,,
11869039,14476365,hypsographic,"Cerro Lucana","Cerro Lucana",official,-11.549838,-76.661085,PE-LIM,,
11869041,14476367,hydrographic,"Quebrada Tranca","Quebrada Tranca",official,-11.546077,-76.637823,PE-LIM,,
11869043,14476369,settlement,Ansa,Ansa,official,-11.570571,-76.630868,PE-LIM,,
11869044,14476370,settlement,Quisuarperca,Quisuarperca,official,-11.569872,-76.612963,PE-LIM,,
11869045,14476371,settlement,Sotoconga,Sotoconga,official,-11.553166,-76.604677,PE-LIM,,
11869046,14476412,hypsographic,"Cerro Pallpay","Cerro Pallpay",official,-11.557486,-76.59853,PE-LIM,,
11869048,14476414,hypsographic,"Cerro Cabeza de Toro","Cerro Cabeza de Toro",official,-11.541966,-76.539906,PE-LIM,,
11869049,14476415,settlement,Patacancha,Patacancha,official,-11.554159,-76.515214,PE-LIM,,
11869050,14476416,hydrographic,"Quebrada Casamachay","Quebrada Casamachay",official,-11.565184,-76.50947,PE-LIM,,
11869051,14476417,settlement,Calera,Calera,official,-11.566106,-76.512449,PE-LIM,,
11869052,14476419,settlement,Yuracancha,Yuracancha,official,-11.568501,-76.511743,PE-LIM,,
11869053,14476420,hypsographic,"Cerro Casamachay","Cerro Casamachay",official,-11.560977,-76.53361,PE-LIM,,
11869054,14476422,hypsographic,"Cerro Mishquipuquio","Cerro Mishquipuquio",official,-11.571603,-76.550042,PE-LIM,,
11869055,14476424,hypsographic,"Cerro Huamash","Cerro Huamash",official,-11.582936,-76.574366,PE-LIM,,
11869056,14476425,hydrographic,"Quebrada Tararhua","Quebrada Tararhua",official,-11.572095,-76.589169,PE-LIM,,
11869057,14476426,hydrographic,"Quebrada Quinan","Quebrada Quinan",official,-11.572924,-76.590705,PE-LIM,,
11869058,14476427,hydrographic,"Laguna Quinan","Laguna Quinan",official,-11.589816,-76.572124,PE-LIM,,
11869059,14476428,hypsographic,"Cerro Marco Chico","Cerro Marco Chico",official,-11.585332,-76.591319,PE-LIM,,
11869060,14476429,hypsographic,"Cerro Concho","Cerro Concho",official,-11.588157,-76.60901,PE-LIM,,
11869061,14476430,hydrographic,"Quebrada Huamarmarca","Quebrada Huamarmarca",official,-11.566975,-76.608112,PE-LIM,,
11869062,14476431,hydrographic,"Quebrada Yaurimama","Quebrada Yaurimama",official,-11.572046,-76.58874,PE-LIM,,
11869063,14476432,hydrographic,"Quebrada Potrapuquio","Quebrada Potrapuquio",official,-11.564509,-76.620711,PE-LIM,,
11869064,14476433,settlement,Escalon,Escalon,official,-11.574767,-76.614814,PE-LIM,,
11869065,14476434,settlement,Sacracchi,Sacracchi,official,-11.576179,-76.634163,PE-LIM,,
11869066,14476435,settlement,Huayllahuasi,Huayllahuasi,official,-11.570192,-76.638989,PE-LIM,,
11869067,14476436,hypsographic,"Cerro Viscapampa","Cerro Viscapampa",official,-11.568624,-76.657935,PE-LIM,,
11869089,14476438,settlement,Pampacocha,Pampacocha,official,-11.577531,-76.671203,PE-LIM,,
11869090,14476439,settlement,Capaco,Capaco,official,-11.581646,-76.668807,PE-LIM,,
11869091,14476440,hypsographic,"Cerro Quecahuinta","Cerro Quecahuinta",official,-11.551732,-76.68705,PE-LIM,,
11869092,14476441,hydrographic,"Quebrada Llancay","Quebrada Llancay",official,-11.567549,-76.701239,PE-LIM,,
11869093,14476442,hydrographic,"Quebrada Tacurma","Quebrada Tacurma",official,-11.562144,-76.717087,PE-LIM,,
11869094,14476443,hydrographic,"Quebrada Caruy","Quebrada Caruy",official,-11.565104,-76.684952,PE-LIM,,
11869095,14476444,hypsographic,"Cerro Anaica","Cerro Anaica",official,-11.590369,-76.678051,PE-LIM,,
11869096,14476445,settlement,Yaso,Yaso,official,-11.574767,-76.738187,PE-LIM,,
11869097,14476446,hypsographic,"Cerro Mamacay Grande","Cerro Mamacay Grande",official,-11.565154,-76.748322,PE-LIM,,
11869098,14476447,settlement,"Casa Quemada","Casa Quemada",official,-11.585854,-76.747707,PE-LIM,,
11869099,14476448,hypsographic,"Cerro Minajirca","Cerro Minajirca",official,-11.530016,-76.7537,PE-LIM,,
11869100,14476449,hypsographic,"Cerro Maramara","Cerro Maramara",official,-11.533458,-76.732935,PE-LIM,,
11869102,14476475,hydrographic,"Quebrada Condorhuacho","Quebrada Condorhuacho",official,-11.56965,-76.726161,PE-LIM,,
11869103,14476476,hydrographic,"Quebrada Añapo","Quebrada Anapo",official,-11.571388,-76.728021,PE-LIM,,
11869104,14476477,hypsographic,"Cerro Charramarca","Cerro Charramarca",official,-11.593101,-76.714823,PE-LIM,,
11869105,14476478,hypsographic,"Cerro Collorocrco","Cerro Collorocrco",official,-11.598588,-76.691147,PE-LIM,,
11869106,14476479,hypsographic,"Cerro Queshca","Cerro Queshca",official,-11.575882,-76.701909,PE-LIM,,
11869107,14476480,hydrographic,"Quebrada Pocta","Quebrada Pocta",official,-11.576854,-76.742875,PE-LIM,,
11869228,14476481,hydrographic,"Quebrada Condorpampa","Quebrada Condorpampa",official,-11.589429,-76.749809,PE-LIM,,
11869229,14476482,hypsographic,"Cerro Piedra Blanca","Cerro Piedra Blanca",official,-11.604412,-76.747277,PE-LIM,,
11869230,14476483,settlement,Chunchupay,Chunchupay,official,-11.587151,-76.65806,PE-LIM,,
11869231,14476484,settlement,Challallo,Challallo,official,-11.587699,-76.655697,PE-LIM,,
11869232,14476485,settlement,Cotabamba,Cotabamba,official,-11.595422,-76.653544,PE-LIM,,
11869233,14476486,settlement,Puille,Puille,official,-11.599432,-76.648902,PE-LIM,,
11869234,14476487,hydrographic,"Quebrada Tingo","Quebrada Tingo",official,-11.600655,-76.660297,PE-LIM,,
11869235,14476488,hydrographic,"Quebrada Shahuana","Quebrada Shahuana",official,-11.61558,-76.67385,PE-LIM,,
11869236,14476489,hypsographic,"Cerro Carme","Cerro Carme",official,-11.605129,-76.679584,PE-LIM,,
11869237,14476490,settlement,Tranca,Tranca,official,-11.611924,-76.665066,PE-LIM,,
11869238,14476491,settlement,"Cerro Gargarisano","Cerro Gargarisano",official,-11.610151,-76.616659,PE-LIM,,
11869239,14476672,settlement,Culluy,Culluy,official,-11.61492,-76.614338,PE-LIM,,
11869240,14476673,settlement,Chonopampa,Chonopampa,official,-11.605213,-76.613747,PE-LIM,,
11869242,14476675,hypsographic,"Cerro Pachuhuanca","Cerro Pachuhuanca",official,-11.594958,-76.62856,PE-LIM,,
11869243,14476676,hydrographic,"Quebrada Pumachicle","Quebrada Pumachicle",official,-11.611333,-76.664433,PE-LIM,,
11869245,14476682,hydrographic,"Quebrada Polaca","Quebrada Polaca",official,-11.574743,-76.639913,PE-LIM,,
11869246,14476683,hydrographic,"Quebrada Cotabamba","Quebrada Cotabamba",official,-11.596435,-76.657132,PE-LIM,,
11869247,14476684,settlement,"Cueva del Soldado","Cueva del Soldado",official,-11.613063,-76.600158,PE-LIM,,
11869248,14476685,hypsographic,"Cerro Viscachuela","Cerro Viscachuela",official,-11.601288,-76.593068,PE-LIM,,
11869249,14476688,hypsographic,"Cerro Pampaca","Cerro Pampaca",official,-11.608632,-76.642741,PE-LIM,,
11869250,14476690,hydrographic,"Quebrada Chancho","Quebrada Chancho",official,-11.605087,-76.633329,PE-LIM,,
11869253,14476714,hydrographic,"Quebrada Cachiri","Quebrada Cachiri",official,-11.60458,-76.632949,PE-LIM,,
11869254,14476715,hydrographic,"Quebrada Tambillo","Quebrada Tambillo",official,-11.618517,-76.621714,PE-LIM,,
11869255,14476716,settlement,"Quiebra Onda","Quiebra Onda",official,-11.609096,-76.592604,PE-LIM,,
11869256,14476717,hydrographic,"Quebrada Yarcan","Quebrada Yarcan",official,-11.60724,-76.580558,PE-LIM,,
11869257,14476718,hypsographic,"Cerro Huamán Corral","Cerro Huaman Corral",official,-11.616355,-76.583868,PE-LIM,,
11869258,14476719,hypsographic,"Cerro Marco Grande","Cerro Marco Grande",official,-11.596688,-76.575891,PE-LIM,,
11869259,14476720,hydrographic,"Laguna Tambillo","Laguna Tambillo",official,-11.622263,-76.583277,PE-LIM,,
11869260,14476721,hydrographic,"Laguna Huicso","Laguna Huicso",official,-11.625133,-76.581209,PE-LIM,,
11869261,14476722,settlement,Tambillo,Tambillo,official,-11.622432,-76.587033,PE-LIM,,
11869262,14476725,hypsographic,"Cerro Chuchuhuasi","Cerro Chuchuhuasi",official,-11.617874,-76.573739,PE-LIM,,
11869263,14476726,hypsographic,"Cerro Huacrasune","Cerro Huacrasune",official,-11.61817,-76.53947,PE-LIM,,
11869264,14476727,hypsographic,"Cerro San Bartolo","Cerro San Bartolo",official,-11.613105,-76.564834,PE-LIM,,
11869265,14476730,spot,"Señal Cerro Huayas","Senal Cerro Huayas",official,-11.626457,-76.571227,PE-LIM,,
11869266,14476731,hypsographic,"Cerro Saygua","Cerro Saygua",official,-11.581031,-76.524699,PE-LIM,,
11869267,14476732,hydrographic,"Quebrada Puquio Grande","Quebrada Puquio Grande",official,-11.590105,-76.526134,PE-LIM,,
11869268,14476733,hydrographic,"Quebrada Socollo","Quebrada Socollo",official,-11.606057,-76.511532,PE-LIM,,
11869269,14476736,hypsographic,"Cerro Cahuicancha","Cerro Cahuicancha",official,-11.599347,-76.536432,PE-LIM,,
11869270,14476737,park,Shicacancha,Shicacancha,official,-11.598756,-76.509633,PE-LIM,,
11869271,14476738,park,Allpamarca,Allpamarca,official,-11.609729,-76.506045,PE-LIM,,
11869272,14476739,park,Huamash,Huamash,official,-11.599938,-76.548206,PE-LIM,,
11869273,14476742,park,Chinchero,Chinchero,official,-11.622306,-76.50326,PE-LIM,,
11869274,14476743,park,Shipra,Shipra,official,-11.635853,-76.504526,PE-LIM,,
11869275,14476744,hydrographic,"Quebrada Macancanche","Quebrada Macancanche",official,-11.624036,-76.504906,PE-LIM,,
11869276,14476745,hydrographic,"Quebrada Chachaque","Quebrada Chachaque",official,-11.634798,-76.505792,PE-LIM,,
11869277,14476746,park,Saracoto,Saracoto,official,-11.643407,-76.51322,PE-LIM,,
11869279,14476750,park,Yamana,Yamana,official,-11.664424,-76.518791,PE-LIM,,
11869280,14476752,park,Llalla,Llalla,official,-11.670754,-76.518284,PE-LIM,,
11869282,14476753,settlement,Sheque,Sheque,official,-11.658516,-76.505961,PE-LIM,,
11869283,14476754,park,Antapampa,Antapampa,official,-11.667547,-76.508704,PE-LIM,,
11869285,14476757,hypsographic,"Cerro Cruz Carcel","Cerro Cruz Carcel",official,-11.635009,-76.547109,PE-LIM,,
11869286,14476758,hypsographic,"Cerro Cunculli","Cerro Cunculli",official,-11.633616,-76.563526,PE-LIM,,
11869287,14476760,hypsographic,"Cerro Putcucaca","Cerro Putcucaca",official,-11.6402,-76.574625,PE-LIM,,
11869289,14476763,hydrographic,"Quebrada Cunculli","Quebrada Cunculli",official,-11.657243,-76.559421,PE-LIM,,
11869291,14476765,hydrographic,"Quebrada Chilcacocha","Quebrada Chilcacocha",official,-11.672516,-76.521133,PE-LIM,,
11869292,14476766,hypsographic,"Cerro Carahuaque","Cerro Carahuaque",official,-11.692732,-76.528856,PE-LIM,,
11869293,14476767,settlement,Shicsanhuaylla,Shicsanhuaylla,official,-11.686021,-76.521217,PE-LIM,,
11869294,14476771,hypsographic,"Cerro Pallpacancha","Cerro Pallpacancha",official,-11.665975,-76.550126,PE-LIM,,
11869295,14476772,settlement,Chinchan,Chinchan,official,-11.679184,-76.558018,PE-LIM,,
11869297,14476773,hypsographic,"Cerro Tugurguma","Cerro Tugurguma",official,-11.675724,-76.579373,PE-LIM,,
11869298,14476775,park,Huayacocha,Huayacocha,official,-11.677538,-76.573507,PE-LIM,,
11869300,14476779,hypsographic,"Cerro Punto Orco","Cerro Punto Orco",official,-11.649094,-76.60921,PE-LIM,,
11869301,14476780,hypsographic,"Cerro Capuri","Cerro Capuri",official,-11.657408,-76.619044,PE-LIM,,
11869302,14476781,hypsographic,"Cerro Hualpic","Cerro Hualpic",official,-11.648714,-76.626936,PE-LIM,,
11869304,14476782,hypsographic,"Cerro Sonocoto","Cerro Sonocoto",official,-11.630736,-76.627231,PE-LIM,,
11869305,14476784,hydrographic,"Quebrada Sacayhuanca","Quebrada Sacayhuanca",official,-11.631073,-76.659347,PE-LIM,,
11869306,14476785,hypsographic,"Cerro Pucará","Cerro Pucara",official,-11.651584,-76.662892,PE-LIM,,
11869308,14476786,hypsographic,"Cerro Falacuzco","Cerro Falacuzco",official,-11.629132,-76.638204,PE-LIM,,
11869309,14476788,hydrographic,"Quebrada Huanamayoc","Quebrada Huanamayoc",official,-11.671999,-76.683274,PE-LIM,,
11869310,14476789,hypsographic,"Cerro Quesque","Cerro Quesque",official,-11.671461,-76.647742,PE-LIM,,
11869312,14476790,hypsographic,"Cerro Chompi","Cerro Chompi",official,-11.679733,-76.665804,PE-LIM,,
11869315,14476833,hypsographic,"Cerro Suco","Cerro Suco",official,-11.662903,-76.674028,PE-LIM,,
11869316,14476834,hydrographic,"Quebrada Pallanca","Quebrada Pallanca",official,-11.667407,-76.688443,PE-LIM,,
11869319,14476837,hypsographic,"Cerro Marquilla","Cerro Marquilla",official,-11.681702,-76.696317,PE-LIM,,
11869320,14476840,hydrographic,"Quebrada Huamnchilpe","Quebrada Huamnchilpe",official,-11.624217,-76.683143,PE-LIM,,
11869321,14476841,hydrographic,"Quebrada Río Chico","Quebrada Rio Chico",official,-11.616162,-76.672227,PE-LIM,,
11869322,14476842,hydrographic,"Quebrada Shucrume","Quebrada Shucrume",official,-11.625277,-76.686058,PE-LIM,,
11869323,14476843,hydrographic,"Quebrada Carme","Quebrada Carme",official,-11.630609,-76.693811,PE-LIM,,
11869324,14476846,settlement,Collo,Collo,official,-11.627714,-76.694272,PE-LIM,,
11869325,14476847,settlement,Olivo,Olivo,official,-11.629198,-76.703864,PE-LIM,,
11869326,14476848,settlement,Piscobamba,Piscobamba,official,-11.633597,-76.704182,PE-LIM,,
11869327,14476849,hypsographic,"Cerro Luríncocho","Cerro Lurincocho",official,-11.608743,-76.704606,PE-LIM,,
11869328,14476852,hydrographic,"Quebrada Pisco Pampa","Quebrada Pisco Pampa",official,-11.632749,-76.702963,PE-LIM,,
11869329,14476853,hydrographic,"Quebrada Cruzayera","Quebrada Cruzayera",official,-11.63577,-76.705931,PE-LIM,,
11869330,14476854,hypsographic,"Cerro Chiclian","Cerro Chiclian",official,-11.613884,-76.723801,PE-LIM,,
11869331,14476855,hypsographic,"Cerro Curhuane","Cerro Curhuane",official,-11.632677,-76.74026,PE-LIM,,
11869332,14476858,hydrographic,"Quebrada Urpay","Quebrada Urpay",official,-11.64684,-76.718748,PE-LIM,,
11869333,14476859,settlement,Archu,Archu,official,-11.643772,-76.71706,PE-LIM,,
11869334,14476860,settlement,Pirhuinco,Pirhuinco,official,-11.647269,-76.719656,PE-LIM,,
11869335,14476861,settlement,Pache,Pache,official,-11.649707,-76.731792,PE-LIM,,
11869336,14476864,settlement,Orobel,Orobel,official,-11.658186,-76.746206,PE-LIM,,
11869337,14476865,settlement,"Fundo Quisu","Fundo Quisu",official,-11.656781,-76.74237,PE-LIM,,
11869338,14476866,settlement,Pacclahuanca,Pacclahuanca,official,-11.653682,-76.729725,PE-LIM,,
11869339,14476867,hydrographic,"Quebrada Yerba Buena","Quebrada Yerba Buena",official,-11.651945,-76.700635,PE-LIM,,
11869340,14476868,hydrographic,"Quebrada Carrajadura","Quebrada Carrajadura",official,-11.658716,-76.696604,PE-LIM,,
11869341,14476869,hypsographic,"Cerro Alacato","Cerro Alacato",official,-11.679167,-76.738662,PE-LIM,,
11869343,14476871,hydrographic,"Quebrada Alumbra","Quebrada Alumbra",official,-11.681405,-76.717979,PE-LIM,,
11869344,14476892,hydrographic,"Quebrada Huallishcalla","Quebrada Huallishcalla",official,-11.695794,-76.705531,PE-LIM,,
11869345,14476893,hydrographic,"Quebrada Juncará","Quebrada Juncara",official,-11.695077,-76.713573,PE-LIM,,
11869346,14476894,hydrographic,"Quebrada de Cacungo","Quebrada de Cacungo",official,-11.682722,-76.678798,PE-LIM,,
11869347,14476896,hypsographic,"Cerro Gallinaza","Cerro Gallinaza",official,-11.670481,-76.712661,PE-LIM,,
11869349,14476897,hypsographic,"Cerro Crullame","Cerro Crullame",official,-11.672244,-76.701929,PE-LIM,,
11869350,14476900,hypsographic,"Cerro Grande","Cerro Grande",official,-11.703443,-76.744564,PE-LIM,,
11869351,14476901,settlement,Pacate,Pacate,official,-11.689771,-76.716848,PE-LIM,,
11869352,14476902,settlement,Juncara,Juncara,official,-11.694169,-76.714516,PE-LIM,,
11869353,14476903,hydrographic,"Quebrada Huallhua","Quebrada Huallhua",official,-11.669686,-76.726228,PE-LIM,,
11869354,14476904,hypsographic,"Cerro Concho","Cerro Concho",official,-11.732537,-76.743292,PE-LIM,,
11869355,14476905,hypsographic,"Cerro Espinal","Cerro Espinal",official,-11.730598,-76.732468,PE-LIM,,
11869356,14476906,hydrographic,"Quebrada Concho","Quebrada Concho",official,-11.704274,-76.721563,PE-LIM,,
11869357,14476907,hydrographic,"Quebrada Conchahuinco","Quebrada Conchahuinco",official,-11.70445,-76.721405,PE-LIM,,
11869358,14476908,hypsographic,"Cerro Colorado","Cerro Colorado",official,-11.727282,-76.709831,PE-LIM,,
11869359,14476909,settlement,Calabaza,Calabaza,official,-11.716635,-76.707821,PE-LIM,,
11869360,14476910,hypsographic,"Cerro Huayarcoto","Cerro Huayarcoto",official,-11.743242,-76.712184,PE-LIM,,
11869361,14476911,hydrographic,"Quebrada de Toldo","Quebrada de Toldo",official,-11.723943,-76.702786,PE-LIM,,
11869362,14476913,hypsographic,"Cerro Torre Blanca","Cerro Torre Blanca",official,-11.747021,-76.690984,PE-LIM,,
11869364,14476915,hypsographic,"Cerro Cuchillata","Cerro Cuchillata",official,-11.716495,-76.691701,PE-LIM,,
11869365,14476916,hypsographic,"Cerro Pollao","Cerro Pollao",official,-11.720719,-76.678109,PE-LIM,,
11869366,14476917,hypsographic,"Cerro Llorón","Cerro Lloron",official,-11.737624,-76.672862,PE-LIM,,
11869367,14476918,park,Llumpo,Llumpo,official,-11.706517,-76.668358,PE-LIM,,
11869368,14476919,hydrographic,"Quebrada Mecro","Quebrada Mecro",official,-11.73932,-76.644352,PE-LIM,,
11869369,14476922,hypsographic,"Lomas de Collana","Lomas de Collana",official,-11.693941,-76.644565,PE-LIM,,
11869370,14476923,hypsographic,"Cerro Shampulla","Cerro Shampulla",official,-11.715393,-76.668448,PE-LIM,,
11869371,14476926,hydrographic,"Quebrada Mtio Mito","Quebrada Mtio Mito",official,-11.745325,-76.615613,PE-LIM,,
11869372,14476927,hypsographic,"Cerro Llabre","Cerro Llabre",official,-11.716692,-76.63831,PE-LIM,,
11869373,14476928,hypsographic,"Cerro Malca","Cerro Malca",official,-11.719425,-76.620804,PE-LIM,,
11869385,14477034,settlement,Potococha,Potococha,official,-11.725436,-76.629831,PE-LIM,,
11869386,14477035,settlement,Upica,Upica,official,-11.739566,-76.606895,PE-LIM,,
11869387,14477036,hydrographic,"Quebrada Mallousirca","Quebrada Mallousirca",official,-11.738472,-76.612605,PE-LIM,,
11869408,14477037,hydrographic,"Quebrada Shanqui","Quebrada Shanqui",official,-11.737147,-76.610117,PE-LIM,,
11869409,14477039,hydrographic,"Quebrada de Rengo","Quebrada de Rengo",official,-11.739328,-76.642625,PE-LIM,,
11869411,14477040,park,Shulcha,Shulcha,official,-11.725489,-76.608898,PE-LIM,,
11869412,14477041,hydrographic,"Quebrada del Zorrillo","Quebrada del Zorrillo",official,-11.714943,-76.607574,PE-LIM,,
11869413,14477042,hydrographic,"Quebrada Yerba Buena","Quebrada Yerba Buena",official,-11.723069,-76.598007,PE-LIM,,
11869414,14477043,hydrographic,"Río Santa Eulalia","Rio Santa Eulalia",official,-11.733491,-76.605136,PE-LIM,,
11869415,14477044,settlement,Vicas,Vicas,official,-11.708213,-76.599519,PE-LIM,,
11869416,14477045,hypsographic,"Cerro Jaujiño","Cerro Jaujino",official,-11.700952,-76.616609,PE-LIM,,
11869417,14477046,hypsographic,"Cerro Huarhuar","Cerro Huarhuar",official,-11.700655,-76.582114,PE-LIM,,
11869418,14477047,hydrographic,"Quebrada Cranmayo","Quebrada Cranmayo",official,-11.698994,-76.603217,PE-LIM,,
11869419,14477048,park,"Callejón Canay","Callejon Canay",official,-11.694222,-76.596763,PE-LIM,,
11869420,14477049,hydrographic,"Quebrada Marcopuquio","Quebrada Marcopuquio",official,-11.707805,-76.592325,PE-LIM,,
11869421,14477050,hydrographic,"Quebrada Corihuaca","Quebrada Corihuaca",official,-11.705567,-76.587342,PE-LIM,,
11869422,14477051,hydrographic,"Quebrada Cantocancha","Quebrada Cantocancha",official,-11.68116,-76.592307,PE-LIM,,
11869424,14477073,hydrographic,"Quebrada Maquehuar","Quebrada Maquehuar",official,-11.696231,-76.586188,PE-LIM,,
11869425,14477074,settlement,Huantay,Huantay,official,-11.693003,-76.586058,PE-LIM,,
11869426,14477075,park,Taurhuaylla,Taurhuaylla,official,-11.68781,-76.57689,PE-LIM,,
11869427,14477076,settlement,Yanama,Yanama,official,-11.66866,-76.596398,PE-LIM,,
11869428,14477077,park,Huamaricra,Huamaricra,official,-11.715473,-76.569206,PE-LIM,,
11869429,14477078,hypsographic,"Cerro Raningripa","Cerro Raningripa",official,-11.739055,-76.574558,PE-LIM,,
11869430,14477079,hypsographic,"Cerro Roda Piedra","Cerro Roda Piedra",official,-11.731159,-76.572015,PE-LIM,,
11869431,14477080,hypsographic,"Cerro Carhuachayo","Cerro Carhuachayo",official,-11.728174,-76.540905,PE-LIM,,
11869433,14477082,hypsographic,"Cerro Collapa","Cerro Collapa",official,-11.746315,-76.550393,PE-LIM,,
11869434,14477083,hypsographic,"Cerro Marahuayque","Cerro Marahuayque",official,-11.693274,-76.510308,PE-LIM,,
11869435,14477084,hypsographic,"Cerro Racraquero","Cerro Racraquero",official,-11.706169,-76.511378,PE-LIM,,
11869436,14477085,park,Challmayllo,Challmayllo,official,-11.709855,-76.518119,PE-LIM,,
11869437,14477086,hydrographic,"Quebrada Arma","Quebrada Arma",official,-11.711551,-76.526599,PE-LIM,,
11869440,14477089,settlement,Ayara,Ayara,official,-11.540062,-76.680335,PE-LIM,,
11869441,14477090,settlement,"Tierra Amatilla","Tierra Amatilla",official,-11.531106,-76.692629,PE-LIM,,
11869442,14477091,settlement,Yani,Yani,official,-11.539267,-76.710594,PE-LIM,,
11869443,14477093,hydrographic,"Quebrada Chinchilcay","Quebrada Chinchilcay",official,-11.510067,-76.587224,PE-LIM,,
11869445,14477095,hydrographic,"Río Sacsa","Rio Sacsa",official,-11.605086,-76.511124,PE-LIM,,
11869446,14477096,hydrographic,"Río Acobamba","Rio Acobamba",official,-11.668096,-76.514993,PE-LIM,,
11871576,14480435,hypsographic,"Cerro Campanayoc","Cerro Campanayoc",official,-12.985563,-74.013127,PE-AYA,,
11871577,14480436,hypsographic,"Cerro Molla","Cerro Molla",official,-12.96457,-74.02653,PE-AYA,,
11871578,14480438,hypsographic,"Cerro Huanchuy","Cerro Huanchuy",official,-12.971792,-74.00921,PE-AYA,,
11871579,14480441,settlement,Mollepucro,Mollepucro,official,-12.964998,-74.003946,PE-AYA,,
11871580,14480442,settlement,Jejra,Jejra,official,-12.940762,-74.003456,PE-AYA,,
11871581,14480443,settlement,Mollpo,Mollpo,official,-12.956552,-74.00468,PE-AYA,,
11871582,14480445,hypsographic,"Cerro Ichupata","Cerro Ichupata",official,-12.962122,-74.062885,PE-AYA,,
11871583,14480446,hypsographic,"Cerro Urbanayoc","Cerro Urbanayoc",official,-12.984155,-74.049359,PE-AYA,,
11871584,14480447,hypsographic,"Cerro Yanarumi","Cerro Yanarumi",official,-12.965855,-74.050706,PE-AYA,,
11871585,14480456,hydrographic,"Quebrada Ichupata","Quebrada Ichupata",official,-12.946392,-74.043728,PE-AYA,,
11871586,14480457,hydrographic,"Quebrada Yanamilo","Quebrada Yanamilo",official,-12.933295,-74.014167,PE-AYA,,
11871587,14480461,settlement,Pichin,Pichin,official,-12.936845,-74.01888,PE-AYA,,
11872114,14481060,settlement,Uchuran,Uchuran,official,-12.747692,-74.076423,PE-AYA,,
11871646,14480503,settlement,Sejsecca,Sejsecca,official,-12.829371,-74.016432,PE-AYA,,
11871697,14480430,settlement,Huaychao,Huaychao,official,-12.923992,-74.064293,PE-AYA,,
11871698,14480472,settlement,Asno,Asno,official,-12.913832,-74.003273,PE-AYA,,
11871699,14480474,hypsographic,"Cerro Marca","Cerro Marca",official,-12.922645,-74.01331,PE-AYA,,
11871700,14480475,settlement,Acco,Acco,official,-12.916341,-74.036568,PE-AYA,,
11871703,14480477,settlement,Balcón,Balcon,official,-12.925461,-74.077635,PE-AYA,,
11871704,14480478,hydrographic,"Quebrada Huaycaro","Quebrada Huaycaro",official,-12.917688,-74.067843,PE-AYA,,
11871705,14480479,hydrographic,"Quebrada Cachana","Quebrada Cachana",official,-12.920381,-74.075677,PE-AYA,,
11871706,14480481,hydrographic,"Quebrada Balcón","Quebrada Balcon",official,-12.922156,-74.08296,PE-AYA,,
11871707,14480482,settlement,Quisuarpata,Quisuarpata,official,-12.912608,-74.041892,PE-AYA,,
11871708,14480462,settlement,Tantacocha,Tantacocha,official,-12.933907,-74.038649,PE-AYA,,
11871709,14480463,settlement,Pucajasa,Pucajasa,official,-12.930908,-74.043239,PE-AYA,,
11871710,14480464,hydrographic,"Quebrada Puñosjasa","Quebrada Punosjasa",official,-12.951166,-74.069801,PE-AYA,,
11871711,14480465,settlement,Mitipampa,Mitipampa,official,-12.921605,-74.05499,PE-AYA,,
11871712,14480467,hydrographic,"Quebrada Balcón","Quebrada Balcon",official,-12.917321,-74.038037,PE-AYA,,
11871713,14480468,hypsographic,"Cerro Cebollayoc","Cerro Cebollayoc",official,-12.889289,-74.033813,PE-AYA,,
11871714,14480469,settlement,Cebollayoc,Cebollayoc,official,-12.887331,-74.015452,PE-AYA,,
11871715,14480470,settlement,Challhuamayo,Challhuamayo,official,-12.881822,-74.014963,PE-AYA,,
11871716,14480471,hypsographic,"Cerro Balcón","Cerro Balcon",official,-12.883842,-74.046727,PE-AYA,,
11871717,14480552,hypsographic,"Cerro Fernandicha","Cerro Fernandicha",official,-12.869031,-74.061233,PE-AYA,,
11871718,14480553,hypsographic,"Cerro Sigueruyoc","Cerro Sigueruyoc",official,-12.899572,-74.064599,PE-AYA,,
11871719,14480554,hypsographic,"Cerro Cocha Orjo","Cerro Cocha Orjo",official,-12.881639,-74.075554,PE-AYA,,
11871720,14480555,settlement,"Hacienda Paria","Hacienda Paria",official,-12.900857,-74.075248,PE-AYA,,
11871721,14480556,hydrographic,"Quebrada Chacabama","Quebrada Chacabama",official,-12.900122,-74.058234,PE-AYA,,
11871722,14480557,hypsographic,"Cerro Paucasha","Cerro Paucasha",official,-11.761995,-76.714069,PE-LIM,,
11871727,14480567,hydrographic,"Quebrada Michura","Quebrada Michura",official,-11.756266,-76.74851,PE-LIM,,
11871729,14480486,hypsographic,"Cerro Saltahuaylla","Cerro Saltahuaylla",official,-12.936906,-74.055296,PE-AYA,,
11871730,14480487,hypsographic,"Cerro Pisjohuilca","Cerro Pisjohuilca",official,-12.936661,-74.06619,PE-AYA,,
11871732,14480512,hydrographic,"Quebrada Yanahuacm","Quebrada Yanahuacm",official,-12.912424,-74.061661,PE-AYA,,
11871737,14480517,hydrographic,"Quebrada Chacabamba","Quebrada Chacabamba",official,-12.91524,-74.050155,PE-AYA,,
11871750,14480531,hypsographic,"Cerro Santa Cruz Punta","Cerro Santa Cruz Punta",official,-12.870377,-74.052542,PE-AYA,,
11871751,14480572,hydrographic,"Quebrada Sallahuayjo","Quebrada Sallahuayjo",official,-12.871112,-74.022062,PE-AYA,,
11871752,14480574,hypsographic,"Cerro Sogochupa","Cerro Sogochupa",official,-12.852322,-74.023225,PE-AYA,,
11871754,14480575,park,Janao,Janao,official,-12.837144,-74.025367,PE-AYA,,
11871755,14480577,hydrographic,"Quebrada Janao","Quebrada Janao",official,-12.855505,-74.041158,PE-AYA,,
11871756,14480578,hydrographic,"Quebrada Jatopata","Quebrada Jatopata",official,-12.859789,-74.041158,PE-AYA,,
11871757,14480581,settlement,Illiapa,Illiapa,official,-12.860768,-74.037057,PE-AYA,,
11871759,14480583,park,Urumay,Urumay,official,-12.8705,-74.035466,PE-AYA,,
11871760,14480584,settlement,Parcobamba,Parcobamba,official,-12.851343,-74.051134,PE-AYA,,
11871761,14480585,settlement,Anjosocya,Anjosocya,official,-12.860217,-74.071148,PE-AYA,,
11871762,14480587,hypsographic,"Cerro Parcobamba","Cerro Parcobamba",official,-12.855076,-74.060254,PE-AYA,,
11871763,14480588,hydrographic,"Quebrada Chilhuiyoc","Quebrada Chilhuiyoc",official,-12.840387,-74.063926,PE-AYA,,
11871765,14480590,hypsographic,"Cerro Jachobamba","Cerro Jachobamba",official,-12.864196,-74.079043,PE-AYA,,
11871788,14480505,hydrographic,"Quebrada Tinco","Quebrada Tinco",official,-12.823612,-74.00445,PE-AYA,,
11871789,14480506,hypsographic,"Cerro Incaptianan","Cerro Incaptianan",official,-12.827229,-74.036262,PE-AYA,,
11871790,14480507,hydrographic,"Quebrada Llallpu","Quebrada Llallpu",official,-12.834512,-74.052542,PE-AYA,,
11871791,14480508,hypsographic,"Cerro Raja","Cerro Raja",official,-12.837327,-74.046115,PE-AYA,,
11871792,14480509,hydrographic,"Quebrada Orjohuasi","Quebrada Orjohuasi",official,-12.84253,-74.050032,PE-AYA,,
11871793,14480511,hydrographic,"Laguna Uchcococha","Laguna Uchcococha",official,-12.821169,-74.049359,PE-AYA,,
11871794,14480593,hydrographic,"Laguna Yanaoccha","Laguna Yanaoccha",official,-12.810336,-74.05603,PE-AYA,,
11871795,14480594,hydrographic,"Quebrada Iquicha","Quebrada Iquicha",official,-12.840877,-74.052664,PE-AYA,,
11871824,14480765,settlement,Patacancha,Patacancha,official,-12.83583,-74.058313,PE-AYA,,
11871825,14480767,hypsographic,"Cerro Puncojasha","Cerro Puncojasha",official,-12.815702,-74.067957,PE-AYA,,
11871826,14480768,hypsographic,"Cerro Callampa","Cerro Callampa",official,-12.815982,-74.077208,PE-AYA,,
11871828,14480568,hydrographic,"Quebrada Chauchura","Quebrada Chauchura",official,-11.784558,-76.701552,PE-LIM,,
11871830,14480569,hydrographic,"Quebrada Colca","Quebrada Colca",official,-11.790733,-76.69906,PE-LIM,,
11871831,14480633,hypsographic,"Cerro Mecro","Cerro Mecro",official,-11.758153,-76.675246,PE-LIM,,
11871832,14480636,park,"Luna y Sol","Luna y Sol",official,-11.751548,-76.697084,PE-LIM,,
11871834,14480638,spot,"Señal Cerro Huambo","Senal Cerro Huambo",official,-11.761321,-76.676055,PE-LIM,,
11871835,14480639,hydrographic,"Quebrada Asna","Quebrada Asna",official,-11.792527,-76.698095,PE-LIM,,
11871836,14480640,spot,"Ruinas de Chuya","Ruinas de Chuya",official,-11.78882,-76.673561,PE-LIM,,
11871838,14480642,hypsographic,"Cerro Morque","Cerro Morque",official,-11.791719,-76.662036,PE-LIM,,
11871839,14480643,hypsographic,"Cerro Pichocoto","Cerro Pichocoto",official,-11.792797,-76.652532,PE-LIM,,
11871841,14480645,hydrographic,"Quebrada Morque","Quebrada Morque",official,-11.78235,-76.637232,PE-LIM,,
11871842,14480646,hypsographic,"Cerro Pucara","Cerro Pucara",official,-11.757547,-76.650106,PE-LIM,,
11871843,14480647,hypsographic,"Cerro Chupac","Cerro Chupac",official,-11.766511,-76.639254,PE-LIM,,
11871845,14480650,hydrographic,"Quebrada Huanchunya","Quebrada Huanchunya",official,-11.783833,-76.623078,PE-LIM,,
11871846,14480651,hypsographic,"Cerro Altupata","Cerro Altupata",official,-11.758086,-76.626987,PE-LIM,,
11871847,14480652,hydrographic,"Quebrada Vado","Quebrada Vado",official,-11.776688,-76.616742,PE-LIM,,
11871848,14480653,settlement,Huanchunya,Huanchunya,official,-11.784642,-76.623752,PE-LIM,,
11871849,14480654,settlement,Vado,Vado,official,-11.780598,-76.62146,PE-LIM,,
11871850,14480655,hydrographic,"Quebrada Negro","Quebrada Negro",official,-11.776621,-76.613709,PE-LIM,,
11871851,14480656,hydrographic,"Quebrada San Antonio","Quebrada San Antonio",official,-11.780193,-76.614316,PE-LIM,,
11871852,14480657,hydrographic,"Quebrada Lampa Lampa","Quebrada Lampa Lampa",official,-11.78882,-76.600903,PE-LIM,,
11871854,14480659,settlement,Mayahuay,Mayahuay,official,-11.790977,-76.606565,PE-LIM,,
11871855,14480662,settlement,Huayococha,Huayococha,official,-11.781878,-76.599151,PE-LIM,,
11871856,14480663,hypsographic,"Cerro Huanturma","Cerro Huanturma",official,-11.775677,-76.592006,PE-LIM,,
11871858,14480664,settlement,Bellavista,Bellavista,official,-11.806816,-76.628875,PE-LIM,,
11871859,14480666,hydrographic,"Quebrada Lúcuma","Quebrada Lucuma",official,-11.813646,-76.626783,PE-LIM,,
11871860,14480667,settlement,"San Juan de Viquil","San Juan de Viquil",official,-11.799874,-76.619438,PE-LIM,,
11871862,14480670,hypsographic,"Cerro Marcohuasi","Cerro Marcohuasi",official,-11.780867,-76.572865,PE-LIM,,
11871863,14480712,hypsographic,"Cerro Pitic","Cerro Pitic",official,-11.794482,-76.574887,PE-LIM,,
11871864,14480713,hypsographic,"Cerro Curi","Cerro Curi",official,-11.774127,-76.54577,PE-LIM,,
11871865,14480714,hypsographic,"Cerro Yananta","Cerro Yananta",official,-11.777025,-76.558306,PE-LIM,,
11871866,14480717,hypsographic,"Cerro Shirapampa","Cerro Shirapampa",official,-11.78417,-76.553993,PE-LIM,,
11871867,14480718,hypsographic,"Cerro Cayrachin","Cerro Cayrachin",official,-11.751144,-76.526021,PE-LIM,,
11871868,14480719,hypsographic,"Cerro Molla","Cerro Molla",official,-11.775677,-76.519686,PE-LIM,,
11871869,14480720,hypsographic,"Cerro Sayhua","Cerro Sayhua",official,-11.786057,-76.513283,PE-LIM,,
11871870,14480721,hypsographic,"Cerro Tres Cruces","Cerro Tres Cruces",official,-11.799335,-76.530133,PE-LIM,,
11871871,14480724,hypsographic,"Cerro Sicua","Cerro Sicua",official,-11.806884,-76.511328,PE-LIM,,
11871872,14480725,settlement,Chula,Chula,official,-11.765972,-76.566259,PE-LIM,,
11871874,14480727,hypsographic,"Cerro Cangaruma","Cerro Cangaruma",official,-11.786461,-76.539434,PE-LIM,,
11871875,14480729,hydrographic,"Quebrada Chanicocha","Quebrada Chanicocha",official,-11.759636,-76.543074,PE-LIM,,
11871882,14480744,hydrographic,"Quebrada Huaytama","Quebrada Huaytama",official,-11.758827,-76.539299,PE-LIM,,
11871884,14480750,hydrographic,"Quebrada Yanapaccha","Quebrada Yanapaccha",official,-11.758423,-76.543208,PE-LIM,,
11871885,14480751,hydrographic,"Quebrada Sucuni","Quebrada Sucuni",official,-11.756401,-76.547118,PE-LIM,,
11871886,14480793,hydrographic,"Quebrada Pomacocha","Quebrada Pomacocha",official,-11.819083,-76.520292,PE-LIM,,
11871887,14480794,hydrographic,"Quebrada Huamancancha","Quebrada Huamancancha",official,-11.80958,-76.564507,PE-LIM,,
11871891,14480778,hypsographic,"Cerro Janao","Cerro Janao",official,-12.828429,-74.026916,PE-AYA,,
11871892,14480779,hypsographic,"Cerro Mirador","Cerro Mirador",official,-12.807628,-74.007853,PE-AYA,,
11871893,14480780,settlement,Orjohuasi,Orjohuasi,official,-12.803535,-74.028878,PE-AYA,,
11871894,14480781,settlement,Chachaspata,Chachaspata,official,-12.802526,-74.035718,PE-AYA,,
11871895,14480782,park,Rodeo,Rodeo,official,-12.796863,-74.061677,PE-AYA,,
11871896,14480784,hypsographic,"Cerro Rodeojaja","Cerro Rodeojaja",official,-12.791032,-74.05551,PE-AYA,,
11871897,14480785,hypsographic,"Cerro Pucará","Cerro Pucara",official,-12.7912,-74.040091,PE-AYA,,
11871898,14480787,settlement,"Jatun Orjo","Jatun Orjo",official,-12.767428,-74.006731,PE-AYA,,
11871899,14480788,settlement,Tacohuani,Tacohuani,official,-12.77096,-74.040652,PE-AYA,,
11871900,14480789,settlement,Allcashaca,Allcashaca,official,-12.779146,-74.057921,PE-AYA,,
11871901,14480790,settlement,Chuqui,Chuqui,official,-12.778473,-74.067957,PE-AYA,,
11871902,14480791,settlement,Uchocancha,Uchocancha,official,-12.792266,-74.070424,PE-AYA,,
11871904,14480853,hypsographic,"Cerro Ojoro","Cerro Ojoro",official,-12.798601,-74.073507,PE-AYA,,
11871905,14480855,hydrographic,"Quebrada Chachaspato","Quebrada Chachaspato",official,-12.766923,-74.046988,PE-AYA,,
11871907,14480859,hydrographic,"Quebrada Luichococha","Quebrada Luichococha",official,-12.774044,-74.083207,PE-AYA,,
11871928,14480795,hydrographic,"Quebrada Chacahuaylla","Quebrada Chacahuaylla",official,-11.816657,-76.574348,PE-LIM,,
11878158,14495452,settlement,Larcay,Larcay,official,-12.738048,-74.536728,PE-HUV,,
11871930,14480799,hydrographic,"Quebrada Chauca","Quebrada Chauca",official,-11.815309,-76.584424,PE-LIM,,
11871931,14480800,hypsographic,"Cerro Recracancha","Cerro Recracancha",official,-11.813354,-76.539198,PE-LIM,,
11871932,14480801,hypsographic,"Cerro Huarichaca","Cerro Huarichaca",official,-11.828924,-76.55625,PE-LIM,,
11871933,14480802,hypsographic,"Cerro Cayeral","Cerro Cayeral",official,-11.828587,-76.578762,PE-LIM,,
11871934,14480804,hypsographic,"Cerro Cayamaran","Cerro Cayamaran",official,-11.840988,-76.593927,PE-LIM,,
11871935,14480807,hydrographic,"Quebrada Quingallo","Quebrada Quingallo",official,-11.832833,-76.525448,PE-LIM,,
11871936,14480808,settlement,"San Mateo de Otao","San Mateo de Otao",official,-11.843347,-76.561777,PE-LIM,,
11871937,14480832,hydrographic,"Quebrada Infiernillo","Quebrada Infiernillo",official,-11.843213,-76.636255,PE-LIM,,
11871938,14480833,hydrographic,"Quebrada Molino","Quebrada Molino",official,-11.822723,-76.685862,PE-LIM,,
11871939,14480834,hydrographic,"Quebrada Huichica","Quebrada Huichica",official,-11.848739,-76.706621,PE-LIM,,
11871941,14480836,hypsographic,"Cerro Guerrilla","Cerro Guerrilla",official,-11.819488,-76.643939,PE-LIM,,
11871942,14480837,hypsographic,"Cerro Chinchilco","Cerro Chinchilco",official,-11.815039,-76.6649,PE-LIM,,
11871943,14480838,hypsographic,"Cerro Buena Vista","Cerro Buena Vista",official,-11.840988,-76.650611,PE-LIM,,
11871945,14480840,hypsographic,"Cerro Majada Larga","Cerro Majada Larga",official,-11.839506,-76.677571,PE-LIM,,
11871950,14480845,hydrographic,"Quebrada Higuera","Quebrada Higuera",official,-11.826076,-76.697134,PE-LIM,,
11871952,14480846,hypsographic,"Cerro Molle","Cerro Molle",official,-11.832614,-76.721601,PE-LIM,,
11871953,14480848,hydrographic,"Quebrada Agua Salada","Quebrada Agua Salada",official,-11.851823,-76.741282,PE-LIM,,
11871955,14480850,hydrographic,"Quebrada Saltadero","Quebrada Saltadero",official,-11.85034,-76.740405,PE-LIM,,
11871956,14480851,park,"Pampa Grande","Pampa Grande",official,-11.806799,-76.744989,PE-LIM,,
11871958,14480873,hydrographic,"Quebrada Piedra Blanca","Quebrada Piedra Blanca",official,-11.854923,-76.704818,PE-LIM,,
11871960,14480876,hydrographic,"Quebrada Cashahuacra","Quebrada Cashahuacra",official,-11.902913,-76.670309,PE-LIM,,
11871961,14480877,hydrographic,"Quebrada Vaquería","Quebrada Vaqueria",official,-11.856339,-76.649684,PE-LIM,,
11871962,14480880,hydrographic,"Quebrada Pampa Redonda","Quebrada Pampa Redonda",official,-11.856811,-76.647865,PE-LIM,,
11871963,14480881,hypsographic,"Cerro Huanoquillo","Cerro Huanoquillo",official,-11.869886,-76.746876,PE-LIM,,
11871964,14480882,hypsographic,"Cerro Malle","Cerro Malle",official,-11.860855,-76.732654,PE-LIM,,
11871965,14480883,hypsographic,"Cerro Huaracsito","Cerro Huaracsito",official,-11.883973,-76.66822,PE-LIM,,
11871966,14480884,hypsographic,"Cerro Piedra Larga","Cerro Piedra Larga",official,-11.870089,-76.664378,PE-LIM,,
11871967,14480885,hypsographic,"Cerro Huaquería","Cerro Huaqueria",official,-11.878514,-76.664782,PE-LIM,,
11871993,14480831,hydrographic,"Quebrada Orjohuasi","Quebrada Orjohuasi",official,-12.762606,-74.016767,PE-AYA,,
11871994,14480992,hydrographic,"Quebrada Yacohuani","Quebrada Yacohuani",official,-12.756327,-74.021813,PE-AYA,,
11871995,14480993,settlement,Chuvas,Chuvas,official,-12.751729,-74.032578,PE-AYA,,
11871996,14480994,settlement,Janopata,Janopata,official,-12.759018,-74.021645,PE-AYA,,
11871997,14480995,hypsographic,"Cerro Janopata","Cerro Janopata",official,-12.779034,-74.040372,PE-AYA,,
11872014,14481017,hydrographic,"Quebrada Yanomayo","Quebrada Yanomayo",official,-12.754813,-74.005722,PE-AYA,,
11872015,14481018,hydrographic,"Quebrada Yerbabuenayoc","Quebrada Yerbabuenayoc",official,-12.751337,-74.024392,PE-AYA,,
11872016,14481019,hypsographic,"Cerro Pucara Orjo","Cerro Pucara Orjo",official,-12.756719,-74.049623,PE-AYA,,
11872018,14481736,hypsographic,"Cerro Torrecilla","Cerro Torrecilla",official,-11.84655,-76.580919,PE-LIM,,
11872019,14481737,hydrographic,"Quebrada Pichucani","Quebrada Pichucani",official,-11.998809,-76.538328,PE-LIM,,
11872020,14481738,hydrographic,"Quebrada Balconcillo de Ariyay","Quebrada Balconcillo de Ariyay",official,-11.997445,-76.663122,PE-LIM,,
11872028,14480886,hydrographic,"Quebrada Pachas","Quebrada Pachas",official,-11.870223,-76.726521,PE-LIM,,
11872030,14480888,hypsographic,"Cerro Quirio","Cerro Quirio",official,-11.906687,-76.713782,PE-LIM,,
11872031,14480889,hypsographic,"Cerros de Chosica","Cerros de Chosica",official,-11.909181,-76.689922,PE-LIM,,
11872033,14480891,hypsographic,"Cerro San Pablo","Cerro San Pablo",official,-11.904598,-76.637889,PE-LIM,,
11872035,14480913,hypsographic,"Cerro Piedra Blanca","Cerro Piedra Blanca",official,-11.851351,-76.67442,PE-LIM,,
11872039,14480918,settlement,Pijayal,Pijayal,official,-11.846229,-76.634553,PE-LIM,,
11872042,14480922,settlement,"San José de Palle Viejo","San Jose de Palle Viejo",official,-11.863141,-76.639356,PE-LIM,,
11872044,14480924,hydrographic,"Quebrada Alcula","Quebrada Alcula",official,-11.853946,-76.631645,PE-LIM,,
11872046,14480926,settlement,Cuspanca,Cuspanca,official,-11.892923,-76.64802,PE-LIM,,
11872048,14480928,settlement,"Fernando Parca","Fernando Parca",official,-11.88304,-76.646086,PE-LIM,,
11872050,14480929,settlement,Chune,Chune,official,-11.878218,-76.645424,PE-LIM,,
11872052,14480972,hydrographic,"Quebrada San Juan","Quebrada San Juan",official,-11.911127,-76.620251,PE-LIM,,
11872053,14480973,hydrographic,"Quebrada Buenos Aires","Quebrada Buenos Aires",official,-11.899733,-76.583526,PE-LIM,,
11872055,14480975,spot,"Minas Nuestra Señora del Carmen","Minas Nuestra Senora del Carmen",official,-11.860094,-76.603505,PE-LIM,,
11872056,14480976,hypsographic,"Cerro Liula","Cerro Liula",official,-11.864863,-76.597517,PE-LIM,,
11872057,14480977,hypsographic,"Cerro Mollepata","Cerro Mollepata",official,-11.864969,-76.613892,PE-LIM,,
11872059,14480979,hypsographic,"Cerro Lloquepampa","Cerro Lloquepampa",official,-11.88092,-76.596828,PE-LIM,,
11872060,14480980,hypsographic,"Cerro Calera","Cerro Calera",official,-11.895017,-76.627883,PE-LIM,,
11872061,14480981,hypsographic,"Cerro Chaupimarca","Cerro Chaupimarca",official,-11.898567,-76.573352,PE-LIM,,
11872062,14480982,hypsographic,"Cerro Lagartija","Cerro Lagartija",official,-11.858663,-76.577909,PE-LIM,,
11872063,14480983,settlement,Purhuay,Purhuay,official,-11.9018,-76.590522,PE-LIM,,
11872064,14480984,settlement,"Sol y Campo","Sol y Campo",official,-11.905245,-76.596881,PE-LIM,,
11872065,14480985,settlement,Laya,Laya,official,-11.890565,-76.54182,PE-LIM,,
11872092,14480991,hypsographic,"Cerro Marian","Cerro Marian",official,-11.901111,-76.557559,PE-LIM,,
11872093,14481073,settlement,Huachinga,Huachinga,official,-11.908212,-76.606367,PE-LIM,,
11872094,14481074,hypsographic,"Cerro Suncho","Cerro Suncho",official,-11.875833,-76.563972,PE-LIM,,
11872095,14481075,hypsographic,"Cerro Calla","Cerro Calla",official,-11.879224,-76.5512,PE-LIM,,
11872096,14481076,settlement,Taricara,Taricara,official,-11.878748,-76.535779,PE-LIM,,
11872097,14481077,settlement,Lanca,Lanca,official,-11.882457,-76.541025,PE-LIM,,
11872098,14481079,settlement,Chillan,Chillan,official,-11.870268,-76.542085,PE-LIM,,
11872099,14481080,spot,"Minas Leonila","Minas Leonila",official,-11.902966,-76.570119,PE-LIM,,
11872100,14481081,settlement,Corcona,Corcona,official,-11.908265,-76.577644,PE-LIM,,
11872101,14481082,hydrographic,"Quebrada Molle","Quebrada Molle",official,-11.891519,-76.552313,PE-LIM,,
11872102,14481083,hydrographic,"Quebrada Urme","Quebrada Urme",official,-11.870162,-76.543887,PE-LIM,,
11872103,14481084,hydrographic,"Quebrada Chillan","Quebrada Chillan",official,-11.868255,-76.542509,PE-LIM,,
11872104,14481085,spot,"Señal Cerro Canchacalla","Senal Cerro Canchacalla",official,-11.830788,-76.504777,PE-LIM,,
11872106,14481086,settlement,Tullulme,Tullulme,official,-11.848117,-76.536415,PE-LIM,,
11872107,14481088,settlement,Maisal,Maisal,official,-11.864651,-76.541767,PE-LIM,,
11872113,14481059,settlement,Jano,Jano,official,-12.758345,-74.007068,PE-AYA,,
11872115,14481061,settlement,Pampalca,Pampalca,official,-12.750608,-74.074404,PE-AYA,,
11872116,14481062,settlement,Liaulli,Liaulli,official,-12.760588,-74.082759,PE-AYA,,
11872128,14481089,hypsographic,"Cerro Lomo Largo","Cerro Lomo Largo",official,-11.860836,-76.525869,PE-LIM,,
11872129,14481090,hypsographic,"Cerro Curimacas","Cerro Curimacas",official,-11.836723,-76.508275,PE-LIM,,
11872131,14481092,settlement,Sacayaure,Sacayaure,official,-11.85384,-76.531009,PE-LIM,,
11872132,14481093,settlement,Salpin,Salpin,official,-11.860465,-76.534295,PE-LIM,,
11872134,14481095,hypsographic,"Cerro Ticapampa","Cerro Ticapampa",official,-11.876575,-76.511984,PE-LIM,,
11872135,14481096,park,"Pampa Malafacha","Pampa Malafacha",official,-11.904397,-76.508063,PE-LIM,,
11872136,14481097,settlement,Oscolla,Oscolla,official,-11.901323,-76.533447,PE-LIM,,
11872137,14481098,hypsographic,"Cerro Chunga","Cerro Chunga",official,-11.914678,-76.501279,PE-LIM,,
11872139,14481100,hydrographic,"Quebrada Río Seco","Quebrada Rio Seco",official,-11.901588,-76.525975,PE-LIM,,
11872140,14481101,settlement,Pensa,Pensa,official,-11.918917,-76.550193,PE-LIM,,
11872141,14481102,settlement,Upex,Upex,official,-11.92003,-76.54235,PE-LIM,,
11872142,14481103,settlement,Carachacra,Carachacra,official,-11.914731,-76.563654,PE-LIM,,
11872144,14481106,hydrographic,"Río Cumbe","Rio Cumbe",official,-11.903708,-76.591264,PE-LIM,,
11872146,14481107,settlement,Cupiche,Cupiche,official,-11.912081,-76.611666,PE-LIM,,
11872147,14481110,hypsographic,"Cerro Santa Maria","Cerro Santa Maria",official,-11.915684,-76.745318,PE-LIM,,
11872149,14481112,hypsographic,"Cerro Yanacoto","Cerro Yanacoto",official,-11.923634,-76.729101,PE-LIM,,
11872157,14481121,spot,"Universidad Nacional de Educación Enrique Guzmán y Valle","Universidad Nacional de Educacion Enrique Guzman y Valle",official,-11.943188,-76.697888,PE-LIM,,
11872159,14481123,settlement,"Los Cóndores","Los Condores",official,-11.969156,-76.744099,PE-LIM,,
11872161,14481124,settlement,"Los Angeles","Los Angeles",official,-11.96216,-76.735514,PE-LIM,,
11872162,14481125,settlement,Chacrasana,Chacrasana,official,-11.956755,-76.737739,PE-LIM,,
11872163,14481126,settlement,"San Alberto","San Alberto",official,-11.962319,-76.748709,PE-LIM,,
11872164,14481128,hydrographic,"Quebrada California","Quebrada California",official,-11.956967,-76.718291,PE-LIM,,
11872165,14481129,hydrographic,"Quebrada Quirio","Quebrada Quirio",official,-11.935981,-76.710076,PE-LIM,,
11872166,14481130,hydrographic,"Quebrada Santa Maria","Quebrada Santa Maria",official,-11.944089,-76.726399,PE-LIM,,
11880381,14497854,settlement,Pucará,Pucara,official,-12.516076,-74.658062,PE-HUV,,
11872183,14481266,hydrographic,"Laguna Jarochajasa","Laguna Jarochajasa",official,-12.670151,-74.019403,PE-AYA,,
11872184,14481267,settlement,Japia,Japia,official,-12.658826,-74.011273,PE-AYA,,
11872185,14481268,hydrographic,"Laguna Rumicocha","Laguna Rumicocha",official,-12.659667,-74.046091,PE-AYA,,
11872187,14481270,hypsographic,"Cerro Piscohuica","Cerro Piscohuica",official,-12.675029,-74.015926,PE-AYA,,
11872188,14481159,hypsographic,"Cerro Verde Pollela","Cerro Verde Pollela",official,-12.762438,-74.075638,PE-AYA,,
11872189,14481160,hypsographic,"Cerro Huaman Pata","Cerro Huaman Pata",official,-12.749486,-74.015254,PE-AYA,,
11872192,14481162,hypsographic,"Cerro Ramirez Cucho","Cerro Ramirez Cucho",official,-12.738665,-74.005105,PE-AYA,,
11872194,14481164,hypsographic,"Cerro Huarachuilca","Cerro Huarachuilca",official,-12.731881,-74.050071,PE-AYA,,
11872195,14481165,hydrographic,"Quebrada Collpa","Quebrada Collpa",official,-12.743712,-74.037624,PE-AYA,,
11872196,14481166,hydrographic,"Quebrada Incaracay","Quebrada Incaracay",official,-12.725602,-74.03925,PE-AYA,,
11872197,14481167,park,Sinvacocha,Sinvacocha,official,-12.709623,-74.069078,PE-AYA,,
11872198,14481168,hydrographic,"Laguna Yanacocha","Laguna Yanacocha",official,-12.703399,-74.072106,PE-AYA,,
11872212,14481195,spot,"Central Hidroeléctrica Moyopampa","Central Hidroelectrica Moyopampa",official,-11.924664,-76.686895,PE-LIM,,
11872214,14481198,spot,"Ruinas San Pedro de Mama","Ruinas San Pedro de Mama",official,-11.923093,-76.655584,PE-LIM,,
11872215,14481199,settlement,Esperanza,Esperanza,official,-11.923905,-76.643667,PE-LIM,,
11872216,14481200,hydrographic,"Quebrada La Ronda","Quebrada La Ronda",official,-11.924447,-76.67839,PE-LIM,,
11872217,14481201,settlement,"Asentamiento Humano Trinchera","Asentamiento Humano Trinchera",official,-11.919788,-76.685703,PE-LIM,,
11872218,14481202,settlement,"Urbanización Vista Alegre","Urbanizacion Vista Alegre",official,-11.91085,-76.666744,PE-LIM,,
11872219,14481203,settlement,"Urbanización Villa Don Bosco","Urbanizacion Villa Don Bosco",official,-11.91773,-76.667881,PE-LIM,,
11872220,14481204,hypsographic,"Cerro Santa Ana","Cerro Santa Ana",official,-11.936365,-76.657209,PE-LIM,,
11872221,14481205,settlement,"Urbanización Santa Ana","Urbanizacion Santa Ana",official,-11.919301,-76.653797,PE-LIM,,
11872223,14481207,settlement,"Asentamiento Humano Santa Cruz de Piedra Grande","Asentamiento Humano Santa Cruz de Piedra Grande",official,-11.922551,-76.671077,PE-LIM,,
11872225,14481209,hydrographic,"Laguna Morococha","Laguna Morococha",official,-12.696279,-74.065322,PE-AYA,,
11872226,14481210,hydrographic,"Laguna Jejacocha","Laguna Jejacocha",official,-12.686299,-74.027925,PE-AYA,,
11872227,14481211,hydrographic,"Quebrada Huayco","Quebrada Huayco",official,-11.924718,-76.630232,PE-LIM,,
11872228,14481232,hydrographic,"Laguna Pisochuilca","Laguna Pisochuilca",official,-12.679907,-74.021589,PE-AYA,,
11872229,14481233,hydrographic,"Quebrada Santa","Quebrada Santa",official,-11.924339,-76.62904,PE-LIM,,
11872230,14481234,settlement,Chullasachayoc,Chullasachayoc,official,-12.699362,-74.034429,PE-AYA,,
11872232,14481235,settlement,Incaracay,Incaracay,official,-12.688597,-74.061397,PE-AYA,,
11872233,14481237,hydrographic,"Quebrada Cupiche","Quebrada Cupiche",official,-11.911175,-76.610297,PE-LIM,,
11872234,14481238,hydrographic,"Laguna Suitococha","Laguna Suitococha",official,-12.695101,-74.07205,PE-AYA,,
11872235,14481239,hypsographic,"Cerro Cajonniyoc","Cerro Cajonniyoc",official,-12.695494,-74.06734,PE-AYA,,
11872236,14481240,hypsographic,"Cerro Gato Viejo","Cerro Gato Viejo",official,-11.923093,-76.587762,PE-LIM,,
11872237,14481241,spot,"Señal Cerro Chimallan","Senal Cerro Chimallan",official,-11.93306,-76.566581,PE-LIM,,
11872239,14481242,hydrographic,"Quebrada Sisigaya","Quebrada Sisigaya",official,-11.923309,-76.549951,PE-LIM,,
11872240,14481244,hydrographic,"Quebrada Pate","Quebrada Pate",official,-11.915346,-76.547459,PE-LIM,,
11872241,14481245,hydrographic,"Quebrada Antioquia","Quebrada Antioquia",official,-11.923634,-76.550655,PE-LIM,,
11872242,14481246,hydrographic,"Quebrada Aqua Salada","Quebrada Aqua Salada",official,-11.92098,-76.551196,PE-LIM,,
11872244,14481247,hydrographic,"Quebrada Guayabo","Quebrada Guayabo",official,-11.909712,-76.568531,PE-LIM,,
11872245,14481248,hypsographic,"Cerro Suche","Cerro Suche",official,-11.960796,-76.539062,PE-LIM,,
11872246,14481250,hypsographic,"Cerro Antioquia","Cerro Antioquia",official,-11.957437,-76.55553,PE-LIM,,
11872247,14481251,settlement,Chilca,Chilca,official,-11.95072,-76.525357,PE-LIM,,
11872248,14481271,hypsographic,"Cerro Japia Capilla","Cerro Japia Capilla",official,-12.664993,-74.038409,PE-AYA,,
11872249,14481272,hypsographic,"Cerro Pucará","Cerro Pucara",official,-12.675309,-74.038802,PE-AYA,,
11872250,14481273,hypsographic,"Cerro Puncococha","Cerro Puncococha",official,-12.677216,-74.05366,PE-AYA,,
11872251,14481274,hypsographic,"Cerro Quiroquiro","Cerro Quiroquiro",official,-12.676711,-74.072386,PE-AYA,,
11872258,14481620,settlement,Pulperia,Pulperia,official,-12.548541,-74.124697,PE-AYA,,
11872259,14481621,hydrographic,"Quebrada Pachachacayaca","Quebrada Pachachacayaca",official,-12.536207,-74.11253,PE-AYA,,
11872268,14481292,settlement,Chaute,Chaute,official,-11.93864,-76.504988,PE-LIM,,
11872270,14481293,hydrographic,"Quebrada Barranco","Quebrada Barranco",official,-11.989615,-76.532182,PE-LIM,,
11872271,14481295,hypsographic,"Cerro Jeja Orjo Jeja","Cerro Jeja Orjo Jeja",official,-12.687532,-74.042726,PE-AYA,,
11872272,14481296,settlement,Hualapunco,Hualapunco,official,-11.980568,-76.531641,PE-LIM,,
11872273,14481297,hydrographic,"Laguna Pumacocha","Laguna Pumacocha",official,-12.670488,-74.065097,PE-AYA,,
11872275,14481299,hydrographic,"Quebrada Sicalica","Quebrada Sicalica",official,-11.990807,-76.597404,PE-LIM,,
11872276,14481300,hydrographic,"Laguna Sachacocha","Laguna Sachacocha",official,-12.647724,-74.043007,PE-AYA,,
11872277,14481301,hypsographic,"Cerro Irquejaja","Cerro Irquejaja",official,-12.651145,-74.007516,PE-AYA,,
11872278,14481302,hydrographic,"Quebrada Capilla","Quebrada Capilla",official,-12.645033,-74.017328,PE-AYA,,
11872280,14481304,hydrographic,"Quebrada Japia","Quebrada Japia",official,-12.630287,-74.012114,PE-AYA,,
11872281,14481305,hydrographic,"Quebrada Huancapampa","Quebrada Huancapampa",official,-12.64038,-74.050632,PE-AYA,,
11872282,14481306,hypsographic,"Cerro Janojasha","Cerro Janojasha",official,-12.652827,-74.063808,PE-AYA,,
11872287,14481311,settlement,Poronhuasi,Poronhuasi,official,-11.839646,-76.626322,PE-LIM,,
11872294,14481338,hypsographic,"Cerro Chupasca","Cerro Chupasca",official,-12.645201,-74.059883,PE-AYA,,
11872295,14481339,hydrographic,"Quebrada Cayamaran","Quebrada Cayamaran",official,-11.851943,-76.60227,PE-LIM,,
11872296,14481340,hypsographic,"Cerro Carcelhuayjo","Cerro Carcelhuayjo",official,-12.622102,-74.006563,PE-AYA,,
11872298,14481342,hydrographic,"Quebrada Japia","Quebrada Japia",official,-12.620364,-74.028205,PE-AYA,,
11872314,14481355,hydrographic,"Quebrada Tircos","Quebrada Tircos",official,-12.638642,-74.051305,PE-AYA,,
11872315,14481356,settlement,Sachacocha,Sachacocha,official,-12.64251,-74.048389,PE-AYA,,
11872316,14481358,settlement,Chupasca,Chupasca,official,-12.640043,-74.051753,PE-AYA,,
11872317,14481359,hydrographic,"Quebrada Santa María","Quebrada Santa Maria",official,-12.634717,-74.049903,PE-AYA,,
11872318,14481360,hydrographic,"Quebrada Suyomayo","Quebrada Suyomayo",official,-12.629446,-74.044745,PE-AYA,,
11872320,14481361,park,"Jatun Pampa","Jatun Pampa",official,-12.637296,-74.073171,PE-AYA,,
11872321,14481362,settlement,"Santa Maria","Santa Maria",official,-12.631745,-74.067564,PE-AYA,,
11872322,14481363,settlement,Sallipata,Sallipata,official,-12.630792,-74.076928,PE-AYA,,
11872323,14481364,settlement,Huayno,Huayno,official,-12.61386,-74.063808,PE-AYA,,
11872324,14481365,hydrographic,"Quebrada Carcelhuayjo","Quebrada Carcelhuayjo",official,-12.617,-74.022823,PE-AYA,,
11872354,14481402,hydrographic,"Quebrada Yanabamba","Quebrada Yanabamba",official,-12.634106,-74.048961,PE-AYA,,
11872355,14481403,hydrographic,"Quebrada Runtuhuayjo","Quebrada Runtuhuayjo",official,-12.619354,-74.029775,PE-AYA,,
11872356,14481404,hypsographic,"Cerro Callpirayoc","Cerro Callpirayoc",official,-12.619915,-74.066555,PE-AYA,,
11872357,14481405,hydrographic,"Quebrada Jatunhuayjo","Quebrada Jatunhuayjo",official,-12.625998,-74.038562,PE-AYA,,
11872358,14481406,settlement,Runtohuayjo,Runtohuayjo,official,-12.601637,-74.05865,PE-AYA,,
11872386,14481473,hydrographic,"Quebrada Mamalambo","Quebrada Mamalambo",official,-12.604384,-74.016992,PE-AYA,,
11872387,14481474,hydrographic,"Laguna Yanacocha","Laguna Yanacocha",official,-12.580444,-74.046763,PE-AYA,,
11872389,14481476,hypsographic,"Cerro San Jerónimo","Cerro San Jeronimo",official,-12.589695,-74.065378,PE-AYA,,
11872390,14481477,hypsographic,"Cerro Escalera","Cerro Escalera",official,-12.596423,-74.077096,PE-AYA,,
11872391,14481478,hydrographic,"Laguna Morococha","Laguna Morococha",official,-12.565922,-74.062799,PE-AYA,,
11872392,14481479,hypsographic,"Cerro Cascarilla Orjo","Cerro Cascarilla Orjo",official,-12.586779,-74.022879,PE-AYA,,
11872393,14481481,hydrographic,"Laguna Sachacocha","Laguna Sachacocha",official,-12.572594,-74.045642,PE-AYA,,
11872394,14481484,hydrographic,"Quebrada Cascarilla","Quebrada Cascarilla",official,-12.558129,-74.015366,PE-AYA,,
11872395,14481485,hydrographic,"Quebrada Negrohuayjo","Quebrada Negrohuayjo",official,-12.555886,-74.022935,PE-AYA,,
11872396,14481486,hypsographic,"Cerro Ajón","Cerro Ajon",official,-12.550055,-74.049567,PE-AYA,,
11872397,14481487,hypsographic,"Cerro Mitcay","Cerro Mitcay",official,-12.546243,-74.075974,PE-AYA,,
11872398,14481488,hydrographic,"Quebrada Mitcay","Quebrada Mitcay",official,-12.528077,-74.081581,PE-AYA,,
11872399,14481489,hydrographic,"Quebrada Jatun Pampa","Quebrada Jatun Pampa",official,-12.540524,-74.07048,PE-AYA,,
11872400,14481491,hydrographic,"Quebrada Chulamayo","Quebrada Chulamayo",official,-12.517985,-74.039362,PE-AYA,,
11872403,14481555,settlement,Amacachayoc,Amacachayoc,official,-12.51933,-74.105634,PE-AYA,,
11872404,14481556,settlement,Pachachaca,Pachachaca,official,-12.534244,-74.111353,PE-AYA,,
11872406,14481557,hydrographic,"Quebrada Negrohuayjo","Quebrada Negrohuayjo",official,-12.526058,-74.110119,PE-AYA,,
11872407,14481558,hydrographic,"Quebrada Amacachayoc","Quebrada Amacachayoc",official,-12.518097,-74.103335,PE-AYA,,
11872426,14481652,hydrographic,"Quebrada Yuracyacu","Quebrada Yuracyacu",official,-12.526227,-74.108606,PE-AYA,,
11872427,14481653,hydrographic,"Quebrada Jeullabamba","Quebrada Jeullabamba",official,-12.537465,-74.172859,PE-AYA,,
11872429,14481655,hydrographic,"Quebrada Pulperia","Quebrada Pulperia",official,-12.546243,-74.124809,PE-AYA,,
11872430,14481657,hydrographic,"Quebrada Carhuanchayoc","Quebrada Carhuanchayoc",official,-12.522198,-74.158225,PE-AYA,,
11872431,14481658,hypsographic,"Cerro Supay Orjo","Cerro Supay Orjo",official,-12.531217,-74.092514,PE-AYA,,
11872432,14481660,hypsographic,"Cerro Tirusca","Cerro Tirusca",official,-12.551905,-74.110456,PE-AYA,,
11872434,14481662,hydrographic,"Quebrada Pucayacu","Quebrada Pucayacu",official,-12.547364,-74.124753,PE-AYA,,
11872436,14481664,hydrographic,"Quebrada Pucayacu","Quebrada Pucayacu",official,-12.576407,-74.098794,PE-AYA,,
11872437,14481665,hypsographic,"Cerro Cuevas","Cerro Cuevas",official,-12.581453,-74.102494,PE-AYA,,
11872438,14481666,hydrographic,"Quebrada Saljantuyoc","Quebrada Saljantuyoc",official,-12.572931,-74.115502,PE-AYA,,
11872439,14481667,hydrographic,"Quebrada Cuevas","Quebrada Cuevas",official,-12.559531,-74.128565,PE-AYA,,
11872440,14481668,hypsographic,"Cerro Paijopata Orjo","Cerro Paijopata Orjo",official,-12.591545,-74.118081,PE-AYA,,
11872441,14481669,hydrographic,"Quebrada Chaquihuarjo","Quebrada Chaquihuarjo",official,-12.570352,-74.13535,PE-AYA,,
11872442,14481671,hydrographic,"Río Chuimacota","Rio Chuimacota",official,-12.545682,-74.123519,PE-AYA,,
11872443,14481693,hydrographic,"Quebrada Apulema","Quebrada Apulema",official,-12.576773,-74.141885,PE-AYA,,
11872444,14481694,hydrographic,"Laguna Ranracocha","Laguna Ranracocha",official,-12.607468,-74.094589,PE-AYA,,
11872445,14481695,hydrographic,"Laguna Tantarcocha","Laguna Tantarcocha",official,-12.613636,-74.079507,PE-AYA,,
11872446,14481696,hydrographic,"Laguna Yanacocha","Laguna Yanacocha",official,-12.619523,-74.084272,PE-AYA,,
11872447,14481697,hydrographic,"Laguna Yanahuilca","Laguna Yanahuilca",official,-12.625185,-74.090944,PE-AYA,,
11872448,14481699,hydrographic,"Laguna Ranacocha","Laguna Ranacocha",official,-12.611897,-74.112362,PE-AYA,,
11872449,14481700,hydrographic,"Laguna Patacocha","Laguna Patacocha",official,-12.630119,-74.133836,PE-AYA,,
11872450,14481701,settlement,Salli,Salli,official,-12.616159,-74.104793,PE-AYA,,
11872451,14481702,settlement,Minasjasa,Minasjasa,official,-12.608702,-74.127388,PE-AYA,,
11872452,14481703,settlement,Mama,Mama,official,-12.614757,-74.132714,PE-AYA,,
11872453,14481704,settlement,Ayapata,Ayapata,official,-12.61756,-74.148021,PE-AYA,,
11872454,14481705,settlement,Canchahuasi,Canchahuasi,official,-12.611281,-74.142919,PE-AYA,,
11872455,14481706,settlement,Llulluchapata,Llulluchapata,official,-12.60416,-74.148806,PE-AYA,,
11872456,14481707,settlement,Pampahuasi,Pampahuasi,official,-12.604945,-74.154244,PE-AYA,,
11872457,14481708,settlement,Huayjohuasi,Huayjohuasi,official,-12.612851,-74.158561,PE-AYA,,
11872458,14481709,settlement,Chichumichi,Chichumichi,official,-12.596815,-74.167476,PE-AYA,,
11872459,14481710,hydrographic,"Laguna Suitococha","Laguna Suitococha",official,-12.594797,-74.15744,PE-AYA,,
11872460,14481711,hydrographic,"Quebrada Yanarajay","Quebrada Yanarajay",official,-12.596927,-74.117969,PE-AYA,,
11872461,14481712,hydrographic,"Quebrada Jarapampa","Quebrada Jarapampa",official,-12.593563,-74.132434,PE-AYA,,
11872462,14481715,hypsographic,"Cerro Morococha","Cerro Morococha",official,-12.621821,-74.110063,PE-AYA,,
11872463,14481716,hypsographic,"Cerro Yanahuilca","Cerro Yanahuilca",official,-12.626923,-74.096607,PE-AYA,,
11872851,14482189,spot,"Central Hidroeléctrica Huinco","Central Hidroelectrica Huinco",official,-11.760574,-76.612538,PE-LIM,,
11875653,14490774,settlement,Pachanga,Pachanga,official,-12.781457,-74.220949,PE-AYA,,
11876107,14492003,hypsographic,"Cerro Matara","Cerro Matara",official,-12.966501,-74.336992,PE-AYA,,
11876019,14491446,settlement,Iscutacoj,Iscutacoj,official,-12.894082,-74.294654,PE-AYA,,
11875778,14491010,settlement,Chuñuna,Chununa,official,-12.59067,-74.190519,PE-AYA,,
11875849,14491086,hydrographic,"Quebrada Irapata","Quebrada Irapata",official,-12.53769,-74.282613,PE-AYA,,
11875796,14491029,hydrographic,"Quebrada Putis","Quebrada Putis",official,-12.578747,-74.159535,PE-AYA,,
11875989,14491355,hydrographic,"Quebrada Pacauhuayjo","Quebrada Pacauhuayjo",official,-12.823092,-74.289196,PE-AYA,,
11875812,14491066,hydrographic,"Laguna Yanacocha","Laguna Yanacocha",official,-12.536381,-74.174214,PE-AYA,,
11875682,14490803,hypsographic,"Cerro Puconjasha","Cerro Puconjasha",official,-12.723198,-74.213912,PE-AYA,,
