wgdPlaceId,wgdId,type,name,fullName,nameType,latitude,longitude,administrationGroup,isHistorical,isCapital
-844813,-1258755,settlement,Pác,Pac,official,48.303213,17.521641,SK-TA,,
-842012,-1254803,settlement,Foltan,Foltan,official,48.55,18.55,SK-NI,,
-846704,-1261251,hydrographic,Udoč,Udoc,official,48.516667,22.033333,SK-KI,,
-1984757,-2767758,hydrographic,Morva,Morva,variant,48.166667,16.983333,S1-000,,
-1984757,-2766804,hydrographic,Morava,Morava,official,48.166667,16.983333,S1-000,,
-1984757,-2766803,hydrographic,March,March,official,48.166667,16.983333,S1-000,,
-1154783,15216777,hypsographic,Karpaty,Karpaty,official,47,25.5,S1-000,,
-1154783,15216778,hypsographic,Karpaty,Karpaty,official,47,25.5,S1-000,,
-1154783,-1714302,hypsographic,Karpátok,Karpatok,official,47,25.5,S1-000,,
-1154783,-1702875,hypsographic,"Carpathian Mountains","Carpathian Mountains",colloquial,47,25.5,S1-000,,
-1154783,-1702876,hypsographic,Carpathians,Carpathians,colloquial,47,25.5,S1-000,,
-1154783,15216779,hypsographic,Karpaty,Karpaty,official,47,25.5,S1-000,,
-1154783,-1714303,hypsographic,Karpaty,Karpaty,official,47,25.5,S1-000,,
-1154783,-1702874,hypsographic,Carpates,Carpates,variant,47,25.5,S1-000,,
-1154783,-1702877,hypsographic,"Munţii Carpaţi","Muntii Carpati",official,47,25.5,S1-000,,
-1154783,15216776,hypsographic,Karpati,Karpati,official,47,25.5,S1-000,,
-1154783,-1702878,hypsographic,Carpaţii,Carpatii,official,47,25.5,S1-000,,
-1154783,-1714301,hypsographic,Karpaten,Karpaten,official,47,25.5,S1-000,,
-1154783,15216785,hypsographic,Карпати,Карпати,unknown,47,25.5,S1-000,,
-1154783,15216782,hypsographic,Карпати,Карпати,unknown,47,25.5,S1-000,,
-1057111,-1569884,hydrographic,Ulička,Ulicka,official,48.933333,22.466667,S1-000,,
-1057111,-1569890,hydrographic,Uliczka,Uliczka,variant,48.933333,22.466667,S1-000,,
-1057111,-1569881,hydrographic,Ul’cheska,Ul'cheska,variant,48.933333,22.466667,S1-000,,
-1057111,-1569883,hydrographic,Ulichka,Ulichka,variant,48.933333,22.466667,S1-000,,
-1057111,-1569970,hydrographic,Ulychpa,Ulychpa,variant,48.933333,22.466667,S1-000,,
-1057111,-1569971,hydrographic,Ulyčka,Ulycka,variant,48.933333,22.466667,S1-000,,
-1057111,-1569888,hydrographic,Ulichska,Ulichska,variant,48.933333,22.466667,S1-000,,
-1056337,338986,hydrographic,Tisza,Tisza,official,45.138056,20.2775,S1-000,,
-1056337,400944,hydrographic,Tysa,Tysa,official,45.138056,20.2775,S1-000,,
-1056337,205435,hydrographic,Tisa,Tisa,official,45.138056,20.2775,S1-000,,
-1055329,-1566771,hypsographic,"Khrebet Stinka","Khrebet Stinka",variant,49.016667,22.533333,S1-000,,
-1055329,17507116,hypsographic,"Khrebet Stynka","Khrebet Stynka",official,49.016667,22.533333,S1-000,,
-1055329,-1566772,hypsographic,Stinka,Stinka,official,49.016667,22.533333,S1-000,,
-1055329,-1565055,hypsographic,"Khrebet Slinka","Khrebet Slinka",variant,49.016667,22.533333,S1-000,,
-1055329,17507160,hypsographic,"Хребет Стинка","Хребет Стинка",unknown,49.016667,22.533333,S1-000,,
-1051418,-1560315,hypsographic,"Potiská Nížina","Potiska Nizina",official,48.583333,22,S1-000,,
-1051418,-1560314,hypsographic,"Potiskaya Nizmennost’","Potiskaya Nizmennost'",official,48.583333,22,S1-000,,
-1044463,-1548859,hydrographic,Latorza,Latorza,variant,48.455039,21.826174,S1-000,,
-1044463,14028680,hydrographic,Latorytsya,Latorytsya,official,48.455039,21.826174,S1-000,,
-1044463,-1548856,hydrographic,Latoritsa,Latoritsa,variant,48.455039,21.826174,S1-000,,
-1044463,-1548858,hydrographic,Latoritsya,Latoritsya,variant,48.455039,21.826174,S1-000,,
-1044463,-1548857,hydrographic,Latorica,Latorica,official,48.455039,21.826174,S1-000,,
-1044463,14028681,hydrographic,Латориця,Латориця,unknown,48.455039,21.826174,S1-000,,
-870775,-1292089,hypsographic,"Gory Zemplen","Gory Zemplen",variant,48.5,21.5,S1-000,,
-870775,-1268801,hypsographic,Eperjes-Tokaji-hegysor,Eperjes-Tokaji-hegysor,variant,48.5,21.5,S1-000,,
-870775,-1292091,hypsographic,Zempléni-hegység,Zempleni-hegyseg,official,48.5,21.5,S1-000,,
-870775,-1292092,hypsographic,"Prešovsko-Tojaské Pohoří","Presovsko-Tojaske Pohori",official,48.5,21.5,S1-000,,
-870775,-1268800,hypsographic,"Eperjes-Tokaji Hegység","Eperjes-Tokaji Hegyseg",variant,48.5,21.5,S1-000,,
-870775,-1284270,hypsographic,"Prešovsko-Tokajské Pohoří","Presovsko-Tokajske Pohori",variant,48.5,21.5,S1-000,,
-870775,-1289487,hypsographic,"Tokaj-Eperjes Mountains","Tokaj-Eperjes Mountains",variant,48.5,21.5,S1-000,,
-870775,-1292094,hypsographic,Zempléni-szigethegység,Zempleni-szigethegyseg,variant,48.5,21.5,S1-000,,
-870775,-1292093,hypsographic,"Zempléni Hegysor","Zempleni Hegysor",variant,48.5,21.5,S1-000,,
-870775,-1268802,hypsographic,"Eperjes-Tokaj Mountains","Eperjes-Tokaj Mountains",variant,48.5,21.5,S1-000,,
-867772,-1288303,hypsographic,Szőllő-tető,Szollo-teto,official,48.266667,20.316667,S1-000,,
-867772,-1288304,hypsographic,"Agácos Hora","Agacos Hora",official,48.266667,20.316667,S1-000,,
-847451,-1262272,settlement,Ždaňa,Zdana,official,48.601306,21.349101,SK-KI,,
-847323,-1262105,hypsographic,Vysoká,Vysoka,official,49.549167,19.447312,SK-ZI,,
-847450,-1262271,settlement,Zbyňov,Zbynov,official,49.120808,18.648665,SK-ZI,,
-847449,-1262270,settlement,Zbudza,Zbudza,official,48.814425,21.893235,SK-KI,,
-865439,-1285205,hydrographic,Roňva,Ronva,variant,48.333333,21.616667,S1-000,,
-863642,-1282793,hypsographic,Ortás,Ortas,official,48.516667,21.083333,S1-000,,
-865439,-1265947,hydrographic,Bózsva,Bozsva,variant,48.333333,21.616667,S1-000,,
-865439,-1285208,hydrographic,Roňava,Ronava,official,48.333333,21.616667,S1-000,,
-847452,-1262273,hypsographic,Ždiar,Zdiar,official,48.896645,19.500883,SK-BC,,
-865439,-1285209,hydrographic,Ronyva-árapasztó,Ronyva-arapaszto,variant,48.333333,21.616667,S1-000,,
-865439,-1279205,hydrographic,Malompatak,Malompatak,variant,48.333333,21.616667,S1-000,,
-865439,-1285210,hydrographic,"Ronyva Patak","Ronyva Patak",variant,48.333333,21.616667,S1-000,,
-865439,-1285207,hydrographic,Ronyva,Ronyva,official,48.333333,21.616667,S1-000,,
-861821,-1280434,hydrographic,"Mosoni Dunaág","Mosoni Dunaag",variant,47.733333,17.783333,S1-000,,
-861821,-1278580,hydrographic,"Little Danube River","Little Danube River",variant,47.733333,17.783333,S1-000,,
-847320,-1262102,hypsographic,Vysoká,Vysoka,official,48.813776,19.271941,SK-BC,,
-862407,-1281220,hypsographic,"Vel’ký Milič","Vel'ky Milic",official,48.583333,21.466667,S1-000,,
-861821,-1275764,hydrographic,"Kis Duna","Kis Duna",variant,47.733333,17.783333,S1-000,,
-847319,-1262101,hypsographic,Vysoká,Vysoka,official,48.754737,19.380712,SK-BC,,
-861821,-1279235,hydrographic,"Malý Dunaj","Maly Dunaj",short,47.733333,17.783333,S1-000,,
-862407,-1281219,hypsographic,"Nagy Milic","Nagy Milic",official,48.583333,21.466667,S1-000,,
-847318,-1262100,hypsographic,Vysoká,Vysoka,official,48.417794,17.217138,SK-BL,,
-847322,-1262104,hypsographic,Vysoká,Vysoka,official,49.438179,18.611965,SK-ZI,,
-861245,-1279696,hypsographic,Medves,Medves,official,48.167143,19.885141,S1-000,,
-847321,-1262103,hypsographic,Vysoká,Vysoka,official,48.987254,19.454947,SK-ZI,,
-862407,-1281221,hypsographic,"Nagy Milicz","Nagy Milicz",variant,48.583333,21.466667,S1-000,,
-847075,-1261759,settlement,Vieska,Vieska,official,48.671088,18.514123,SK-NI,,
-861245,-1279697,hypsographic,"Medves Magasa","Medves Magasa",variant,48.167143,19.885141,S1-000,,
-861821,-1276590,hydrographic,"Kleine Donau","Kleine Donau",variant,47.733333,17.783333,S1-000,,
-862407,-1291248,hypsographic,"Vel’ký Milica","Vel'ky Milica",variant,48.583333,21.466667,S1-000,,
-861821,14734702,hydrographic,"Little Danube","Little Danube",variant,47.733333,17.783333,S1-000,,
-847074,-1261758,settlement,Vieska,Vieska,official,48.583333,18.883333,SK-BC,,
-861821,-1280433,hydrographic,Mosoni-Duna,Mosoni-Duna,official,47.733333,17.783333,S1-000,,
-861821,-1275766,hydrographic,"Kis Dunaág","Kis Dunaag",variant,47.733333,17.783333,S1-000,,
-861821,-1276589,hydrographic,"Klein Dunau","Klein Dunau",variant,47.733333,17.783333,S1-000,,
-862407,-1280127,hypsographic,Milič,Milic,variant,48.583333,21.466667,S1-000,,
-846677,-1261215,hypsographic,Turová,Turova,official,49.333333,20.55,SK-PV,,
-846308,-1260625,hypsographic,Sud,Sud,variant,48.56958,18.92455,SK-BC,,
-847073,-1261757,settlement,Vieska,Vieska,official,48.261312,19.46661,SK-BC,,
-846438,-1260875,settlement,Tarnov,Tarnov,official,49.320399,21.171637,SK-PV,,
-846678,-1261216,settlement,Turová,Turova,official,48.598536,19.053915,SK-BC,,
-846809,-1261414,settlement,Valkov,Valkov,official,49.063579,21.652563,SK-PV,,
-846437,-1260874,settlement,Tárnok,Tarnok,official,48.24183,17.540191,SK-TA,,
-846676,-1261213,hypsographic,Turniky,Turniky,official,48.707364,19.50083,SK-BC,,
-846309,-1260663,settlement,Sútor,Sutor,official,48.352778,20.121912,SK-BC,,
-857257,-1274579,hydrographic,Karcsa,Karcsa,official,48.366667,21.7,S1-000,,
-846183,-1260504,hypsographic,Stráža,Straza,official,49.02462,18.449372,SK-NI,,
-846233,-1260574,hypsographic,Strukár,Strukar,official,48.900722,19.462559,SK-BC,,
-846306,-1260660,settlement,Sušany,Susany,official,48.412922,19.890603,SK-BC,,
-846234,-1260575,hypsographic,Strunga,Strunga,official,48.65,19.5,SK-BC,,
-857257,-1274561,hydrographic,Karča,Karca,variant,48.366667,21.7,S1-000,,
-846307,-1260661,settlement,Šušty,Susty,official,48.8,17.433333,SK-NI,,
-846308,-1260662,hypsographic,Suť,Sut',official,48.56958,18.92455,SK-BC,,
-857257,-1274581,hydrographic,"Karcsa Ér","Karcsa Er",variant,48.366667,21.7,S1-000,,
-857257,-1274580,hydrographic,"Malá Karčava","Mala Karcava",official,48.366667,21.7,S1-000,,
-856338,-1268675,hydrographic,Eipel,Eipel,variant,47.818074,18.848428,S1-000,,
-856338,-1273415,hydrographic,Ipel’,Ipel',official,47.818074,18.848428,S1-000,,
-856338,-1273414,hydrographic,Ipoly,Ipoly,official,47.818074,18.848428,S1-000,,
-846182,-1260503,hypsographic,Stráža,Straza,official,48.867982,21.220496,SK-PV,,
-846156,-1260471,hypsographic,Stoh,Stoh,official,49.211923,19.096447,SK-ZI,,
-846180,-1260500,spot,Stráž,Straz,official,48.583333,19.1,SK-BC,,
-846181,-1260502,hypsographic,Stráža,Straza,official,48.733445,19.285479,SK-BC,,
-845959,-1260233,settlement,Smilno,Smilno,official,49.385766,21.35251,SK-PV,,
-846008,-1260288,settlement,Soľ,Sol',official,48.927765,21.599465,SK-PV,,
-845806,-1260046,hypsographic,Šíp,Sip,official,49.164923,19.179365,SK-ZI,,
-845879,-1260126,settlement,Skýcov,Skycov,official,48.502893,18.420784,SK-NI,,
-850100,-1265449,park,Bodrogköz,Bodrogkoz,official,48.25,21.75,S1-000,,
-845766,-1259987,settlement,Senné,Senne,official,48.309758,19.396492,SK-BC,,
-847409,-1262339,settlement,Zétény,Zeteny,variant,48.475824,21.90394,SK-KI,,
-847560,-1262409,hypsographic,"Žobrácky Vrch","Zobracky Vrch",official,49.25,21.166667,SK-PV,,
-847200,-1261915,settlement,Vrbovce,Vrbovce,variant,48.451091,19.958719,SK-BC,,
-847313,-1262095,settlement,"Vyšný Tvarožec","Vysny Tvarozec",official,49.382301,21.195794,SK-PV,,
-847395,-1262136,administrative_region,"Western Slovakia Region","Western Slovakia Region",variant,48.333333,18,SK-000,1,
-847328,-1255238,hypsographic,"Hohe Tátra","Hohe Tatra",variant,49.166667,20,S1-000,,
-847521,-1262459,settlement,Żylina,Zylina,variant,49.216667,18.733333,SK-ZI,,
-847181,-1258217,settlement,"Nekyje na Ostrove","Nekyje na Ostrove",variant,47.942928,17.601128,SK-TA,,
-847337,-1262134,hypsographic,"West Beskid Mountains","West Beskid Mountains",variant,49.5,19.5,SK-ZI,,
-847385,-1262196,settlement,Zálubie,Zalubie,official,49.35,18.516667,SK-ZI,,
-847307,-1262062,settlement,"Vyšní Orlík","Vysni Orlik",variant,49.343448,21.502058,SK-PV,,
-847467,-1262293,spot,"Železná Brána","Zelezna Brana",official,48.416667,20.2,SK-BC,,
-847392,-1262204,hypsographic,Zámrzlá,Zamrzla,official,48.8,19.783333,SK-BC,,
-847421,-1262239,settlement,Závadka,Zavadka,official,48.865832,20.618423,SK-KI,,
-847294,-1262071,settlement,"Vyšný Blh","Vysny Blh",official,48.45,20.116667,SK-BC,,
-847297,-1262074,settlement,"Vyšný Hámor","Vysny Hamor",official,48.60296,20.480004,SK-KI,,
-847146,-1254739,settlement,Farkašovce,Farkasovce,variant,49.059742,20.429814,SK-PV,,
-847164,-1261872,settlement,Volavec,Volavec,official,48.653584,17.645762,SK-TA,,
-847540,-1262386,hypsographic,"Zlatá Studňa","Zlata Studna",official,48.715277,19.005502,SK-BC,,
-847009,-1261663,hypsographic,"Veľký Kriváň","Vel'ky Krivan",official,49.18842,19.030526,SK-ZI,,
-847076,-1261760,settlement,Vieska,Vieska,official,48.698875,17.849222,SK-NI,,
-847020,-1258156,settlement,"Nagy Megyer","Nagy Megyer",variant,47.855499,17.768313,SK-TA,,
-847139,-1261845,settlement,Vlčkovia,Vlckovia,official,48.762444,17.597068,SK-NI,,
-847465,-1262412,settlement,Zöldállás,Zoldallas,variant,47.85217,18.170589,SK-NI,,
-847107,-1261804,settlement,Vislanka,Vislanka,official,49.235365,20.861214,SK-PV,,
-847086,-1261770,administrative_region,"Vígľašská Huta-Kalinka","Vigl'asska Huta-Kalinka",official,48.483333,19.283333,SK-000,1,
-847080,-1261764,settlement,Vieska-Bezdedov,Vieska-Bezdedov,official,49.133637,18.29955,SK-NI,,
-847135,-1261840,settlement,Vlčany,Vlcany,official,48.030966,17.952139,SK-NI,,
-847005,-1261659,hypsographic,"Veľký Kogl","Vel'ky Kogl",official,48.366667,17.266667,SK-BL,,
-847261,-1262028,settlement,"Vyšnia Myšľa","Vysnia Mysl'a",variant,48.635289,21.388935,SK-KI,,
-847394,-1262206,settlement,"Zánska Lúka","Zanska Luka",official,48.233333,17.766667,SK-TA,,
-847225,-1253049,settlement,Bierbrunn,Bierbrunn,variant,49.234312,20.398059,SK-PV,,
-847278,-1262006,settlement,"Vyšné Hrable","Vysne Hrable",official,48.813121,20.68662,SK-KI,,
-847285,-1259528,settlement,Raslavice,Raslavice,variant,49.150547,21.315406,SK-PV,,
-847491,-1262323,settlement,Žemliary,Zemliary,variant,48.148314,18.603717,SK-NI,,
-847382,-1262193,settlement,Zálesie,Zalesie,official,49.326066,20.387444,SK-PV,,
-847492,-1260831,settlement,Szimő,Szimo,variant,47.985931,17.994443,SK-NI,,
-847561,-1262410,hypsographic,Žobrák,Zobrak,official,48.383333,19.166667,SK-BC,,
-847152,-1261859,settlement,Vojčice,Vojcice,official,48.678381,21.715806,SK-KI,,
-847376,-1262184,settlement,Zákopčie,Zakopcie,official,49.407278,18.731785,SK-ZI,,
-847017,-1261671,settlement,"Veľký Lom","Vel'ky Lom",official,48.338076,19.371587,SK-BC,,
-847029,-1261691,hypsographic,"Veľký Rozsutec","Vel'ky Rozsutec",official,49.231846,19.096865,SK-ZI,,
-847567,-1262419,hypsographic,Zrazy,Zrazy,official,48.754998,19.729637,SK-BC,,
-847181,-1258506,settlement,Nyék,Nyek,variant,47.942928,17.601128,SK-TA,,
-847464,-1262289,settlement,Zeleneč,Zelenec,official,48.328972,17.595353,SK-TA,,
-847155,-1261862,settlement,"Vojka nad Dunajom","Vojka nad Dunajom",official,47.973455,17.381484,SK-TA,,
-847071,-1261755,spot,Vieska,Vieska,official,48.491791,17.978093,SK-NI,,
-847515,-1262358,spot,Žigovci,Zigovci,official,48.5,19.066667,SK-BC,,
-847202,-1261921,settlement,Vrbovec,Vrbovec,official,48.736311,21.95151,SK-KI,,
-847572,-1260481,hypsographic,Stracený,Straceny,variant,48.65,19.55,SK-BC,,
-847078,-1261762,settlement,Vieska,Vieska,official,48.866667,18.85,SK-ZI,,
-847043,-1261710,hypsographic,Veperec,Veperec,official,48.266667,18.85,SK-BC,,
-847545,-1262391,settlement,"Zlatná na Ostrove","Zlatna na Ostrove",official,47.766667,17.966667,SK-NI,,
-847137,-1261843,settlement,Vlčkovany,Vlckovany,official,48.766667,17.233333,SK-TA,,
-847552,-1262399,settlement,Zlatovce,Zlatovce,official,48.904312,18.007531,SK-NI,,
-847109,-1261807,settlement,Višňov,Visnov,official,48.748381,21.668598,SK-KI,,
-847007,-1261661,settlement,"Veľký Konkoľ","Vel'ky Konkol'",official,47.85,18.2,SK-NI,,
-847057,-1261735,settlement,Veskoc,Veskoc,variant,48.563037,22.102016,SK-KI,,
-847307,-1262089,settlement,"Vyšný Orlík","Vysny Orlik",official,49.343448,21.502058,SK-PV,,
-847221,-1261943,settlement,Vtáčkovce,Vtackovce,official,48.842923,21.38198,SK-KI,,
-847035,-1261698,hypsographic,"Veľký Tríbeč","Vel'ky Tribec",official,48.469185,18.239518,SK-NI,,
-847388,-1262199,hypsographic,Zámek,Zamek,official,48.983333,21.35,SK-PV,,
-847135,-1254735,settlement,Farkašd,Farkasd,variant,48.030966,17.952139,SK-NI,,
-847352,-1262159,settlement,Zabzó,Zabzo,official,48.366667,19.883333,SK-BC,,
-847128,-1261829,settlement,Vlachovo,Vlachovo,official,48.772529,20.415971,SK-KI,,
-847156,-1261863,settlement,Vojkovce,Vojkovce,official,48.953321,20.862737,SK-KI,,
-847198,-1261916,settlement,Vrbovce,Vrbovce,official,48.7,21.666667,SK-KI,,
-847548,-1262398,spot,"Hájoveň Zlatno","Hajoven Zlatno",variant,48.5,18.466667,SK-NI,,
-847236,-1261963,settlement,Vydrník,Vydrnik,official,49.000606,20.406566,SK-PV,,
-847267,-1261995,settlement,"Vyšná Radvaň","Vysna Radvan",official,49.129642,21.928062,SK-PV,,
-847258,-1262054,settlement,"Vyšní Kamenica","Vysni Kamenica",variant,48.77852,21.485574,SK-KI,,
-847032,-1254992,settlement,"Gross Schagendorf","Gross Schagendorf",variant,49.093305,20.282584,SK-PV,,
-847294,-1262034,settlement,"Vyšní Blh","Vysni Blh",variant,48.45,20.116667,SK-BC,,
-847395,-1262208,administrative_region,Západoslovensko,Zapadoslovensko,variant,48.333333,18,SK-000,1,
-847518,-1262428,settlement,Zsigárd,Zsigard,variant,48.072309,17.886739,SK-NI,,
-847532,-1253926,settlement,"Ďarmoty nad Žitavou","Darmoty nad Zitavou",variant,48.202194,18.300781,SK-NI,,
-847012,-1256997,settlement,"Kýr Nitriansky","Kyr Nitriansky",variant,48.182454,18.157333,SK-NI,,
-847042,-1261708,settlement,Venecia,Venecia,official,49.293353,21.075251,SK-PV,,
-847019,-1261675,hypsographic,"Veľký Manín","Vel'ky Manin",official,49.126938,18.496947,SK-NI,,
-847084,-1261768,spot,"Železničná Stanica Vígľaš","Zeleznicna Stanica Vigl'as",official,48.55,19.283333,SK-BC,,
-847381,-1262190,hypsographic,Zalas,Zalas,variant,48.398808,19.124699,SK-BC,,
-847488,-1262310,settlement,"Zemianska Kerť","Zemianska Kert'",variant,48.329954,17.819902,SK-TA,,
-847221,-1259391,settlement,Ptáčkovce,Ptackovce,variant,48.842923,21.38198,SK-KI,,
-847180,-1261893,settlement,Vrádište,Vradiste,official,48.823606,17.190932,SK-TA,,
-847060,-1261740,hypsographic,"Széles Lápos","Szeles Lapos",official,48.35,20.4,SK-BC,,
-847577,-1262408,hypsographic,Zobor,Zobor,variant,48.345878,18.108406,SK-NI,,
-847118,-1261817,settlement,Vitanová,Vitanova,official,49.354794,19.730569,SK-ZI,,
-847337,-1262135,hypsographic,"West Beskids","West Beskids",official,49.5,19.5,SK-ZI,,
-847101,-1261797,hypsographic,Vinohrádky,Vinohradky,official,48.667057,17.13405,SK-TA,,
-847310,-1262092,settlement,"Vyšný Slavkov","Vysny Slavkov",official,49.072122,20.854315,SK-PV,,
-847357,-1262164,settlement,Žadovica,Zadovica,official,48.725946,17.662282,SK-NI,,
-847290,-1254373,settlement,"Druzbaki Wyżny","Druzbaki Wyzny",variant,49.30387,20.565577,SK-PV,,
-847032,-1261694,settlement,"Veľký Slavkov","Vel'ky Slavkov",official,49.093305,20.282584,SK-PV,,
-847539,-1262385,settlement,"Zlatá Itka","Zlata Itka",variant,48.752018,21.006974,SK-KI,,
-847579,-1262442,settlement,Zubrohlava,Zubrohlava,official,49.44544,19.511705,SK-ZI,,
-847303,-1262056,settlement,"Vyšní Kubín","Vysni Kubin",variant,49.184361,19.317018,SK-ZI,,
-847272,-1262067,settlement,"Vyšní Slana","Vysni Slana",variant,48.786075,20.318352,SK-KI,,
-847529,-1262427,settlement,Zsére,Zsere,variant,48.377661,18.175144,SK-NI,,
-847008,-1261662,hypsographic,"Veľký Korčín","Vel'ky Korcin",official,48.510184,19.278542,SK-BC,,
-847172,-1261882,settlement,"V Oraviciach","V Oraviciach",official,49.3,19.75,SK-ZI,,
-847090,-1261784,spot,Vilmos,Vilmos,official,48.05,17.566667,SK-TA,,
-847526,-1262369,settlement,"Zimná Studňa","Zimna Studna",official,49.063933,21.379697,SK-PV,,
-847261,-1262059,settlement,"Vyšní Myšla","Vysni Mysla",variant,48.635289,21.388935,SK-KI,,
-847328,-1255175,hypsographic,"High Tátra","High Tatra",variant,49.166667,20,S1-000,,
-847012,-1261666,settlement,"Veľký Kýr","Vel'ky Kyr",official,48.182454,18.157333,SK-NI,,
-847277,-1262005,settlement,"Vyšné Hágy","Vysne Hagy",official,49.120928,20.125432,SK-PV,,
-847441,-1262260,settlement,Zbora,Zbora,official,49.18359,18.28208,SK-NI,,
-847342,-1262148,settlement,Žabica,Zabica,official,48.583333,19.616667,SK-BC,,
-847476,-1262423,settlement,Zsély,Zsely,variant,48.123622,19.355934,SK-BC,,
-847131,-1261832,hydrographic,Vlaka,Vlaka,official,49.066667,18.3,SK-NI,,
-847590,-1262455,hypsographic,Zvonárka,Zvonarka,official,49.099637,20.466572,SK-PV,,
-847105,-1261801,settlement,Violinpuszta,Violinpuszta,official,47.833333,17.983333,SK-NI,,
-847473,-1262422,settlement,Zseliz,Zseliz,variant,48.050753,18.654208,SK-NI,,
-847027,-1261689,hypsographic,"Veľký Ptačí Vrch","Vel'ky Ptaci Vrch",official,48.766667,20.733333,SK-KI,,
-845741,-1259952,settlement,Sekule,Sekule,official,48.601002,17.003787,SK-TA,,
-847163,-1261871,settlement,Voľa,Vol'a,official,48.844964,21.850821,SK-KI,,
-847352,-1254678,settlement,"Dvor Zabzó","Dvor Zabzo",variant,48.366667,19.883333,SK-BC,,
-847512,-1262352,spot,"Pusta Zichy","Pusta Zichy",variant,48.4,19.283333,SK-BC,,
-847562,-1262411,settlement,Žofia,Zofia,official,48.018214,18.05588,SK-NI,,
-847510,-1262350,hypsographic,Žibrid,Zibrid,official,49.126888,18.609553,SK-ZI,,
-847196,-1254793,settlement,Fišar,Fisar,variant,48.681272,21.887836,SK-KI,,
-847166,-1261874,settlement,Volica,Volica,official,49.155655,21.918199,SK-PV,,
-847090,-1261785,spot,"Dvor Vilmos","Dvor Vilmos",variant,48.05,17.566667,SK-TA,,
-847098,-1261793,hypsographic,Viničná,Vinicna,official,48.780693,21.279496,SK-KI,,
-847442,-1262261,settlement,Zborov,Zborov,official,49.368707,21.308001,SK-PV,,
-847245,-1261972,hypsographic,Vyhorlat,Vyhorlat,official,48.833333,22.25,SK-KI,,
-847527,-1262370,settlement,Žíp,Zip,official,48.364237,20.203258,SK-BC,,
-847185,-1261902,spot,"Železničná Stanica Vranov nad Topľou","Zeleznicna Stanica Vranov nad Topl'ou",variant,48.883333,21.666667,SK-PV,,
-847301,-1262077,settlement,"Vyšnyj Komarnik","Vysnyj Komarnik",variant,49.402112,21.705602,SK-000,,
-847349,-1255101,settlement,Haršag,Harsag,variant,48.945099,21.289774,SK-PV,,
-847372,-1262180,settlement,Zákamenné,Zakamenne,official,49.388589,19.292941,SK-ZI,,
-847440,-1262259,settlement,Zboj,Zboj,official,49.027887,22.480171,SK-PV,,
-847132,-1261834,hydrographic,Vlára,Vlara,official,48.956742,18.112895,SK-NI,,
-847311,-1262093,settlement,"Vyšný Sliač","Vysny Sliac",official,49.055983,19.407951,SK-ZI,,
-847234,-1262131,hydrographic,Weidritz,Weidritz,variant,48.144394,17.072299,SK-000,,
-847482,-1262313,settlement,"Zemianska Olča","Zemianska Olca",official,47.809582,17.867734,SK-NI,,
-847418,-1262236,settlement,Závada,Zavada,official,49.067923,20.652753,SK-PV,,
-847142,-1261848,settlement,Vlkanová,Vlkanova,official,48.671288,19.146067,SK-BC,,
-847111,-1261813,settlement,Visnyó,Visnyo,variant,48.515824,20.187858,SK-BC,,
-847469,-1262297,settlement,Železné,Zelezne,official,48.954008,19.393597,SK-ZI,,
-847263,-1262030,settlement,"Vyšnia Oľšava","Vysnia Ol'sava",variant,49.158844,21.601933,SK-PV,,
-847337,-1252990,hypsographic,"Beskidy Zachodnie","Beskidy Zachodnie",variant,49.5,19.5,SK-ZI,,
-847251,-1261978,settlement,"Vyškovce nad Ipľom","Vyskovce nad Ipl'om",official,48.055745,18.867779,SK-NI,,
-847231,-1261958,hydrographic,Vyčoma,Vycoma,official,48.573115,18.217847,SK-000,,
-847183,-1261896,settlement,Vranie,Vranie,official,49.258421,18.741297,SK-ZI,,
-847012,-1258149,settlement,Nagy-Kér,Nagy-Ker,variant,48.182454,18.157333,SK-NI,,
-847589,-1262454,settlement,"Zvolenské Nemce","Zvolenske Nemce",official,48.762224,19.185318,SK-BC,,
-847309,-1262066,settlement,"Vyšní Skálnik","Vysni Skalnik",variant,48.464191,19.964191,SK-BC,,
-847262,-1262060,settlement,"Vyšní Olka","Vysni Olka",variant,49.15,21.85,SK-PV,,
-847491,-1262322,settlement,Žemliare,Zemliare,official,48.148314,18.603717,SK-NI,,
-847500,-1262338,hydrographic,Zerijavamova,Zerijavamova,official,48.583333,19.333333,SK-BC,,
-847334,-1262121,hypsographic,"Vysoký Grúň","Vysoky Grun",official,49.291112,19.453076,SK-ZI,,
-847637,-1256389,settlement,Klečenov,Klecenov,variant,48.739597,21.50653,SK-KI,,
-847281,-1262040,settlement,"Vyšnie Matiašovce","Vysnie Matiasovce",variant,49.166778,19.565335,SK-ZI,,
-847574,-1262437,hydrographic,Zubák,Zubak,official,49.095201,18.255555,SK-NI,,
-847051,-1261727,settlement,Versendtanya,Versendtanya,official,48,17.866667,SK-NI,,
-847087,-1261773,spot,"Vigyorgó Pusta","Vigyorgo Pusta",official,48.316667,20.35,SK-BC,,
-847361,-1262169,settlement,Záhorce,Zahorce,official,48.111634,19.340121,SK-BC,,
-847110,-1261806,hydrographic,Višnia,Visnia,variant,48.65445,18.218778,SK-000,,
-847048,-1261724,hypsographic,Weretyszów,Weretyszow,official,49.35,21.9,SK-000,,
-847359,-1262166,spot,"Dvor Zagard","Dvor Zagard",variant,48.333333,17.916667,SK-NI,,
-847397,-1262213,settlement,Zárieč-Keblov,Zariec-Keblov,official,49.261973,18.641778,SK-ZI,,
-847404,-1262221,hydrographic,Zasihlanka,Zasihlanka,official,49.385828,19.303254,SK-ZI,,
-847113,-1261811,settlement,Višňové,Visnove,official,49.160829,18.784266,SK-ZI,,
-847481,-1262312,settlement,"Zemianska Ludrová","Zemianska Ludrova",official,49.05,19.333333,SK-ZI,,
-847282,-1258120,settlement,Naďod,Nad'od,variant,48.162739,18.584498,SK-NI,,
-847099,-1261794,settlement,Viničné,Vinicne,official,48.271232,17.304442,SK-BL,,
-847120,-1261819,settlement,Viťazovce,Vit'azovce,official,49.01126,21.800874,SK-PV,,
-847379,-1262187,hydrographic,Zákruty,Zakruty,official,48.580447,18.794016,SK-BC,,
-847102,-1261798,settlement,Vinohrádok,Vinohradok,official,48.41849,16.99609,SK-BL,,
-847240,-1261967,settlement,Vydumanec,Vydumanec,official,48.99276,21.200023,SK-PV,,
-847365,-1262173,hypsographic,"Záhorská Nížina","Zahorska Nizina",official,48.5,17,SK-BL,,
-847049,-1261725,settlement,Vermes,Vermes,official,47.917723,17.536327,SK-TA,,
-847187,-1261901,administrative_region,"Okres Vranov nad Topľou","Okres Vranov nad Topl'ou",official,48.9,21.683333,SK-PV,,
-847359,-1262167,spot,"Zagard Majer","Zagard Majer",official,48.333333,17.916667,SK-NI,,
-847046,-1261714,hydrographic,"Vepriánsky Potok","Vepriansky Potok",official,48.629889,19.844023,SK-BC,,
-847280,-1262039,settlement,Vyšnie-Malatíny,Vysnie-Malatiny,variant,49.053986,19.451534,SK-ZI,,
-847235,-1261962,settlement,Vydrná,Vydrna,official,49.206691,18.254424,SK-NI,,
-847069,-1261754,settlement,Vidtélke,Vidtelke,variant,48.563405,20.441079,SK-KI,,
-847399,-1262421,settlement,Zsarnó,Zsarno,variant,48.583372,20.924079,SK-KI,,
-847157,-1261864,settlement,Vojňany,Vojnany,official,49.248535,20.441824,SK-PV,,
-847291,-1262050,settlement,"Vyšnie Valice","Vysnie Valice",variant,48.457743,20.188243,SK-BC,,
-847370,-1262178,settlement,Zajačice,Zajacice,official,48.683333,17.7,SK-NI,,
-847572,-1262434,hypsographic,Ztracený,Ztraceny,official,48.65,19.55,SK-BC,,
-847121,-1261820,spot,"Zastávka Víťazstva","Zastavka Vit'azstva",official,49.216667,22,SK-PV,,
-847151,-1261858,settlement,Vojany,Vojany,official,48.568008,21.989609,SK-KI,,
-847503,-1262342,hypsographic,Žiar,Ziar,official,49.334069,18.715859,SK-ZI,,
-847374,-1262182,settlement,"Zaklepský Dvor","Zaklepsky Dvor",official,49.166667,18.433333,SK-NI,,
-847351,-1262158,settlement,"Zabudišova Kopanica","Zabudisova Kopanica",official,48.856269,17.842984,SK-NI,,
-847315,-1260223,settlement,"Slovenský Žipov","Slovensky Zipov",variant,48.98469,21.587753,SK-PV,,
-847375,-1262183,hypsographic,Zákľuky,Zakl'uky,official,48.695454,19.545626,SK-BC,,
-847244,-1261971,hypsographic,Vyhorlat,Vyhorlat,variant,48.891107,22.115225,SK-PV,,
-847292,-1262022,settlement,"Vyšné Vane","Vysne Vane",official,49.363677,18.861186,SK-ZI,,
-847339,-1262144,settlement,Zábava,Zabava,official,48.407972,19.168836,SK-BC,,
-847223,-1258286,hypsographic,"Nitranské Hory","Nitranske Hory",variant,48.656183,18.672485,SK-000,,
-847458,-1262279,settlement,Zdolžavina,Zdolzavina,official,48.5,18.616667,SK-BC,,
-847495,-1261776,hydrographic,"údolná nádrž Vihorlat","udolna nadrz Vihorlat",variant,48.78987,22.018156,SK-KI,,
-847203,-1261922,hydrographic,Vrbovec,Vrbovec,official,48.766667,17.4,SK-000,,
-847405,-1262222,settlement,Záskalie,Zaskalie,official,49.13608,18.517439,SK-NI,,
-847119,-1261818,settlement,Víťaz,Vit'az,official,48.971374,20.956542,SK-PV,,
-847243,-1261970,settlement,Vyhne,Vyhne,official,48.505706,18.801372,SK-BC,,
-847257,-1262026,settlement,"Vyšnia Káloša","Vysnia Kalosa",variant,48.432602,20.224662,SK-BC,,
-847408,-1262226,settlement,Zástranie,Zastranie,official,49.24253,18.817789,SK-ZI,,
-847448,-1259649,settlement,Rokytov,Rokytov,variant,49.10258,21.989942,SK-PV,,
-847407,-1262224,settlement,Žaškov,Zaskov,official,49.172356,19.2174,SK-ZI,,
-847576,-1262439,settlement,Zubné,Zubne,official,49.045927,22.062354,SK-PV,,
-847010,-1261664,settlement,"Veľký Krtíš","Vel'ky Krtis",official,48.210585,19.35043,SK-BC,,
-847176,-1261889,settlement,Vozokany,Vozokany,official,48.105822,17.688115,SK-TA,,
-847266,-1261994,settlement,"Vyšná Polianka","Vysna Polianka",official,49.429294,21.351358,SK-000,,
-847391,-1262203,settlement,Zámostie,Zamostie,official,48.814909,19.440622,SK-BC,,
-847072,-1256322,settlement,Kisfalud,Kisfalud,variant,48.004174,17.529183,SK-TA,,
-847428,-1262247,settlement,Závodie,Zavodie,official,48.683333,17.516667,SK-NI,,
-847488,-1262319,settlement,"Zemianske Sady","Zemianske Sady",official,48.329954,17.819902,SK-TA,,
-847296,-1262036,settlement,"Vyšní Dvor","Vysni Dvor",variant,48.616667,21.566667,SK-KI,,
-847337,-1262207,hypsographic,"Západní Beskydy","Zapadni Beskydy",variant,49.5,19.5,SK-ZI,,
-847234,-1261961,hydrographic,Vydrica,Vydrica,official,48.144394,17.072299,SK-000,,
-847539,-1262384,settlement,"Zlatá Idka","Zlata Idka",official,48.752018,21.006974,SK-KI,,
-847265,-1261992,settlement,"Vyšná Pokoradz","Vysna Pokoradz",official,48.419149,20.019427,SK-BC,,
-847245,-1261772,hypsographic,Vigorlyat,Vigorlyat,variant,48.833333,22.25,SK-KI,,
-847197,-1261914,settlement,Vrbov,Vrbov,official,49.087347,20.425534,SK-PV,,
-847234,-1253449,hydrographic,Bystrica,Bystrica,variant,48.144394,17.072299,SK-000,,
-847012,-1257918,settlement,Milanovce,Milanovce,variant,48.182454,18.157333,SK-NI,,
-847273,-1260652,settlement,Šuňava,Sunava,variant,49.030585,20.0845,SK-PV,,
-847463,-1262192,settlement,Zalené,Zalene,variant,48.432249,19.776916,SK-BC,,
-847136,-1261842,settlement,"Vlčí Vrch","Vlci Vrch",official,48.982908,17.930315,SK-NI,,
-847188,-1261903,settlement,"Vranovské Dlhé","Vranovske Dlhe",official,48.883333,21.7,SK-PV,,
-847439,-1261626,settlement,"Velké Zbince","Velke Zbince",variant,48.667109,21.881741,SK-KI,,
-847564,-1262414,hydrographic,Zolná,Zolna,official,48.566667,19.15,SK-BC,,
-847184,-1261904,administrative_region,"Vranovský Okres","Vranovsky Okres",variant,48.916667,21.583333,SK-000,1,
-847286,-1262014,settlement,"Vyšné Ráztoky","Vysne Raztoky",official,49.1,19.566667,SK-ZI,,
-847329,-1260237,settlement,Smokovec,Smokovec,variant,49.136368,20.243862,SK-PV,,
-847179,-1261716,settlement,Verebély,Verebely,variant,48.241019,18.310771,SK-NI,,
-847420,-1262238,settlement,Závadka,Zavadka,official,48.766099,22.066408,SK-KI,,
-847114,-1261812,settlement,Višnové,Visnove,official,49.219811,18.475708,SK-ZI,,
-847530,-1262373,settlement,Žírovce,Zirovce,official,48.793234,21.468065,SK-KI,,
-847036,-1261699,hypsographic,"Veľký Veterník","Vel'ky Veternik",official,48.387588,18.72188,SK-NI,,
-847207,-1261926,settlement,"Vrch Predmer","Vrch Predmer",official,49.477866,18.563751,SK-000,,
-847306,-1262078,settlement,"Vyšnyj Mirošov","Vysnyj Mirosov",variant,49.386381,21.447399,SK-PV,,
-847395,-1262209,administrative_region,"Západoslovenský Kraj","Zapadoslovensky Kraj",official,48.333333,18,SK-000,1,
-847619,-1255495,settlement,"Horní Ždáňa","Horni Zdana",variant,48.568935,18.750103,SK-BC,,
-847299,-1262052,settlement,"Vyšní Hrušov","Vysni Hrusov",variant,48.993869,22.01314,SK-PV,,
-847262,-1262029,settlement,"Vyšnia Oľka","Vysnia Ol'ka",variant,49.15,21.85,SK-PV,,
-847133,-1261835,hypsographic,"Vlara Pass","Vlara Pass",variant,49.033333,18.083333,S1-000,,
-847160,-1261867,hypsographic,Vojšin,Vojsin,official,48.481487,18.598158,SK-BC,,
-847143,-1254736,settlement,"Farkasd Pusta","Farkasd Pusta",variant,47.946516,18.236904,SK-NI,,
-847291,-1262069,settlement,"Vyšní Valice","Vysni Valice",variant,48.457743,20.188243,SK-BC,,
-847478,-1262308,settlement,Žemberovce,Zemberovce,official,48.258393,18.740063,SK-NI,,
-847381,-1257127,hypsographic,Lehota,Lehota,variant,48.398808,19.124699,SK-BC,,
-847444,-1262262,settlement,Zborov,Zborov,variant,49.379667,18.886607,SK-ZI,,
-847097,-1259964,settlement,Seleška,Seleska,variant,48.398849,21.744666,SK-KI,,
-847186,-1261897,settlement,Vranov,Vranov,variant,48.888356,21.684794,SK-PV,,
-847619,-1530343,settlement,"Horná Ždáňa","Horna Zdana",official,48.568935,18.750103,SK-BC,,
-847258,-1262027,settlement,"Vyšnia Kamenica","Vysnia Kamenica",variant,48.77852,21.485574,SK-KI,,
-847238,-1261965,hydrographic,Vydrovo,Vydrovo,official,48.744786,19.657574,SK-BC,,
-847198,-1254676,settlement,"Dvor Vrbovce","Dvor Vrbovce",variant,48.7,21.666667,SK-KI,,
-847141,-1261847,settlement,Vlčovo,Vlcovo,official,48.577859,19.720449,SK-BC,,
-847144,-1261413,settlement,Valkáz,Valkaz,variant,48.127426,18.27783,SK-NI,,
-847192,-1261909,settlement,Vrbany,Vrbany,official,48.748459,18.502557,SK-NI,,
-847187,9119930,administrative_region,"Vranov nad Topľou","Vranov nad Topl'ou",variant,48.9,21.683333,SK-PV,,
-847154,-1261861,settlement,Vojka,Vojka,official,48.46148,21.915293,SK-KI,,
-847148,-1261870,settlement,Vők,Vok,variant,48.158275,17.36633,SK-TA,,
-847138,-1254737,settlement,Farkašín,Farkasin,variant,48.317014,17.649697,SK-TA,,
-847255,-1262025,settlement,"Vyšnia Jablonka","Vysnia Jablonka",variant,49.155832,22.098418,SK-PV,,
-847014,-1261668,spot,"Železničná Stanica Veľký Lég","Zeleznicna Stanica Vel'ky Leg",official,48.033333,17.45,SK-TA,,
-847245,-1261775,hypsographic,Vihorlat,Vihorlat,variant,48.833333,22.25,SK-KI,,
-847337,-1262133,hypsographic,"West Beskiden","West Beskiden",variant,49.5,19.5,SK-ZI,,
-847460,-1262284,settlement,Žegňa,Zegna,variant,48.917666,21.341505,SK-PV,,
-847032,-1254993,settlement,Gross-Schlagendorf,Gross-Schlagendorf,variant,49.093305,20.282584,SK-PV,,
-847417,-1262235,settlement,Závada,Zavada,official,48.978265,18.072223,SK-NI,,
-847143,-1254674,settlement,"Dvor Vlkanovo","Dvor Vlkanovo",variant,47.946516,18.236904,SK-NI,,
-847809,-1271013,hypsographic,"Gömör-Tornai Karsztos Hegység","Gomor-Tornai Karsztos Hegyseg",variant,48.5,20.5,S1-000,,
-847089,-1261779,spot,Világos,Vilagos,official,48.266667,19.966667,SK-BC,,
-847263,-1262061,settlement,"Vyšní Olšava","Vysni Olsava",variant,49.158844,21.601933,SK-PV,,
-847208,-1261927,settlement,Vrchrieka,Vrchrieka,official,49.36277,18.547502,SK-ZI,,
-847519,-1262362,settlement,Žíhľava,Zihl'ava,official,48.223209,19.426215,SK-BC,,
-847340,-1262145,settlement,Zábava,Zabava,official,48.766667,21.933333,SK-KI,,
-847367,-1259936,settlement,Sedikart,Sedikart,variant,49.090842,21.269389,SK-PV,,
-847165,-1261873,hypsographic,Volhovisko,Volhovisko,official,48.292895,17.138556,SK-BL,,
-847546,-1262392,settlement,Zlatník,Zlatnik,official,48.966734,21.54217,SK-PV,,
-847382,-1254921,settlement,Gibeľ,Gibel',variant,49.326066,20.387444,SK-PV,,
-847350,-1262157,settlement,Zábrež,Zabrez,official,49.194326,19.264713,SK-ZI,,
-847447,-1262268,settlement,"Zbudské Dlhé","Zbudske Dlhe",official,49.076932,21.960242,SK-PV,,
-847378,-1262186,settlement,Žakovce,Zakovce,official,49.083188,20.397674,SK-PV,,
-847422,-1262240,settlement,Závadka,Zavadka,official,48.928166,21.84674,SK-PV,,
-847212,-1261933,settlement,Vrícko,Vricko,official,48.970018,18.704803,SK-ZI,,
-847373,-1262181,settlement,Žakarovce,Zakarovce,official,48.878429,20.924624,SK-KI,,
-847013,-1261667,settlement,"Veľký Lapáš","Vel'ky Lapas",official,48.291048,18.180999,SK-NI,,
-847338,-1262138,hypsographic,"Wilczy Groń","Wilczy Gron",official,49.505339,19.228527,SK-000,,
-847135,-1254740,settlement,Farkažd,Farkazd,variant,48.030966,17.952139,SK-NI,,
-847358,-1262165,settlement,Zádubnie,Zadubnie,official,49.240616,18.772059,SK-ZI,,
-847275,-1262003,settlement,"Vyšná Voľa","Vysna Vol'a",official,49.249534,21.362093,SK-PV,,
-847237,-1261964,settlement,Vydrovo,Vydrovo,official,48.740986,19.654566,SK-BC,,
-847514,-1262356,settlement,"Židovská Veča","Zidovska Veca",official,48.166667,17.883333,SK-NI,,
-847060,-1261739,hypsographic,Veterník,Veternik,official,48.35,20.4,SK-BC,,
-847301,-1262082,settlement,"Vyšný Komárnik","Vysny Komarnik",official,49.402112,21.705602,SK-000,,
-847410,-1262228,settlement,Zaťko,Zat'ko,official,48.2,19.116667,SK-BC,,
-847446,-1262267,settlement,"Zbudská Belá","Zbudska Bela",official,49.153378,21.940666,SK-PV,,
-847062,-1261742,hypsographic,"Veterný Vrch","Veterny Vrch",official,49.33581,20.523094,SK-PV,,
-847499,-1262335,settlement,"Zemplínsky Klečenov","Zemplinsky Klecenov",official,48.558128,21.671772,SK-KI,,
-847044,-1256399,hypsographic,"Klenovecký Vepor","Klenovecky Vepor",variant,48.687475,19.767015,SK-BC,,
-847304,-1262085,settlement,"Vyšný Lánc","Vysny Lanc",variant,48.530401,21.129724,SK-KI,,
-847439,-1262258,settlement,Žbince,Zbince,official,48.667109,21.881741,SK-KI,,
-847504,-1262432,settlement,Zsor,Zsor,variant,48.438546,20.273041,SK-BC,,
-847200,-1261919,settlement,"Vrbovce nad Rimavicou","Vrbovce nad Rimavicou",official,48.451091,19.958719,SK-BC,,
-847056,-1261734,settlement,Veselka,Veselka,official,49.420566,18.502856,SK-000,,
-847230,-1261957,administrative_region,"Východoslovenský Kraj","Vychodoslovensky Kraj",official,48.916667,21.166667,SK-000,1,
-847182,-1261717,settlement,Verekne,Verekne,variant,48.138302,17.208655,SK-BL,,
-847052,-1261728,settlement,Veselé,Vesele,official,48.119609,18.60797,SK-NI,,
-847092,-1261787,hydrographic,Vilšava,Vilsava,official,49.183333,21.9,SK-PV,,
-847327,-1262111,settlement,"Vysoká nad Uhom","Vysoka nad Uhom",official,48.626087,22.09133,SK-KI,,
-847435,-1262254,hydrographic,Zázrivá,Zazriva,official,49.187238,19.190839,SK-ZI,,
-847020,-1258155,settlement,"Nagy Meder","Nagy Meder",variant,47.855499,17.768313,SK-TA,,
-847459,-1262280,hydrographic,Zdychava,Zdychava,official,48.683333,20.1,SK-BC,,
-847349,-1262156,settlement,Záborské,Zaborske,official,48.945099,21.289774,SK-PV,,
-847493,-1262325,hypsographic,"Gory Zemplen","Gory Zemplen",variant,48.416667,21.416667,SK-000,,
-847328,-1257487,hypsographic,"Magas Tátra","Magas Tatra",variant,49.166667,20,S1-000,,
-847161,-1252923,settlement,Bél-Vata,Bel-Vata,variant,48.101346,17.476854,SK-TA,,
-847586,-1252665,settlement,Altsohl,Altsohl,variant,48.57442,19.153236,SK-BC,,
-847215,-1261936,spot,Vršky,Vrsky,official,48.998866,19.415755,SK-ZI,,
-847337,-1258513,hypsographic,"Nyugati Beszkidek","Nyugati Beszkidek",variant,49.5,19.5,SK-ZI,,
-847431,-1262250,settlement,Závodie,Zavodie,official,49.433333,18.95,SK-ZI,,
-847460,-1262285,settlement,Žehňa,Zehna,official,48.917666,21.341505,SK-PV,,
-847330,-1262115,administrative_region,"Okres Vysoké Tatry","Okres Vysoke Tatry",official,49.166667,20.166667,SK-000,1,
-847159,9119975,settlement,"Bátorove Kosihy","Batorove Kosihy",official,47.829397,18.420164,SK-NI,,
-847328,-1262112,hypsographic,"Vysoké Tatry","Vysoke Tatry",variant,49.166667,20,S1-000,,
-847047,-1261720,hypsographic,Verestvín,Verestvin,official,48.083333,18.35,SK-NI,,
-847496,-1256275,settlement,Kerestúr,Kerestur,variant,48.646613,21.572112,SK-KI,,
-847130,-1261831,hypsographic,Vlačuhovo,Vlacuhovo,official,48.833333,19.266667,SK-BC,,
-847289,-1262045,settlement,"Vyšnie Revištia","Vysnie Revistia",variant,48.733333,22.1,SK-KI,,
-847182,-1261895,settlement,Vrakuňa,Vrakuna,official,48.138302,17.208655,SK-BL,,
-847134,-1261839,settlement,Vlašky,Vlasky,official,49.098262,19.468707,SK-ZI,,
-847466,-1262292,settlement,Železná,Zelezna,official,48.183333,17.066667,SK-BL,,
-847083,-1261767,settlement,Vígľaš,Vigl'as,official,48.56315,19.302901,SK-BC,,
-847281,-1262009,settlement,"Vyšné Matiašovce","Vysne Matiasovce",official,49.166778,19.565335,SK-ZI,,
-847455,-1262276,settlement,Ždiarik,Zdiarik,official,48.771545,19.847027,SK-BC,,
-847809,-1289680,hypsographic,Tornai-karszt,Tornai-karszt,variant,48.5,20.5,S1-000,,
-847482,-1258242,settlement,"Nemes Olcsa","Nemes Olcsa",variant,47.809582,17.867734,SK-NI,,
-847353,-1262160,settlement,Zacharovce,Zacharovce,official,48.404989,20.054495,SK-BC,,
-847094,-1258507,settlement,Nyék,Nyek,variant,48.117276,19.118622,SK-BC,,
-847305,-1262057,settlement,"Vyšní Medzev","Vysni Medzev",variant,48.713953,20.902875,SK-KI,,
-847547,-1262393,settlement,Zlatníky,Zlatniky,official,48.713184,18.123489,SK-NI,,
-847157,-1256803,settlement,Krig,Krig,variant,49.248535,20.441824,SK-PV,,
-847532,-1262375,settlement,Žitavce,Zitavce,official,48.202194,18.300781,SK-NI,,
-847580,-1262444,spot,"Dvor Zúgó","Dvor Zugo",variant,48.166667,17.616667,SK-TA,,
-847085,-1261769,settlement,"Vígľašská Huta","Vigl'asska Huta",official,48.490054,19.275733,SK-BC,,
-847186,-1261900,settlement,"Vranov nad Topľou","Vranov nad Topl'ou",official,48.888356,21.684794,SK-PV,,
-847402,-1262218,settlement,"Žarnovická Huta","Zarnovicka Huta",official,48.493181,18.688739,SK-BC,,
-847403,-1262220,hypsographic,"Zarubaná Kyčera","Zarubana Kycera",official,49.330665,18.588607,SK-ZI,,
-847326,-1262110,settlement,"Vysoká nad Kysucou","Vysoka nad Kysucou",official,49.378517,18.544083,SK-ZI,,
-847181,-1261446,settlement,Várkony,Varkony,variant,47.942928,17.601128,SK-TA,,
-847496,-1262336,settlement,"Zemplínsky Svätý Kríž","Zemplinsky Svaty Kriz",variant,48.646613,21.572112,SK-KI,,
-847463,-1262288,settlement,Zelené,Zelene,official,48.432249,19.776916,SK-BC,,
-847312,-1262094,settlement,"Vyšný Tarbaj","Vysny Tarbaj",official,49.083333,21.533333,SK-PV,,
-847040,-1261704,settlement,Veľopolie,Vel'opolie,official,48.992836,21.955124,SK-PV,,
-847081,-1252776,settlement,Balog-Ujfalu,Balog-Ujfalu,variant,48.351134,20.19881,SK-BC,,
-847344,-1262151,settlement,Zábiedovo,Zabiedovo,official,49.32136,19.608079,SK-ZI,,
-847214,-1261935,settlement,Vršek,Vrsek,official,49.182813,18.149838,SK-000,,
-847059,-1261738,settlement,"Veterná Poruba","Veterna Poruba",official,49.109796,19.676759,SK-ZI,,
-847355,-1255270,hypsographic,Homolka,Homolka,variant,48.910933,19.876755,SK-ZI,,
-847356,-1262163,settlement,Zádor,Zador,official,48.321182,20.242053,SK-BC,,
-847280,-1262008,settlement,"Vyšné Malatíny","Vysne Malatiny",official,49.053986,19.451534,SK-ZI,,
-847425,-1262244,settlement,Zavar,Zavar,official,48.352767,17.673767,SK-TA,,
-847521,-1262364,settlement,Žilina,Zilina,official,49.216667,18.733333,SK-ZI,,
-847132,-1261833,hydrographic,Vlář,Vlar,variant,48.956742,18.112895,SK-NI,,
-847149,-1261680,settlement,Velkyňa,Velkyna,variant,48.28214,20.300955,SK-BC,,
-847400,-1262216,settlement,Žarnovica,Zarnovica,official,48.481235,18.715649,SK-BC,,
-847398,-1262214,hypsographic,Žarnov,Zarnov,official,48.609248,18.543162,SK-NI,,
-847284,-1262012,settlement,"Vyšné Opátske","Vysne Opatske",official,48.703261,21.290275,SK-KI,,
-847518,-1262361,settlement,Žihárec,Ziharec,official,48.072309,17.886739,SK-NI,,
-847656,-1257955,settlement,"Mlynana Hrézi","Mlynana Hrezi",variant,48.833333,17.216667,SK-TA,,
-847509,-1262349,hypsographic,Žibrica,Zibrica,official,48.366772,18.149631,SK-NI,,
-847068,-1261751,settlement,Vidosza,Vidosza,official,48.233981,19.897158,SK-BC,,
-847194,-1261911,settlement,Vrbie,Vrbie,official,49.1,19.466667,SK-ZI,,
-847416,-1262234,settlement,Závada,Zavada,official,48.823594,18.358275,SK-NI,,
-847171,-1261881,hypsographic,Vonžovec,Vonzovec,official,49.55555,19.497423,SK-ZI,,
-847492,-1262324,settlement,Zemné,Zemne,official,47.985931,17.994443,SK-NI,,
-847259,-1261986,settlement,"Vyšná Korňa","Vysna Korna",official,49.432978,18.522926,SK-000,,
-847191,-1261906,hypsographic,Vrátna,Vratna,variant,49.216667,19.033333,SK-ZI,,
-847384,-1254679,settlement,"Dvor Zálogoš","Dvor Zalogos",variant,48.066667,18.516667,SK-NI,,
-847108,-1261805,settlement,Vislava,Vislava,official,49.28154,21.660118,SK-PV,,
-847328,-1253568,hypsographic,"Central Carpathians","Central Carpathians",variant,49.166667,20,S1-000,,
-847246,-1261973,settlement,Výrava,Vyrava,official,49.192246,22.005722,SK-PV,,
-847140,-1254738,settlement,Farkaška,Farkaska,variant,48.762732,18.206202,SK-NI,,
-847251,-1261803,settlement,Visk,Visk,variant,48.055745,18.867779,SK-NI,,
-847045,-1261712,hypsographic,Vepor,Vepor,official,48.7148,19.458,SK-BC,,
-847249,-1257523,settlement,Majzel,Majzel,variant,48.887323,18.669363,SK-NI,,
-847386,-1262197,settlement,Zamarovce,Zamarovce,official,48.910915,18.049769,SK-NI,,
-847121,-1259182,spot,Polustanak-Pobdedy,Polustanak-Pobdedy,variant,49.216667,22,SK-PV,,
-847287,-1262043,settlement,"Vyšnie Remety","Vysnie Remety",variant,48.827809,22.167755,SK-KI,,
-847022,-1261683,spot,"Pusta Veľký Palag","Pusta Vel'ky Palag",variant,48.166667,18.833333,SK-BC,,
-847445,-1254747,settlement,Feďvernek,Fed'vernek,variant,48.115532,18.704114,SK-NI,,
-847125,-1261826,hypsographic,Vižník,Viznik,official,48.8,21.583333,SK-PV,,
-847437,-1262256,settlement,Zbehy,Zbehy,official,48.365584,18.018143,SK-NI,,
-847195,-1254675,settlement,"Dvor Vrbina","Dvor Vrbina",variant,47.825653,17.714423,SK-TA,,
-847027,-1261857,hypsographic,Vogelshübel,Vogelshubel,variant,48.766667,20.733333,SK-KI,,
-847497,-1255091,settlement,Hardište,Hardiste,variant,48.583565,21.737222,SK-KI,,
-847809,-1273895,hypsographic,"Jihoslovenský Kras","Jihoslovensky Kras",variant,48.5,20.5,S1-000,,
-847306,-1262058,settlement,"Vyšní Mirošov","Vysni Mirosov",variant,49.386381,21.447399,SK-PV,,
-847436,-1262255,settlement,Zbehňov,Zbehnov,official,48.689523,21.629718,SK-KI,,
-847473,-1262301,settlement,Želiezovce,Zeliezovce,official,48.050753,18.654208,SK-NI,,
-847069,-1261752,settlement,Vidová,Vidova,official,48.563405,20.441079,SK-KI,,
-847012,-1258294,settlement,"Nitriansky Kýr","Nitriansky Kyr",variant,48.182454,18.157333,SK-NI,,
-847354,-1262161,settlement,Zádiel,Zadiel,official,48.612162,20.832824,SK-KI,,
-847049,-1254669,settlement,"Dvor Vermes","Dvor Vermes",variant,47.917723,17.536327,SK-TA,,
-847489,-1262320,settlement,"Zemiansky Kvašov","Zemiansky Kvasov",official,49.085753,18.478155,SK-NI,,
-847272,-1262032,settlement,"Vyšnia Slaná","Vysnia Slana",variant,48.786075,20.318352,SK-KI,,
-847498,-1252816,settlement,Baranč,Baranc,variant,48.543412,21.720229,SK-KI,,
-847037,-1261700,hypsographic,"Veľký Vrch","Vel'ky Vrch",official,48.65,18.45,SK-NI,,
-847347,-1262154,settlement,"Žabokreky nad Nitrou","Zabokreky nad Nitrou",official,48.624204,18.302534,SK-NI,,
-847151,-1261386,settlement,Vajany,Vajany,variant,48.568008,21.989609,SK-KI,,
-847571,-1262430,spot,"Zsipi Pusta","Zsipi Pusta",official,48.35,20.183333,SK-BC,,
-847097,-1261792,settlement,Viničky,Vinicky,official,48.398849,21.744666,SK-KI,,
-847147,-1261853,settlement,Vlkovce,Vlkovce,official,49.050204,20.500734,SK-PV,,
-847529,-1262372,settlement,Žirany,Zirany,official,48.377661,18.175144,SK-NI,,
-847483,-1262314,settlement,"Zemianska Závada","Zemianska Zavada",official,49.057987,18.500389,SK-NI,,
-847254,-1261981,settlement,"Vyšná Hutka","Vysna Hutka",official,48.675948,21.354059,SK-KI,,
-847247,-1261974,hydrographic,Výrava,Vyrava,official,49.059206,21.960829,SK-PV,,
-847261,-1261988,settlement,"Vyšná Myšľa","Vysna Mysl'a",official,48.635289,21.388935,SK-KI,,
-847309,-1262091,settlement,"Vyšný Skálnik","Vysny Skalnik",official,48.464191,19.964191,SK-BC,,
-847520,-1262363,settlement,Žikava,Zikava,official,48.443977,18.382402,SK-NI,,
-847495,-1262331,hydrographic,"Údolná Nádrž Zemplínska Šírava","Udolna Nadrz Zemplinska Sirava",official,48.78987,22.018156,SK-KI,,
-847335,-1262122,settlement,Vystrkov,Vystrkov,official,48.283333,18.483333,SK-NI,,
-847199,-1261715,settlement,Verbócz,Verbocz,variant,48.799487,17.468981,SK-NI,,
-847061,-1261741,settlement,Veterník,Veternik,official,48.7,18.916667,SK-BC,,
-847175,-1261888,settlement,Voznica,Voznica,official,48.460536,18.699203,SK-BC,,
-847197,-1257845,settlement,Menhardsdorf,Menhardsdorf,variant,49.087347,20.425534,SK-PV,,
-847121,-1262225,spot,"Zastavka vitazstva-Polustanak Pobedy","Zastavka vitazstva-Polustanak Pobedy",variant,49.216667,22,SK-PV,,
-847341,-1262147,spot,"Dvor Zábava","Dvor Zabava",official,49.00977,19.294469,SK-ZI,,
-847345,-1262152,settlement,"Žabí Potok","Zabi Potok",official,48.783333,17.416667,SK-NI,,
-847809,-1262594,hypsographic,"Aggteleki Karsztos Hegység","Aggteleki Karsztos Hegyseg",variant,48.5,20.5,S1-000,,
-847414,-1262232,settlement,Závada,Zavada,official,48.33727,18.451631,SK-NI,,
-847122,-1261821,hydrographic,Vítek,Vitek,official,48.466667,17.733333,SK-000,,
-847443,-1262263,spot,Zborov,Zborov,variant,49.35,21.3,SK-PV,,
-847315,-1262097,settlement,"Vyšný Žipov","Vysny Zipov",official,48.98469,21.587753,SK-PV,,
-847154,-1261476,settlement,Véke,Veke,variant,48.46148,21.915293,SK-KI,,
-847537,-1262382,hypsographic,Zlámaná,Zlamana,official,49.4,18.5,S1-000,,
-847505,-1262344,settlement,Žiar,Ziar,official,49.129832,19.663577,SK-ZI,,
-847262,-1261989,settlement,"Vyšná Oľka","Vysna Ol'ka",official,49.15,21.85,SK-PV,,
-847568,-1262420,hypsographic,Zrnova,Zrnova,official,49.127993,18.206751,SK-NI,,
-847170,-1261880,spot,"Vonkajší Dvor","Vonkajsi Dvor",official,48.216667,17.75,SK-TA,,
-847302,-1256871,settlement,Kručov,Krucov,variant,49.166667,21.1,SK-PV,,
-847097,-1260842,settlement,Szőllőske,Szolloske,variant,48.398849,21.744666,SK-KI,,
-847474,-1262302,settlement,Zelince,Zelince,official,49.4,18.566667,SK-ZI,,
-847195,-1261912,settlement,Vrbina,Vrbina,official,47.825653,17.714423,SK-TA,,
-847228,-1261749,settlement,"Vicsáp Apáti","Vicsap Apati",variant,48.411494,18.082227,SK-NI,,
-847276,-1262004,settlement,"Vyšné Čabiny","Vysne Cabiny",official,49.179946,21.901355,SK-PV,,
-847126,-1261827,settlement,Vkotline,Vkotline,official,49.233333,20.333333,SK-PV,,
-847498,-1262334,settlement,"Zemplínsky Branč","Zemplinsky Branc",official,48.543412,21.720229,SK-KI,,
-847286,-1262042,settlement,Vyšnie-Ráztoky,Vysnie-Raztoky,variant,49.1,19.566667,SK-ZI,,
-847511,-1262351,settlement,Žibritov,Zibritov,official,48.390505,18.983925,SK-BC,,
-847257,-1261984,settlement,"Vyšná Kaloša","Vysna Kalosa",official,48.432602,20.224662,SK-BC,,
-847175,-1255749,settlement,Hvozdnica,Hvozdnica,variant,48.460536,18.699203,SK-BC,,
-847149,-1261596,settlement,Velkenye,Velkenye,variant,48.28214,20.300955,SK-BC,,
-847011,9119903,administrative_region,"Veľký Krtíš","Vel'ky Krtis",variant,48.2,19.35,SK-BC,,
-847011,-1261665,administrative_region,"Okres Veľký Krtíš","Okres Vel'ky Krtis",official,48.2,19.35,SK-BC,,
-847400,-1262219,settlement,Žarovnica,Zarovnica,variant,48.481235,18.715649,SK-BC,,
-847809,-1262592,hypsographic,Aggteleki-karszt,Aggteleki-karszt,official,48.5,20.5,S1-000,,
-847252,-1261979,settlement,"Vyšná Bakta","Vysna Bakta",official,48.4,20.1,SK-BC,,
-847310,-1262047,settlement,"Vyšnie Slavkov","Vysnie Slavkov",variant,49.072122,20.854315,SK-PV,,
-847337,-1252988,hypsographic,"Beskidy Polskí","Beskidy Polski",variant,49.5,19.5,SK-ZI,,
-847542,-1262388,settlement,"Zlaté Moravce","Zlate Moravce",official,48.385528,18.40063,SK-NI,,
-847545,-1252695,settlement,Aranyos,Aranyos,variant,47.766667,17.966667,SK-NI,,
-847047,-1261719,hypsographic,Verestlin,Verestlin,variant,48.083333,18.35,SK-NI,,
-847456,-1262277,hydrographic,"Ždiarsky Potok","Zdiarsky Potok",official,48.959107,20.106512,SK-PV,,
-847346,-1262153,settlement,Žabokreky,Zabokreky,official,49.024273,18.923815,SK-ZI,,
-847465,-1262291,settlement,"Zelený Háj","Zeleny Haj",official,47.85217,18.170589,SK-NI,,
-847213,-1261934,settlement,"Vršatské Podhradie","Vrsatske Podhradie",official,49.065282,18.154254,SK-NI,,
-847253,-1261980,settlement,"Vyšná Boca","Vysna Boca",official,48.926629,19.75273,SK-ZI,,
-847468,-1262295,settlement,"Železná Breznica","Zelezna Breznica",official,48.616307,19.013006,SK-BC,,
-847104,-1261800,settlement,Vinohrady,Vinohrady,official,48.162585,17.10384,SK-BL,,
-847121,-1262449,spot,"Castavka Zvitazstza","Castavka Zvitazstza",variant,49.216667,22,SK-PV,,
-847589,-1258221,settlement,Nemce,Nemce,variant,48.762224,19.185318,SK-BC,,
-847155,-1261389,settlement,"Vajka nad Dunajom","Vajka nad Dunajom",variant,47.973455,17.381484,SK-TA,,
-847544,-1262390,settlement,Zlatna,Zlatna,official,48.55084,19.45509,SK-BC,,
-847181,-1258508,settlement,Nyékvárkony,Nyekvarkony,variant,47.942928,17.601128,SK-TA,,
-847508,-1262348,hypsographic,"Žiarska Kotlina","Ziarska Kotlina",official,48.55,18.8,SK-BC,,
-847466,-1254697,settlement,Eisenbrünndel,Eisenbrunndel,variant,48.183333,17.066667,SK-BL,,
-847368,-1262176,settlement,Záhradníctvo,Zahradnictvo,official,48.05,17.95,SK-NI,,
-847555,-1262402,settlement,Zliechov,Zliechov,official,48.952431,18.434749,SK-NI,,
-847467,-1262294,spot,"Dvor Železná Brána","Dvor Zelezna Brana",variant,48.416667,20.2,SK-BC,,
-847528,-1262371,settlement,Žipov,Zipov,official,48.967887,21.088223,SK-PV,,
-847020,-1253505,settlement,Čalovo,Calovo,variant,47.855499,17.768313,SK-TA,,
-847566,-1262418,settlement,Zorkovce,Zorkovce,official,48.883333,18.866667,SK-ZI,,
-847311,-1262019,settlement,"Vyšné Sliače","Vysne Sliace",variant,49.055983,19.407951,SK-ZI,,
-847329,-1262114,settlement,"Vysoké Tatry","Vysoke Tatry",official,49.136368,20.243862,SK-PV,,
-847303,-1255465,settlement,"Horní Kubín","Horni Kubin",variant,49.184361,19.317018,SK-ZI,,
-847423,-1262241,settlement,Závadka,Zavadka,official,49.145101,21.238317,SK-PV,,
-847159,-1261866,settlement,Vojnice,Vojnice,variant,47.829397,18.420164,SK-NI,,
-847336,-1262123,settlement,Vystrkov,Vystrkov,official,48.966667,18.216667,SK-NI,,
-847067,-1261750,settlement,Vidiná,Vidina,official,48.359115,19.654278,SK-BC,,
-847239,-1261966,settlement,Vyduma,Vyduma,official,49.032636,21.532053,SK-PV,,
-847445,-1262266,settlement,Zbrojníky,Zbrojniky,official,48.115532,18.704114,SK-NI,,
-847538,-1262383,settlement,"Zlatá Baňa","Zlata Bana",official,48.953217,21.420978,SK-PV,,
-847531,-1262379,hydrographic,Žitva,Zitva,variant,47.843189,18.128109,SK-000,,
-847577,-1262440,hypsographic,Zubor,Zubor,official,48.345878,18.108406,SK-NI,,
-847077,-1261761,settlement,Vieska,Vieska,official,48.76378,17.278481,SK-TA,,
-847305,-1258518,settlement,Ober-Metzenseifen,Ober-Metzenseifen,variant,48.713953,20.902875,SK-KI,,
-847058,-1261737,spot,Veterná,Veterna,official,48.358282,19.787607,SK-BC,,
-847124,-1261824,settlement,Vítkovce,Vitkovce,official,48.927472,20.722532,SK-KI,,
-847409,-1262227,settlement,Zatín,Zatin,official,48.475824,21.90394,SK-KI,,
-847484,-1262315,settlement,"Zemianske Kostoľany","Zemianske Kostol'any",official,48.687612,18.526768,SK-NI,,
-847148,-1261854,settlement,Vlky,Vlky,official,48.158275,17.36633,SK-TA,,
-847487,-1262318,settlement,"Zemianske Podhradie","Zemianske Podhradie",official,48.840013,17.833455,SK-NI,,
-847328,-1262113,hypsographic,Tatry,Tatry,official,49.166667,20,S1-000,,
-847289,-1262064,settlement,"Vyšní Revište","Vysni Reviste",variant,48.733333,22.1,SK-KI,,
-847227,-1261951,settlement,Výčapky,Vycapky,official,48.454387,18.027803,SK-NI,,
-847260,-1261987,settlement,"Vyšná Labaja","Vysna Labaja",official,49.35,18.5,SK-ZI,,
-847314,-1262096,settlement,"Vyšný Zadiel","Vysny Zadiel",official,49.133333,19.5,SK-ZI,,
-847191,-1261908,hypsographic,Vratné,Vratne,official,49.216667,19.033333,SK-ZI,,
-847149,-1261855,settlement,Vlkyňa,Vlkyna,official,48.28214,20.300955,SK-BC,,
-847143,-1261849,settlement,Vlkanovo,Vlkanovo,official,47.946516,18.236904,SK-NI,,
-847296,-1262073,settlement,"Vyšný Dvor","Vysny Dvor",official,48.616667,21.566667,SK-KI,,
-847363,-1262171,settlement,Záhorie,Zahorie,official,48.666667,17.416667,SK-TA,,
-847253,-1262024,settlement,"Vyšnia Boca","Vysnia Boca",variant,48.926629,19.75273,SK-ZI,,
-847022,-1261682,spot,"Veľký Palag","Vel'ky Palag",official,48.166667,18.833333,SK-BC,,
-847550,-1262396,settlement,Zlatno,Zlatno,official,48.518529,19.819063,SK-BC,,
-847387,-1262198,hypsographic,Zámčisko,Zamcisko,official,48.734132,17.249202,SK-TA,,
-847288,-1262016,settlement,"Vyšné Repaše","Vysne Repase",official,49.067768,20.687338,SK-PV,,
-847233,-1261960,settlement,Vydrany,Vydrany,official,48.018056,17.585877,SK-TA,,
-847088,-1261778,settlement,Vikartovce,Vikartovce,official,48.993451,20.150901,SK-PV,,
-847513,-1262355,spot,"Dvor Židovo","Dvor Zidovo",variant,48.380162,19.847971,SK-BC,,
-847533,-1262376,settlement,"Žitavská Tôň","Zitavska Ton",official,47.75,18.333333,SK-NI,,
-847521,-1262431,settlement,Zsolna,Zsolna,variant,49.216667,18.733333,SK-ZI,,
-847054,-1261731,hydrographic,Veselé,Vesele,official,49.384857,19.436918,SK-ZI,,
-847396,-1262212,settlement,Zariečie,Zariecie,official,49.183871,18.243312,SK-NI,,
-847500,-1262337,hydrographic,Zeriavamova,Zeriavamova,variant,48.583333,19.333333,SK-BC,,
-847559,-1262406,spot,Zniev,Zniev,official,48.968512,18.773226,SK-ZI,,
-847506,-1260721,settlement,"Svätý Kríž nad Hronom","Svaty Kriz nad Hronom",variant,48.591835,18.849577,SK-BC,,
-847133,-1261836,hypsographic,"Prŭsmyk Vlárský","Prusmyk Vlarsky",variant,49.033333,18.083333,S1-000,,
-847411,-1262229,settlement,Žatkovce,Zatkovce,official,49.136395,21.265208,SK-PV,,
-847167,-1261875,settlement,Volkovce,Volkovce,official,48.339939,18.4575,SK-NI,,
-847030,-1261692,settlement,"Veľký Ruskov","Vel'ky Ruskov",official,48.647322,21.680137,SK-KI,,
-847103,-1261799,hypsographic,"Vinohradový Vrch","Vinohradovy Vrch",official,48.238104,17.377744,SK-BL,,
-847159,-1252862,settlement,"Bátorove Kesy","Batorove Kesy",variant,47.829397,18.420164,SK-NI,,
-847570,-1262429,spot,"Zsigmondháza Majer","Zsigmondhaza Majer",official,47.95,18.516667,SK-NI,,
-847202,-1261917,settlement,Vrbovce,Vrbovce,variant,48.736311,21.95151,SK-KI,,
-847562,-1259432,settlement,"Pusta Žofia","Pusta Zofia",variant,48.018214,18.05588,SK-NI,,
-847293,-1262023,settlement,"Vyšné Zbojné","Vysne Zbojne",official,49.137364,21.995981,SK-PV,,
-847178,-1254863,settlement,Garam-Vezekény,Garam-Vezekeny,variant,48.012093,18.662058,SK-NI,,
-847211,-1261932,hydrographic,Vríca,Vrica,official,48.959985,18.872125,SK-ZI,,
-847573,-1262436,settlement,Zubák,Zubak,official,49.149732,18.216002,SK-NI,,
-847099,-1260673,settlement,Švajnsbach,Svajnsbach,variant,48.271232,17.304442,SK-BL,,
-847521,-1260031,settlement,Sillein,Sillein,variant,49.216667,18.733333,SK-ZI,,
-847575,-1262438,settlement,Zuberec,Zuberec,official,49.261642,19.614733,SK-ZI,,
-847129,-1261830,settlement,Vlachy,Vlachy,official,49.093107,19.478016,SK-ZI,,
-847344,-1262150,settlement,Zábidovo,Zabidovo,variant,49.32136,19.608079,SK-ZI,,
-847569,-1262426,spot,"Zsemľov Dvor","Zseml'ov Dvor",variant,47.85,17.633333,SK-TA,,
-847110,-1261808,hydrographic,Višňova,Visnova,official,48.65445,18.218778,SK-000,,
-847430,-1262249,settlement,Závodie,Zavodie,official,49.384033,20.760203,SK-000,,
-849231,-1264355,spot,Baradla-Caves,Baradla-Caves,official,48.483333,20.483333,S1-000,,
-847270,-1262065,settlement,"Vyšní Šebeš","Vysni Sebes",variant,49.015888,21.323544,SK-PV,,
-847016,-1261670,settlement,"Veľký Lipník","Vel'ky Lipnik",official,49.374492,20.501298,SK-000,,
-847406,-1262223,settlement,Záskalie,Zaskalie,official,49.224028,19.296264,SK-ZI,,
-847185,-1261899,spot,"Železničná Stanica Vranov","Zeleznicna Stanica Vranov",official,48.883333,21.666667,SK-PV,,
-847150,-1261856,settlement,Voderady,Voderady,official,48.277007,17.5594,SK-TA,,
-847225,-1261949,settlement,Výborná,Vyborna,official,49.234312,20.398059,SK-PV,,
-847229,-1261953,settlement,Východná,Vychodna,official,49.059313,19.889976,SK-ZI,,
-847420,-1262243,settlement,Zavadky,Zavadky,variant,48.766099,22.066408,SK-KI,,
-847223,-1261946,hypsographic,Vtáčnik,Vtacnik,official,48.656183,18.672485,SK-000,,
-847295,-1262072,settlement,"Vyšný Čaj","Vysny Caj",official,48.68349,21.398913,SK-KI,,
-847592,-1262457,hypsographic,Zvonina,Zvonina,official,49.383333,18.466667,S1-000,,
-847507,-1262347,administrative_region,"Okres Žiar nad Hronom","Okres Ziar nad Hronom",official,48.583333,18.866667,SK-BC,,
-847263,-1261990,settlement,"Vyšná Olšava","Vysna Olsava",official,49.158844,21.601933,SK-PV,,
-847381,-1262191,hypsographic,Zalaz,Zalaz,official,48.398808,19.124699,SK-BC,,
-847181,-1261894,settlement,Vrakúň,Vrakun,official,47.942928,17.601128,SK-TA,,
-847102,-1254673,settlement,"Dvor Vinohrádok","Dvor Vinohradok",variant,48.41849,16.99609,SK-BL,,
-845740,-1259951,hydrographic,Sekier,Sekier,official,48.557299,19.164292,SK-BC,,
-847117,-1261816,settlement,Vitálišovce,Vitalisovce,official,49.088086,19.651305,SK-ZI,,
-847476,-1262304,settlement,Želovce,Zelovce,official,48.123622,19.355934,SK-BC,,
-847531,-1262374,hydrographic,Žitava,Zitava,official,47.843189,18.128109,SK-000,,
-847158,-1261865,settlement,Vojnatina,Vojnatina,official,48.735219,22.229896,SK-KI,,
-847419,-1262237,settlement,Závada,Zavada,official,49.172323,21.785767,SK-PV,,
-847462,-1262287,hypsographic,Želehost,Zelehost,official,49.23263,18.898882,SK-ZI,,
-847291,-1261412,settlement,Valice,Valice,variant,48.457743,20.188243,SK-BC,,
-847279,-1262007,settlement,"Vyšné Ladičkovce","Vysne Ladickovce",official,49.039753,21.891554,SK-PV,,
-847448,-1262269,settlement,"Zbudský Rokytov","Zbudsky Rokytov",official,49.10258,21.989942,SK-PV,,
-847369,-1262177,settlement,Záhrb,Zahrb,official,48.418782,18.625314,SK-BC,,
-847173,-1261886,settlement,"Votrubova Chata","Votrubova Chata",official,49.233333,20.216667,SK-PV,,
-847536,-1262380,hypsographic,Žľab,Zl'ab,official,48.906722,17.925499,SK-NI,,
-847558,-1262405,settlement,Žlkovce,Zlkovce,official,48.460955,17.717957,SK-TA,,
-847119,-1261822,settlement,Vitež,Vitez,variant,48.971374,20.956542,SK-PV,,
-847461,-1262286,settlement,Žehra,Zehra,official,48.979597,20.791697,SK-PV,,
-847399,-1262215,settlement,Žarnov,Zarnov,official,48.583372,20.924079,SK-KI,,
-847470,-1262298,hypsographic,Železník,Zeleznik,official,48.622434,20.128277,SK-BC,,
-847501,-1262340,hypsographic,Žiar,Ziar,official,48.886527,18.7383,SK-NI,,
-847184,-1261898,administrative_region,"Okres Vranov","Okres Vranov",official,48.916667,21.583333,SK-000,1,
-847299,-1255681,settlement,Hrušov,Hrusov,variant,48.993869,22.01314,SK-PV,,
-847273,-1262033,settlement,"Vyšnia Šuňava","Vysnia Sunava",variant,49.030585,20.0845,SK-PV,,
-847541,-1262387,settlement,Zlaté,Zlate,official,49.339841,21.201155,SK-PV,,
-847153,-1261860,hypsographic,Vojené,Vojene,official,49.300358,19.043746,SK-ZI,,
-847297,-1262051,settlement,"Vyšní Hámor","Vysni Hamor",variant,48.60296,20.480004,SK-KI,,
-847115,-1261814,settlement,Visolaje,Visolaje,official,49.067438,18.362732,SK-NI,,
-847100,-1261795,settlement,Vinná,Vinna,variant,48.809649,21.967568,SK-KI,,
-847053,-1261729,settlement,Veselé,Vesele,official,48.549733,17.734337,SK-TA,,
-847273,-1262001,settlement,"Vyšná Šuňava","Vysna Sunava",official,49.030585,20.0845,SK-PV,,
-847093,-1261788,hypsographic,Vinica,Vinica,official,49.021789,21.141855,SK-PV,,
-847048,-1261723,hypsographic,Veretyšov,Veretysov,official,49.35,21.9,SK-000,,
-847250,-1261977,settlement,Vyškovce,Vyskovce,official,49.251022,21.669334,SK-PV,,
-847178,-1261891,settlement,"Vozokany nad Hronom","Vozokany nad Hronom",official,48.012093,18.662058,SK-NI,,
-847443,-1262264,spot,"Zřícenina Zborov","Zricenina Zborov",official,49.35,21.3,SK-PV,,
-847248,-1261975,hypsographic,Vyšehrad,Vysehrad,official,48.876272,18.699137,SK-000,,
-847549,-1262395,settlement,Zlatno,Zlatno,official,48.464614,18.31294,SK-NI,,
-847060,-1260807,hypsographic,"Széles Pallag","Szeles Pallag",variant,48.35,20.4,SK-BC,,
-847383,-1262194,settlement,Žalobín,Zalobin,official,48.969518,21.72982,SK-PV,,
-847809,-1262591,hypsographic,"Aggteleki Hegység","Aggteleki Hegyseg",variant,48.5,20.5,S1-000,,
-847138,-1261844,settlement,Vlčkovce,Vlckovce,official,48.317014,17.649697,SK-TA,,
-847234,-1262140,hydrographic,Wödritz,Wodritz,variant,48.144394,17.072299,SK-000,,
-847354,-1260789,settlement,Szadelo,Szadelo,variant,48.612162,20.832824,SK-KI,,
-847353,-1262305,settlement,Zelterje,Zelterje,variant,48.404989,20.054495,SK-BC,,
-847009,-1256812,hypsographic,Kriváň,Krivan,variant,49.18842,19.030526,SK-ZI,,
-847413,-1262231,settlement,Závada,Zavada,official,48.291214,19.487875,SK-BC,,
-847583,-1262447,settlement,Zvala,Zvala,official,49.133333,22.233333,SK-PV,,
-847064,-1261744,hypsographic,Veža,Veza,official,49.15,20.25,SK-PV,,
-847348,-1262155,settlement,Záborie,Zaborie,official,49.037074,18.983893,SK-ZI,,
-847380,-1262188,settlement,Zalaba,Zalaba,official,47.963493,18.701255,SK-NI,,
-847556,-1262403,hypsographic,"Zliechovská Dolina","Zliechovska Dolina",official,48.910506,18.460223,SK-NI,,
-847559,-1262407,spot,"Zřícenina Zniev","Zricenina Zniev",variant,48.968512,18.773226,SK-ZI,,
-847257,-1256130,settlement,Káloša,Kalosa,variant,48.432602,20.224662,SK-BC,,
-847045,-1255089,hypsographic,Harb,Harb,variant,48.7148,19.458,SK-BC,,
-847010,-1256867,settlement,Krtíš,Krtis,variant,48.210585,19.35043,SK-BC,,
-847034,-1261696,settlement,"Veľký Sulín","Vel'ky Sulin",official,49.369971,20.762963,SK-PV,,
-847444,-1262265,settlement,"Zborov nad Bystricou","Zborov nad Bystricou",official,49.379667,18.886607,SK-ZI,,
-847298,-1262075,settlement,"Vyšný Hrabovec","Vysny Hrabovec",official,49.089239,21.687711,SK-PV,,
-847063,-1261743,hypsographic,Veža,Veza,official,49.015682,22.41891,SK-PV,,
-847516,-1262359,settlement,Zigovci,Zigovci,official,49.226581,18.288092,SK-NI,,
-847543,-1262389,spot,"Železničná Stanica Zlaté Moravce-Závody","Zeleznicna Stanica Zlate Moravce-Zavody",official,48.4,18.4,SK-NI,,
-847619,-1255422,settlement,"Hornia Ždáňa","Hornia Zdana",variant,48.568935,18.750103,SK-BC,,
-847242,-1261969,hypsographic,Vyhnatová,Vyhnatova,official,48.756714,19.00409,SK-ZI,,
-847587,-1262452,administrative_region,"Okres Zvolen","Okres Zvolen",official,48.583333,19.133333,SK-BC,,
-847161,-1261868,settlement,Vojtechovce,Vojtechovce,official,48.101346,17.476854,SK-TA,,
-847475,-1262303,settlement,Želmanovce,Zelmanovce,official,49.118207,21.428328,SK-PV,,
-847548,-1262394,spot,Zlatno,Zlatno,official,48.5,18.466667,SK-NI,,
-847508,-1262345,hypsographic,"Žiar Basin","Ziar Basin",variant,48.55,18.8,SK-BC,,
-847317,-1262099,settlement,"Vysocký Dvor","Vysocky Dvor",official,48.632259,22.100292,SK-KI,,
-847199,-1261918,settlement,Vrbovce,Vrbovce,official,48.799487,17.468981,SK-NI,,
-847024,-1261685,hypsographic,"Veľký Plešivec","Vel'ky Plesivec",official,48.701659,17.736711,SK-NI,,
-847522,-1262365,administrative_region,"Okres Žilina","Okres Zilina",official,49.216667,18.733333,SK-ZI,,
-847196,-1261913,settlement,Vŕbnica,Vrbnica,official,48.681272,21.887836,SK-KI,,
-847355,-1262162,hypsographic,"Zadnia Hoľa","Zadnia Hol'a",official,48.910933,19.876755,SK-ZI,,
-847273,-1262049,settlement,"Vyšnie Šuňava","Vysnie Sunava",variant,49.030585,20.0845,SK-PV,,
-847016,-1261486,settlement,"Velikij Lipnik","Velikij Lipnik",variant,49.374492,20.501298,SK-000,,
-847268,-1261996,settlement,"Vyšná Revúca","Vysna Revuca",official,48.909443,19.16607,SK-ZI,,
-847072,-1261756,settlement,Vieska,Vieska,official,48.004174,17.529183,SK-TA,,
-847145,-1261851,settlement,Vlkolínec,Vlkolinec,official,49.039511,19.27769,SK-ZI,,
-847327,-1262107,settlement,Vysoká,Vysoka,variant,48.626087,22.09133,SK-KI,,
-847569,-1262425,spot,Zsemľov,Zseml'ov,official,47.85,17.633333,SK-TA,,
-847479,-1262309,settlement,"Zemianska Dedina","Zemianska Dedina",official,49.322631,19.515107,SK-ZI,,
-847201,-1261920,settlement,Vrbové,Vrbove,official,48.619726,17.722604,SK-TA,,
-847041,-1261706,settlement,Velušovce,Velusovce,official,48.629866,18.097216,SK-NI,,
-847565,-1262416,settlement,Zombor,Zombor,official,48.136602,19.446915,SK-BC,,
-847272,-1262000,settlement,"Vyšná Slaná","Vysna Slana",official,48.786075,20.318352,SK-KI,,
-847245,-1261771,hypsographic,Vigorlat,Vigorlat,variant,48.833333,22.25,SK-KI,,
-847580,-1262443,spot,Zúgó,Zugo,official,48.166667,17.616667,SK-TA,,
-847656,-1530350,settlement,"Na Hrázi","Na Hrazi",official,48.833333,17.216667,SK-TA,,
-847276,-1262035,settlement,"Vyšní Čabiny","Vysni Cabiny",variant,49.179946,21.901355,SK-PV,,
-847453,-1262274,settlement,Ždiar,Zdiar,official,49.133333,20.733333,SK-PV,,
-847523,19805734,administrative_region,Žilina,Zilina,official,49.166667,19.166667,SK-ZI,,
-847031,-1261693,settlement,"Veľký Šariš","Vel'ky Saris",official,49.04114,21.199298,SK-PV,,
-847266,-1261993,settlement,"Vyšná Poľanka","Vysna Pol'anka",variant,49.429294,21.351358,SK-000,,
-847578,-1262441,hypsographic,Zubra,Zubra,official,48.877486,19.684867,SK-BC,,
-847587,9119917,administrative_region,Zvolen,Zvolen,variant,48.583333,19.133333,SK-BC,,
-847094,-1261789,settlement,Vinica,Vinica,official,48.117276,19.118622,SK-BC,,
-847257,-1262053,settlement,"Vyšní Káloša","Vysni Kalosa",variant,48.432602,20.224662,SK-BC,,
-847091,-1261786,settlement,"Vilmos Majer","Vilmos Majer",official,48,17.683333,SK-TA,,
-847301,-1262055,settlement,"Vyšní Komárnik","Vysni Komarnik",variant,49.402112,21.705602,SK-000,,
-847429,-1262248,settlement,Závodie,Zavodie,official,49.21509,18.719261,SK-ZI,,
-847512,-1262353,spot,"Zichy Pusta","Zichy Pusta",official,48.4,19.283333,SK-BC,,
-847304,-1262086,settlement,"Vyšný Lánec","Vysny Lanec",official,48.530401,21.129724,SK-KI,,
-847517,-1262360,settlement,"Žigov Olvár","Zigov Olvar",official,48.132679,19.002138,SK-NI,,
-847193,-1261910,settlement,Vrbica,Vrbica,official,49.083333,19.616667,SK-ZI,,
-847206,-1261925,settlement,Vrchovany,Vrchovany,official,48.946966,18.546211,SK-ZI,,
-847502,-1262341,hypsographic,Žiar,Ziar,official,49.107156,18.739488,SK-ZI,,
-847491,-1262424,settlement,Zsemlér,Zsemler,variant,48.148314,18.603717,SK-NI,,
-847524,-1262367,settlement,Zimáci,Zimaci,official,48.667666,17.496822,SK-TA,,
-847389,-1262200,settlement,"Zámocká Pusta","Zamocka Pusta",official,47.789492,18.156503,SK-NI,,
-847100,-1261796,settlement,Vinné,Vinne,official,48.809649,21.967568,SK-KI,,
-847290,-1262046,settlement,"Vyšnie Ružbachy","Vysnie Ruzbachy",variant,49.30387,20.565577,SK-PV,,
-847039,-1261702,hypsographic,"Veľký Žiar","Vel'ky Ziar",official,48.422849,18.742424,SK-BC,,
-847434,-1262253,settlement,Zázrivá,Zazriva,official,49.277097,19.156441,SK-ZI,,
-847174,-1261887,hydrographic,Voutky,Voutky,official,49.002074,18.990328,SK-ZI,,
-847486,-1262317,settlement,"Zemianske Mitice","Zemianske Mitice",official,48.819798,18.118305,SK-NI,,
-847496,-1262332,settlement,"Zemplínska Teplica","Zemplinska Teplica",official,48.646613,21.572112,SK-KI,,
-847219,-1261941,settlement,Všechsvätých,Vsechsvatych,official,48.638168,21.303004,SK-KI,,
-847466,-1262296,settlement,"Železná Studienka","Zelezna Studienka",variant,48.183333,17.066667,SK-BL,,
-847324,-1262106,settlement,Vysoká,Vysoka,official,48.412001,18.789465,SK-BC,,
-847140,-1261846,settlement,Vlčkovo,Vlckovo,official,48.762732,18.206202,SK-NI,,
-847307,-1262079,settlement,"Vyšnyj Orlich","Vysnyj Orlich",variant,49.343448,21.502058,SK-PV,,
-847204,-1261438,settlement,Varbó,Varbo,variant,48.090519,19.40872,SK-BC,,
-847485,-1262316,settlement,"Zemianske Lieskové","Zemianske Lieskove",official,48.845025,17.916189,SK-NI,,
-847006,-1261660,settlement,"Veľký Kolačín","Vel'ky Kolacin",official,48.934836,18.166237,SK-NI,,
-847111,-1261809,settlement,Višňové,Visnove,official,48.515824,20.187858,SK-BC,,
-847095,-1254672,settlement,"Dvor Vinice","Dvor Vinice",variant,48.1,18.466667,SK-NI,,
-847377,-1262185,settlement,Zákostolany,Zakostolany,official,48.5,17.716667,SK-TA,,
-847362,-1262170,settlement,Záhorčie,Zahorcie,official,48.493281,18.740258,SK-BC,,
-847081,-1261765,settlement,"Vieska nad Blhom","Vieska nad Blhom",official,48.351134,20.19881,SK-BC,,
-847513,-1262354,spot,Židovo,Zidovo,official,48.380162,19.847971,SK-BC,,
-847384,-1262195,settlement,Zálogoš,Zalogos,official,48.066667,18.516667,SK-NI,,
-847284,-1262041,settlement,"Vyšnie Opátske","Vysnie Opatske",variant,48.703261,21.290275,SK-KI,,
-847025,-1261686,settlement,"Veľký Potok","Vel'ky Potok",official,49.36011,18.993587,SK-ZI,,
-847337,-1252986,hypsographic,"Beskid Wysoki","Beskid Wysoki",variant,49.5,19.5,SK-ZI,,
-847523,-1262366,administrative_region,"Žilinský Kraj","Zilinsky Kraj",official,49.166667,19.166667,SK-ZI,,
-847393,-1262205,settlement,Zámutov,Zamutov,official,48.901443,21.556975,SK-PV,,
-847584,-1262448,settlement,Zverín,Zverin,official,48.833333,18.8,SK-ZI,,
-847390,-1262201,spot,Zámolyova,Zamolyova,official,47.833333,17.933333,SK-NI,,
-847507,9119915,administrative_region,"Žiar nad Hronom","Ziar nad Hronom",variant,48.583333,18.866667,SK-BC,,
-847079,-1261763,settlement,Vieska,Vieska,official,48.333333,19.683333,SK-BC,,
-847457,-1262278,settlement,Zdoba,Zdoba,official,48.707697,21.331535,SK-KI,,
-847302,-1262083,settlement,"Vyšný Kručov","Vysny Krucov",official,49.166667,21.1,SK-PV,,
-847209,-1261928,settlement,Vrchteplá,Vrchtepla,official,49.130147,18.562711,SK-NI,,
-847283,-1262011,settlement,"Vyšné Nemecké","Vysne Nemecke",official,48.660769,22.261848,SK-KI,,
-847522,9119895,administrative_region,Žilina,Zilina,variant,49.216667,18.733333,SK-ZI,,
-847585,-1262450,hypsographic,Zvolen,Zvolen,official,48.890615,19.223648,SK-ZI,,
-847066,-1261748,spot,"Vichorský Dvor","Vichorsky Dvor",variant,48.3,17.5,SK-TA,,
-847415,-1262233,settlement,Závada,Zavada,official,48.64129,18.085308,SK-NI,,
-847205,-1261924,hydrographic,Vrbovok,Vrbovok,official,48.185938,19.017859,SK-BC,,
-847023,-1261684,settlement,"Veľký Pesek","Vel'ky Pesek",official,48.076449,18.712813,SK-NI,,
-847038,-1261701,hypsographic,"Veľký Vrch","Vel'ky Vrch",official,49.166667,19.75,SK-ZI,,
-847504,-1262343,settlement,Žiar,Ziar,official,48.438546,20.273041,SK-BC,,
-847305,-1262087,settlement,"Vyšný Medzev","Vysny Medzev",official,48.713953,20.902875,SK-KI,,
-847226,-1261950,settlement,Vybuchanec,Vybuchanec,official,48.820991,21.816912,SK-KI,,
-847343,-1262149,hydrographic,Zábidovčik,Zabidovcik,official,49.352529,19.583576,SK-ZI,,
-847534,-1262377,settlement,Žitná,Zitna,official,48.766312,18.35058,SK-NI,,
-847258,-1261985,settlement,"Vyšná Kamenica","Vysna Kamenica",official,48.77852,21.485574,SK-KI,,
-847070,-1261753,settlement,Vidovany,Vidovany,official,48.770981,17.253608,SK-TA,,
-847127,-1261828,settlement,Vlača,Vlaca,official,49.048769,21.510631,SK-PV,,
-847220,-1261942,hypsographic,"Vtačí Vršok","Vtaci Vrsok",official,48.732249,17.999181,SK-NI,,
-847570,-1256513,spot,"Koller Pusta","Koller Pusta",variant,47.95,18.516667,SK-NI,,
-847557,-1262404,settlement,Zlieň,Zlien,official,49.266667,18.95,SK-ZI,,
-847299,-1262076,settlement,"Vyšný Hrušov","Vysny Hrusov",official,48.993869,22.01314,SK-PV,,
-847371,-1262179,spot,"Za Jamami","Za Jamami",official,48.671473,17.988644,SK-NI,,
-847287,-1262063,settlement,"Vyšní Remety","Vysni Remety",variant,48.827809,22.167755,SK-KI,,
-847581,-1262445,settlement,Župčany,Zupcany,official,49.012055,21.158737,SK-PV,,
-847268,-1262031,settlement,"Vyšnia Revúca","Vysnia Revuca",variant,48.909443,19.16607,SK-ZI,,
-847563,-1262413,settlement,Zolná,Zolna,official,48.600282,19.224627,SK-BC,,
-847176,-1261745,settlement,Vezekény,Vezekeny,variant,48.105822,17.688115,SK-TA,,
-847103,-1260844,hypsographic,"Szőlő Hegy","Szolo Hegy",variant,48.238104,17.377744,SK-BL,,
-847232,-1261959,settlement,Vydraň,Vydran,official,49.291822,21.934412,SK-PV,,
-847494,-1262330,settlement,Zemplín,Zemplin,official,48.439964,21.810116,SK-KI,,
-847291,-1262021,settlement,"Vyšné Valice","Vysne Valice",official,48.457743,20.188243,SK-BC,,
-847426,-1262245,settlement,"Závažná Poruba","Zavazna Poruba",official,49.05606,19.648016,SK-ZI,,
-847454,-1262275,settlement,Ždiar,Zdiar,official,49.270884,20.274905,SK-PV,,
-847438,-1262257,settlement,Zbehy,Zbehy,official,48.675585,17.682179,SK-NI,,
-847291,-1254772,settlement,Felső-Vály,Felso-Valy,variant,48.457743,20.188243,SK-BC,,
-847495,-1261777,hydrographic,"Vihorlatská priehradná nádrž","Vihorlatska priehradna nadrz",variant,48.78987,22.018156,SK-KI,,
-847314,-1262070,settlement,"Vyšní Zádiel","Vysni Zadiel",variant,49.133333,19.5,SK-ZI,,
-847222,-1261944,hypsographic,Vtáčnik,Vtacnik,official,48.624966,18.635033,SK-NI,,
-847050,-1261726,settlement,Vernár,Vernar,official,48.918499,20.270267,SK-PV,,
-847332,-1262118,hypsographic,Vysoký,Vysoky,official,49,22.083333,SK-PV,,
-845480,-1259611,hydrographic,Rieka,Rieka,official,48.166667,19.366667,SK-BC,,
-848084,-1262945,hypsographic,"Alsó Hegy","Also Hegy",official,48.583333,20.783333,S1-000,,
-847028,-1261690,hypsographic,"Veľký Rakytov","Vel'ky Rakytov",official,48.877564,18.985392,SK-ZI,,
-847274,-1262002,settlement,"Vyšná Vladiča","Vysna Vladica",official,49.30182,21.77794,SK-PV,,
-847427,-1262246,settlement,Závod,Zavod,official,48.544943,17.030282,SK-BL,,
-847217,-1261939,settlement,Vrútky,Vrutky,official,49.113284,18.917136,SK-ZI,,
-847066,-1261747,spot,Vichor,Vichor,official,48.3,17.5,SK-TA,,
-847311,-1262048,settlement,"Vyšnie Sliače","Vysnie Sliace",variant,49.055983,19.407951,SK-ZI,,
-847187,9141951,administrative_region,"Okres Vranov nad Topľov","Okres Vranov nad Topl'ov",variant,48.9,21.683333,SK-PV,,
-847116,-1261815,settlement,Vištuk,Vistuk,official,48.333434,17.399447,SK-BL,,
-847289,-1262017,settlement,"Vyšné Revištia","Vysne Revistia",official,48.733333,22.1,SK-KI,,
-847493,-1262328,hypsographic,"Zempléni Hegysor","Zempleni Hegysor",official,48.416667,21.416667,SK-000,,
-847065,-1261746,settlement,Víboch,Viboch,official,48.366667,19.116667,SK-BC,,
-847390,-1262202,spot,"Zámolyova Pusta","Zamolyova Pusta",variant,47.833333,17.933333,SK-NI,,
-847586,-1262451,settlement,Zvolen,Zvolen,official,48.57442,19.153236,SK-BC,,
-847218,-1261940,settlement,Vrzavka,Vrzavka,official,48.81015,17.753158,SK-NI,,
-847155,-1254463,settlement,Duna-Vajka,Duna-Vajka,variant,47.973455,17.381484,SK-TA,,
-847034,-1260639,settlement,Sulín,Sulin,variant,49.369971,20.762963,SK-PV,,
-847303,-1262084,settlement,"Vyšný Kubín","Vysny Kubin",official,49.184361,19.317018,SK-ZI,,
-847241,-1261968,settlement,Vygoda,Vygoda,official,49.266667,20.433333,SK-PV,,
-847228,-1261952,settlement,Výčapy-Opatovce,Vycapy-Opatovce,official,48.411494,18.082227,SK-NI,,
-847809,-1262593,hypsographic,"Slovenský Kras","Slovensky Kras",official,48.5,20.5,S1-000,,
-847300,-1262081,settlement,"Vyšný Klátov","Vysny Klatov",official,48.744818,21.124562,SK-KI,,
-847523,9119891,administrative_region,Žilinský,Zilinsky,variant,49.166667,19.166667,SK-ZI,,
-847367,-1262175,settlement,Záhradné,Zahradne,official,49.090842,21.269389,SK-PV,,
-847328,-1260881,hypsographic,"Tatra Mountains","Tatra Mountains",variant,49.166667,20,S1-000,,
-847290,-1262018,settlement,"Vyšné Ružbachy","Vysne Ruzbachy",official,49.30387,20.565577,SK-PV,,
-847490,-1262321,settlement,"Zemiansky Vrbovok","Zemiansky Vrbovok",official,48.334609,19.146149,SK-BC,,
-847216,-1261938,settlement,Vrtižer,Vrtizer,official,49.150419,18.467732,SK-NI,,
-847554,-1262401,hypsographic,"Zlatý Vrch","Zlaty Vrch",official,48.582975,17.889575,SK-TA,,
-847294,-1254762,settlement,Felső-Balog,Felso-Balog,variant,48.45,20.116667,SK-BC,,
-847525,-1262368,hypsographic,"Zimná Hora","Zimna Hora",official,48.977124,21.006189,SK-PV,,
-847285,-1262013,settlement,"Vyšné Raslavice","Vysne Raslavice",official,49.150547,21.315406,SK-PV,,
-847424,-1262242,settlement,"Závadka nad Hronom","Zavadka nad Hronom",official,48.852463,19.914533,SK-BC,,
-847397,-1262211,settlement,Zárieč,Zariec,variant,49.261973,18.641778,SK-ZI,,
-847133,-1261837,hypsographic,"Vlárský Prŭsmyk","Vlarsky Prusmyk",official,49.033333,18.083333,S1-000,,
-847189,-1261905,hypsographic,Vrata,Vrata,official,49.411446,19.390184,SK-ZI,,
-847374,-1261283,settlement,Uhry,Uhry,variant,49.166667,18.433333,SK-NI,,
-847249,-1261976,settlement,Vyšehradné,Vysehradne,official,48.887323,18.669363,SK-NI,,
-847106,-1261802,settlement,"Virthova Pustatina","Virthova Pustatina",official,47.753365,18.322674,SK-NI,,
-847553,-1262400,hypsographic,"Zlatý Stôl","Zlaty Stol",official,48.767201,20.655612,SK-KI,,
-847009,-1257692,hypsographic,"Malý Kriváň","Maly Krivan",variant,49.18842,19.030526,SK-ZI,,
-847055,-1261732,hypsographic,Veselka,Veselka,official,48.833333,17.383333,S1-000,,
-847020,-1261676,settlement,"Veľký Meder","Vel'ky Meder",official,47.855499,17.768313,SK-TA,,
-847057,-1261736,settlement,Veškovce,Veskovce,official,48.563037,22.102016,SK-KI,,
-847480,-1262311,settlement,"Zemianska Kotešová","Zemianska Kotesova",official,49.25,18.6,SK-ZI,,
-847162,-1261869,settlement,Vojtovce,Vojtovce,official,49.205237,21.693321,SK-PV,,
-847433,-1262252,hypsographic,Zavoz,Zavoz,official,48.533333,19.15,SK-BC,,
-847535,-1262378,settlement,Žitva,Zitva,official,47.745562,18.338324,SK-NI,,
-847477,-1262306,settlement,Zemania,Zemania,official,48.75,17.6,SK-NI,,
-847044,-1261711,hypsographic,Vepor,Vepor,official,48.687475,19.767015,SK-BC,,
-847256,-1261983,settlement,"Vyšná Jedľová","Vysna Jedl'ova",official,49.347043,21.542104,SK-PV,,
-847112,-1261810,settlement,Višňové,Visnove,official,48.725322,17.753446,SK-NI,,
-847582,-1262446,settlement,Župkov,Zupkov,official,48.525415,18.629742,SK-BC,,
-847257,-1254765,settlement,Felső-Kálosa,Felso-Kalosa,variant,48.432602,20.224662,SK-BC,,
-847518,-1262357,settlement,Žigard,Zigard,variant,48.072309,17.886739,SK-NI,,
-847276,-1262037,settlement,"Vyšnie Cabiny","Vysnie Cabiny",variant,49.179946,21.901355,SK-PV,,
-847588,-1262453,settlement,"Zvolenská Slatina","Zvolenska Slatina",official,48.563533,19.25989,SK-BC,,
-847096,-1261791,settlement,Vinička,Vinicka,official,48.67032,21.014627,SK-KI,,
-847472,-1262300,hypsographic,"Železný Vrch","Zelezny Vrch",official,48.782113,21.095365,SK-KI,,
-847551,-1262397,settlement,Zlatno,Zlatno,official,48.827729,20.084503,SK-BC,,
-847328,-755147,hypsographic,"Tatry Wysokie","Tatry Wysokie",variant,49.166667,20,S1-000,,
-847471,-1262299,settlement,Železník,Zeleznik,official,49.093005,21.502275,SK-PV,,
-847082,-1261766,settlement,"Vieska nad Žitavou","Vieska nad Zitavou",official,48.318334,18.360052,SK-NI,,
-847360,-1262168,settlement,Záhor,Zahor,official,48.624879,22.20496,SK-KI,,
-847499,-1256388,settlement,Klečenov,Klecenov,variant,48.558128,21.671772,SK-KI,,
-847095,-1261790,settlement,Vinice,Vinice,official,48.1,18.466667,SK-NI,,
-847282,-1262010,settlement,"Vyšné nad Hronom","Vysne nad Hronom",official,48.162739,18.584498,SK-NI,,
-847586,-1262415,settlement,Zólyom,Zolyom,variant,48.57442,19.153236,SK-BC,,
-847018,-1261672,hypsographic,"Velký Lopeník","Velky Lopenik",official,48.919582,17.781984,SK-000,,
-845697,-1259892,settlement,Sása,Sasa,official,48.066667,17.45,SK-TA,,
-847269,-1261997,settlement,"Vyšná Rybnica","Vysna Rybnica",official,48.822144,22.177322,SK-KI,,
-847287,-1262015,settlement,"Vyšné Remety","Vysne Remety",official,48.827809,22.167755,SK-KI,,
-847364,-1262172,settlement,"Záhorská Bystrica","Zahorska Bystrica",official,48.240847,17.039129,SK-BL,,
-847094,-1258216,settlement,Nekyje,Nekyje,variant,48.117276,19.118622,SK-BC,,
-847271,-1261999,settlement,"Vyšná Sitnica","Vysna Sitnica",official,49.097068,21.788831,SK-PV,,
-847285,-1260212,settlement,"Slovenské Raslavice","Slovenske Raslavice",variant,49.150547,21.315406,SK-PV,,
-847637,-1530348,settlement,"Košický Klečenov","Kosicky Klecenov",official,48.739597,21.50653,SK-KI,,
-847506,-1262346,settlement,"Žiar nad Hronom","Ziar nad Hronom",official,48.591835,18.849577,SK-BC,,
-847168,-1261876,hypsographic,Volovec,Volovec,official,48.757995,20.550599,SK-KI,,
-847033,-1261695,settlement,"Veľký Slivník","Vel'ky Slivnik",official,49.114197,21.275139,SK-PV,,
-847146,-1261852,settlement,Vlková,Vlkova,official,49.059742,20.429814,SK-PV,,
-847591,-1262456,settlement,Zvončín,Zvoncin,official,48.400704,17.506483,SK-TA,,
-847316,-1262098,settlement,Vysočany,Vysocany,official,48.678928,18.318549,SK-NI,,
-847306,-1262088,settlement,"Vyšný Mirošov","Vysny Mirosov",official,49.386381,21.447399,SK-PV,,
-847144,-1261850,settlement,Vlkas,Vlkas,official,48.127426,18.27783,SK-NI,,
-847308,-1262090,spot,"Vyšný Petrovec","Vysny Petrovec",official,48.396351,19.759584,SK-BC,,
-847233,-1255231,settlement,Hodos,Hodos,variant,48.018056,17.585877,SK-TA,,
-847401,-1262217,hydrographic,Žarnovica,Zarnovica,official,48.833333,18.883333,SK-ZI,,
-847190,-1261907,hypsographic,Vratné,Vratne,official,48.62721,17.567589,SK-TA,,
-847366,-1262174,settlement,Zahrabová,Zahrabova,official,49.199926,19.207067,SK-ZI,,
-847497,-1262333,settlement,"Zemplínske Hradište","Zemplinske Hradiste",official,48.583565,21.737222,SK-KI,,
-847204,-1261923,settlement,Vrbovka,Vrbovka,official,48.090519,19.40872,SK-BC,,
-847177,-1261890,settlement,Vozokany,Vozokany,official,48.565622,17.994554,SK-NI,,
-847264,-1261991,settlement,"Vyšná Pisaná","Vysna Pisana",official,49.401909,21.613276,SK-PV,,
-847123,-1261823,settlement,Vítkovce,Vitkovce,official,48.575586,18.097032,SK-NI,,
-847244,-1261774,hypsographic,Vihorlat,Vihorlat,official,48.891107,22.115225,SK-PV,,
-847270,-1261998,settlement,"Vyšná Šebastová","Vysna Sebastova",official,49.015888,21.323544,SK-PV,,
-847412,-1262230,settlement,Záturčie,Zaturcie,official,49.092471,18.918094,SK-ZI,,
-847179,-1261892,settlement,Vráble,Vrable,official,48.241019,18.310771,SK-NI,,
-847015,-1261669,settlement,"Veľký Lél","Vel'ky Lel",official,47.759114,17.947019,SK-NI,,
-847288,-1262044,settlement,"Vyšnie Repaše","Vysnie Repase",variant,49.067768,20.687338,SK-PV,,
-847300,-1262068,settlement,"Vyšní Tejkeš","Vysni Tejkes",variant,48.744818,21.124562,SK-KI,,
-847470,-1259966,hypsographic,Šelezník,Seleznik,variant,48.622434,20.128277,SK-BC,,
-847255,-1261982,settlement,"Vyšná Jablonka","Vysna Jablonka",official,49.155832,22.098418,SK-PV,,
-847215,-1261937,spot,"Myslivna Vršky","Myslivna Vrsky",variant,48.998866,19.415755,SK-ZI,,
-847325,-1262108,settlement,Vysoká,Vysoka,official,49.125333,20.882209,SK-PV,,
-846128,-1260436,settlement,Štefanov,Stefanov,official,48.679179,17.201045,SK-TA,,
-844817,-1258759,settlement,Padáň,Padan,official,47.931294,17.682809,SK-TA,,
-845004,-1259025,settlement,"Plaveč nad Popradom","Plavec nad Popradom",variant,49.26268,20.842254,SK-PV,,
-844783,-1261703,hypsographic,"Veľký Žitný Ostrov","Vel'ky Zitny Ostrov",variant,48,17.6,SK-TA,,
-844863,-1258827,hypsographic,Parač,Parac,official,49.324028,19.21541,SK-ZI,,
-845366,-1259469,settlement,Radoma,Radoma,official,49.202918,21.565275,SK-PV,,
-845351,-1259446,settlement,Rabča,Rabca,official,49.486018,19.476181,SK-ZI,,
-846184,-1260505,hypsographic,Stráža,Straza,official,49.064501,21.255297,SK-PV,,
-847003,-1261658,settlement,"Veľký Kevežd","Vel'ky Kevezd",variant,48.361591,21.805866,SK-KI,,
-846372,-1260747,spot,Švehlovo,Svehlovo,official,48.133333,17.6,SK-TA,,
-846631,-1261159,settlement,"Trstená na Ostrove","Trstena na Ostrove",official,47.917839,17.499503,SK-TA,,
-846798,-1261401,settlement,Valaská,Valaska,official,48.807558,19.570961,SK-BC,,
-845428,-1259546,settlement,Ráztočno,Raztocno,official,48.769413,18.75913,SK-NI,,
-846964,-1261610,settlement,"Veľké Stankovce","Vel'ke Stankovce",official,48.827866,17.98927,SK-NI,,
-846189,-1260512,settlement,Strážisko,Strazisko,official,49.190795,18.33815,SK-NI,,
-846206,-1260534,settlement,"Streda nad Bodrokom","Streda nad Bodrokom",variant,48.372171,21.754227,SK-KI,,
-846072,-1260366,settlement,"Stakčianska Roztoka","Stakcianska Roztoka",official,49.003926,22.284775,SK-PV,,
-844956,-1258958,settlement,Petrovenec,Petrovenec,official,49.15,20.983333,SK-PV,,
-845237,9119878,administrative_region,Prešov,Presov,variant,49,21.25,SK-PV,,
-845247,-1259320,settlement,Pribšska,Pribsska,official,49.370778,19.213555,SK-ZI,,
-846121,-1260423,spot,Šťavica,St'avica,official,48.380434,19.806087,SK-BC,,
-845652,-1259826,settlement,Šalgovík,Salgovik,official,48.996429,21.285351,SK-PV,,
-845301,-1259380,settlement,Pružina,Pruzina,official,49.016325,18.479974,SK-NI,,
-845642,-1259808,settlement,"Šajdíkove Humence","Sajdikove Humence",official,48.654255,17.267623,SK-TA,,
-846799,-1261402,settlement,"Valaská Belá","Valaska Bela",official,48.888032,18.395191,SK-NI,,
-846505,-1260974,hydrographic,"Tichý Potok","Tichy Potok",official,49.15,19.916667,SK-PV,,
-845213,-1259269,settlement,Prašník,Prasnik,official,48.651455,17.687324,SK-TA,,
-846644,-1261174,settlement,Tuhár,Tuhar,official,48.429327,19.505443,SK-BC,,
-845403,-1259512,hypsographic,Rakovka,Rakovka,official,49.383333,18.783333,SK-ZI,,
-845015,-1259035,hypsographic,Plešine,Plesine,official,48.216667,17.966667,SK-NI,,
-846446,-1260890,spot,Téhány,Tehany,official,48.366667,20.116667,SK-BC,,
-844924,-1258913,spot,"Železničná Stanica Perbete","Zeleznicna Stanica Perbete",official,47.933333,18.316667,SK-NI,,
-844992,-1259003,settlement,Piskorovce,Piskorovce,official,49.105989,21.734802,SK-PV,,
-844814,-1258756,settlement,Pača,Paca,official,48.682035,20.612064,SK-KI,,
-846237,-1256499,settlement,Kolbachy,Kolbachy,variant,49.012357,20.769034,SK-PV,,
-845440,-1259561,hypsographic,Redikanovo,Redikanovo,official,49.45,19.433333,SK-ZI,,
-845769,-1259990,settlement,"Senohradské Lazy","Senohradske Lazy",official,48.374492,19.219527,SK-BC,,
-845153,-1253972,settlement,Deutschendorf,Deutschendorf,variant,49.061442,20.297984,SK-PV,,
-844996,-1259008,settlement,"Plachtinské Lazy","Plachtinske Lazy",official,48.248506,19.241167,SK-BC,,
-845730,-1260838,settlement,"Szögyén Pusta","Szogyen Pusta",variant,48.12154,17.590737,SK-TA,,
-846070,-1260364,settlement,Srnosiete,Srnosiete,official,48.566178,18.892135,SK-BC,,
-846454,-1260906,settlement,"Tekovské Šarluhy","Tekovske Sarluhy",variant,48.098648,18.537875,SK-NI,,
-845237,-1259299,administrative_region,"Okres Prešov","Okres Presov",official,49,21.25,SK-PV,,
-846991,-1254667,settlement,"Dvor Veľký Chrasď","Dvor Vel'ky Chrasd'",variant,47.916725,18.258645,SK-NI,,
-844836,-1259851,settlement,Sap,Sap,variant,47.816667,17.616667,SK-TA,,
-846990,-1253695,hypsographic,Choč,Choc,variant,49.150872,19.342849,SK-ZI,,
-846154,-1260468,settlement,Štítnik,Stitnik,official,48.65898,20.364013,SK-KI,,
-845325,-1259416,settlement,"Pusta Paula","Pusta Paula",official,48.1,18.766667,SK-NI,,
-846413,-1260821,spot,Széplak,Szeplak,official,48.316667,19.816667,SK-BC,,
-844748,-1258676,settlement,Ortáše,Ortase,official,48.83016,21.35968,SK-KI,,
-846980,-1258174,settlement,Nagy-Zellő,Nagy-Zello,variant,48.19974,19.45582,SK-BC,,
-846246,-1260372,settlement,Stampfen,Stampfen,variant,48.271056,17.031088,SK-BL,,
-846986,-1261634,hypsographic,"Veľký Bukovec","Vel'ky Bukovec",official,49.057932,22.444111,SK-PV,,
-845519,-1259661,hydrographic,Rosinka,Rosinka,official,49.207871,18.778711,SK-ZI,,
-844931,-1258925,spot,"Pereš Majer","Peres Majer",official,48.259291,18.235923,SK-NI,,
-846564,-1261071,spot,Trebašovce,Trebasovce,official,48.650861,18.307009,SK-NI,,
-845546,-1259693,settlement,Rožkovany,Rozkovany,official,49.137886,20.989856,SK-PV,,
-845631,-1259792,settlement,Šaca,Saca,official,48.63354,21.169439,SK-KI,,
-846151,-1260462,hypsographic,"Štiavnické Vrchy","Stiavnicke Vrchy",variant,48.416667,18.833333,SK-BC,,
-845166,-1259211,hypsographic,Poroňa,Porona,official,48.483333,20.5,SK-KI,,
-845605,-1259756,hypsographic,Rusniačka,Rusniacka,official,49.353825,19.19644,SK-ZI,,
-845882,-1260131,hydrographic,Sajó,Sajo,official,47.933333,21.116667,S1-000,,
-846613,-1260873,settlement,Tárnok,Tarnok,variant,48.013768,17.404751,SK-TA,,
-847004,-1261657,settlement,"Veľký Kazimír","Vel'ky Kazimir",official,48.523568,21.585514,SK-KI,,
-846080,-1258515,settlement,Ó-Bást,O-Bast,variant,48.181043,19.9446,SK-BC,,
-846495,-1260960,settlement,Tešedíkovo,Tesedikovo,official,48.106093,17.851904,SK-NI,,
-846082,-1253604,settlement,Černová,Cernova,variant,49.091336,19.26399,SK-ZI,,
-844983,-1258990,settlement,Pilhov,Pilhov,official,49.411093,20.709612,SK-000,,
-844880,-1258852,settlement,Pašienka,Pasienka,official,48.071002,17.742307,SK-TA,,
-846958,-1261603,settlement,"Veľké Poľo","Vel'ke Pol'o",variant,48.662013,21.642908,SK-KI,,
-845207,-1259262,settlement,Prakovce,Prakovce,official,48.81588,20.89607,SK-KI,,
-846036,-1260322,settlement,"Šóšovský Ostrov","Sosovsky Ostrov",official,48.016667,17.733333,SK-TA,,
-846878,-1261506,settlement,"Veľká Franková","Vel'ka Frankova",official,49.338291,20.29371,SK-000,,
-846657,-1261191,settlement,"Turčiansky Svätý Michal","Turciansky Svaty Michal",official,48.884695,18.863011,SK-ZI,,
-845271,-1259345,settlement,Príles,Priles,official,48.951476,18.135368,SK-NI,,
-846573,-1256547,hypsographic,Končar,Koncar,variant,49.041315,18.82308,SK-ZI,,
-844926,-1258916,hydrographic,Perec,Perec,official,48.134975,18.684242,SK-000,,
-845815,-1259420,settlement,"Pusta Siriny","Pusta Siriny",variant,48.593362,19.079966,SK-BC,,
-844907,-1258887,settlement,Pavlovo,Pavlovo,official,48.439014,21.836477,SK-KI,,
-846882,-1258147,settlement,Nagy-Ida,Nagy-Ida,variant,48.595952,21.167947,SK-KI,,
-845400,-1259509,settlement,Rakovec,Rakovec,official,48.841421,20.433299,SK-KI,,
-846295,-1260645,settlement,Súľova,Sul'ova,official,48.811975,20.478986,SK-KI,,
-846197,-1260522,spot,"Železničná Stanica Strážske","Zeleznicna Stanica Strazske",official,48.866667,21.833333,SK-KI,,
-846399,-1260627,settlement,Sudov,Sudov,variant,48.082951,18.650351,SK-NI,,
-845619,-1259774,settlement,Rybky,Rybky,official,48.709261,17.338107,SK-TA,,
-846060,-1260350,settlement,"Spišský Hrušov","Spissky Hrusov",official,48.947457,20.705903,SK-KI,,
-846717,-1261270,hypsographic,Uhorská,Uhorska,official,48.492159,19.760709,SK-BC,,
-844949,-1258949,settlement,Petrovany,Petrovany,official,48.921819,21.26087,SK-PV,,
-845124,-1259157,settlement,Poliakovce,Poliakovce,official,49.25526,21.406403,SK-PV,,
-845524,-1259667,settlement,Rosuchov,Rosuchov,official,48.54146,17.468899,SK-TA,,
-846410,9343533,spot,Sarvaš,Sarvas,official,47.788965,18.482094,SK-NI,,
-846537,-1261024,settlement,Topoľa,Topol'a,official,49.045344,22.354959,SK-PV,,
-845601,9119973,settlement,"Vyšný Kazimír","Vysny Kazimir",official,48.940454,21.680915,SK-PV,,
-845175,-1259225,settlement,Porúbka,Porubka,official,49.199907,21.429116,SK-PV,,
-845743,-1259954,settlement,Selany,Selany,official,48.156729,19.189713,SK-BC,,
-844870,-1258838,hydrographic,Parna,Parna,official,48.315663,17.613698,SK-000,,
-845338,-1259430,settlement,"Pusta Vereš","Pusta Veres",official,48.283333,20.05,SK-BC,,
-846322,-1260680,hypsographic,"Svätá Anna","Svata Anna",official,49.283333,20.55,SK-PV,,
-844870,-1258839,hydrographic,"Potok Parna","Potok Parna",variant,48.315663,17.613698,SK-000,,
-846290,-1260638,settlement,Šulekovo,Sulekovo,official,48.431758,17.774487,SK-TA,,
-846876,-1261504,settlement,"Veľká Driečna","Vel'ka Driecna",official,49.322858,21.794578,SK-PV,,
-845915,-1260167,hypsographic,Slepčanka,Slepcanka,official,49.420612,19.444971,SK-ZI,,
-846217,9119974,settlement,Leváre,Levare,official,48.513353,20.255219,SK-BC,,
-845103,-1259132,settlement,"Pohorelská Maša","Pohorelska Masa",official,48.845685,20.033582,SK-BC,,
-845166,-1259212,hypsographic,Poronya-teto”,"Poronya-teto""""",official,48.483333,20.5,SK-KI,,
-845262,-1259842,settlement,Sandorf,Sandorf,variant,48.556819,17.349243,SK-TA,,
-846196,-1260521,settlement,Strážske,Strazske,official,48.873497,21.836677,SK-KI,,
-846216,-1260554,settlement,Strelenka,Strelenka,official,49.185856,18.143598,SK-000,,
-845089,-1259116,settlement,"Pod Skalku","Pod Skalku",official,48.483333,19.283333,SK-BC,,
-845770,-1259994,settlement,Sered’,Sered',official,48.291167,17.733306,SK-TA,,
-846502,-1260969,spot,"Dvor Tichá","Dvor Ticha",variant,48.283068,18.207662,SK-NI,,
-845347,-1259440,settlement,"Pusté Úľany","Puste Ul'any",official,48.231512,17.573894,SK-TA,,
-846595,-1261113,spot,"Dvor Triblavina","Dvor Triblavina",variant,48.210817,17.248633,SK-BL,,
-846185,-1260507,settlement,Stráža,Straza,official,49.225781,18.90782,SK-ZI,,
-845172,-1259221,settlement,Porúbka,Porubka,official,48.732247,22.265446,SK-KI,,
-844787,-1258720,settlement,Ostroviany,Ostroviany,variant,49.063221,21.117721,SK-PV,,
-846338,-1260811,settlement,Szentes,Szentes,variant,48.433333,21.916667,SK-KI,,
-845755,-1260809,settlement,Szemere,Szemere,variant,48.011683,18.353186,SK-NI,,
-845612,-1259659,settlement,Rosenberg,Rosenberg,variant,49.074797,19.307509,SK-ZI,,
-845911,-1260161,settlement,Slavoška,Slavoska,official,48.728217,20.336833,SK-KI,,
-845275,-1259349,hypsographic,Priskalky,Priskalky,official,49.366667,19.016667,SK-ZI,,
-846975,-1261621,settlement,"Veľké Vranie","Vel'ke Vranie",official,47.866667,17.566667,SK-TA,,
-845907,-1260157,settlement,Slávikovo,Slavikovo,official,48.3,20.2,SK-BC,,
-844877,-1258848,spot,Paseky,Paseky,official,48.713287,19.997431,SK-BC,,
-845869,-1260116,settlement,Škodák,Skodak,official,48.883333,17.916667,SK-NI,,
-845227,-1259287,hypsographic,"Predný Choč","Predny Choc",official,49.121984,19.338157,SK-ZI,,
-844742,-1252618,hypsographic,"Adlerbrunnen Berg","Adlerbrunnen Berg",variant,48.833333,20.783333,SK-KI,,
-844788,-1258721,settlement,Ostrožnica,Ostroznica,official,49.092695,22.236713,SK-PV,,
-846460,-1260913,settlement,Telgárt,Telgart,official,48.851908,20.1868,SK-BC,,
-845919,-1260171,settlement,Sliač,Sliac,official,48.610384,19.160944,SK-BC,,
-846540,-1261027,administrative_region,"Okres Topoľčany","Okres Topol'cany",official,48.566667,18.183333,SK-NI,,
-846632,-1261160,settlement,Trstené,Trstene,official,49.113231,19.619683,SK-ZI,,
-844903,-1258882,settlement,"Pavlova Ves","Pavlova Ves",official,49.130409,19.585489,SK-ZI,,
-846528,-1261011,spot,"Tomášova Puszta","Tomasova Puszta",variant,47.783333,18.05,SK-NI,,
-845024,-1259046,hypsographic,Plieška,Plieska,official,48.833333,22.25,SK-KI,,
-846962,-1261607,settlement,"Veľké Šarovce","Vel'ke Sarovce",official,48.1041,18.635344,SK-NI,,
-845462,-1259591,spot,"Révayovská Pusta","Revayovska Pusta",official,47.883333,18.166667,SK-NI,,
-846865,-1261493,spot,"Železničná Stanica Veľká Bytča","Zeleznicna Stanica Vel'ka Bytca",official,49.216667,18.55,SK-ZI,,
-845443,-1259564,spot,Regina,Regina,official,48.263534,18.144513,SK-NI,,
-846510,-1260966,settlement,Theissholz,Theissholz,variant,48.677377,19.943637,SK-BC,,
-846375,-1260751,hydrographic,Sveržov,Sverzov,official,49.318484,21.170022,SK-PV,,
-846960,-1261605,settlement,"Veľké Ripňany","Vel'ke Ripnany",official,48.502928,17.978707,SK-NI,,
-844936,-1258933,settlement,Petejovce,Petejovce,official,49.083333,21.666667,SK-PV,,
-845047,-1254630,settlement,"Dvor Podháj","Dvor Podhaj",variant,48.472256,17.580828,SK-TA,,
-846612,-1261132,settlement,Trnava,Trnava,variant,48.81793,21.931935,SK-KI,,
-845845,-1260089,administrative_region,"Okres Skalica","Okres Skalica",official,48.75,17.166667,SK-TA,,
-845484,-1259616,hydrographic,Rimava,Rimava,official,48.287046,20.319692,SK-BC,,
-846026,-1260310,settlement,Somorovejsa,Somorovejsa,official,48.758062,18.491511,SK-NI,,
-845285,-1259361,settlement,Proč,Proc,official,49.096673,21.391605,SK-PV,,
-845097,-1259125,settlement,Podvysoká,Podvysoka,official,49.412685,18.664584,SK-ZI,,
-844969,-1257720,settlement,"Manov Dvor","Manov Dvor",variant,48.666667,21.8,SK-KI,,
-845548,-1259704,settlement,Rozsnyó,Rozsnyo,variant,48.660085,20.537577,SK-KI,,
-845759,-1259977,settlement,Seňa,Sena,official,48.559038,21.261375,SK-KI,,
-845006,-1259022,settlement,"Plavecký Štvrtok","Plavecky Stvrtok",official,48.375124,16.998628,SK-BL,,
-845210,-1259266,settlement,Prašice,Prasice,official,48.642933,18.110932,SK-NI,,
-846312,-1260666,hydrographic,"Šútovka Potok","Sutovka Potok",official,49.150922,19.096165,SK-ZI,,
-846279,-1260626,settlement,Sudince,Sudince,official,48.213402,18.872612,SK-BC,,
-844776,-1258708,settlement,Ostrany,Ostrany,official,48.494889,20.048254,SK-BC,,
-845414,-1259529,spot,Rásnik,Rasnik,official,48.620661,17.458908,SK-TA,,
-845385,-1261157,settlement,Trstená,Trstena,variant,49.04441,18.635659,SK-ZI,,
-846024,-1260307,hypsographic,Somár,Somar,official,48.310135,17.15391,SK-BL,,
-846734,-1261301,settlement,Uľanka,Ul'anka,official,48.784412,19.112364,SK-BC,,
-846535,-1261019,settlement,Tonkháza,Tonkhaza,variant,48.118738,17.443056,SK-TA,,
-846005,-1260284,settlement,Sokolníky,Sokolniky,official,48.383081,18.10901,SK-NI,,
-845476,-1259606,settlement,Riečky,Riecky,official,48.716667,22.216667,SK-KI,,
-846451,-1260899,settlement,"Tekovská Breznica","Tekovska Breznica",official,48.386486,18.618658,SK-BC,,
-844818,-1258761,settlement,Padányrétimajer,Padanyretimajer,variant,47.9,17.666667,SK-TA,,
-845241,-1259314,settlement,Pribeník,Pribenik,official,48.392894,22.003009,SK-000,,
