wgdPlaceId,wgdId,type,name,fullName,nameType,latitude,longitude,administrationGroup,isHistorical,isCapital
-3750740,-4988025,hypsographic,Antillen,Antillen,variant,18.733333,-69.15,S1-000,,
-3750740,-4988024,hypsographic,Antillas,Antillas,variant,18.733333,-69.15,S1-000,,
-3750740,-4988026,hypsographic,Antilles,Antilles,colloquial,18.733333,-69.15,S1-000,,
-1544444,-2196990,hypsographic,Antillas,Antillas,variant,19.383333,-71.216667,S1-000,,
-1544444,-2196991,hypsographic,Antilles,Antilles,variant,19.383333,-71.216667,S1-000,,
-1544444,-2199262,hypsographic,West-Indië,West-Indie,variant,19.383333,-71.216667,S1-000,,
-1544444,-2199263,hypsographic,"West Indies","West Indies",colloquial,19.383333,-71.216667,S1-000,,
-1323583,67580,hypsographic,"Vernon’s Island","Vernon's Island",official,17.114309,-61.769254,AG-07,,
-1323582,18944645,spot,"Antigua International Airport","Antigua International Airport",variant,17.137517,-61.791426,AG-03,,
-1323588,-1913004,hypsographic,"Week Point","Week Point",official,17.121118,-61.857013,AG-04,,
-1323574,-1912986,settlement,Tomlinson,Tomlinson,official,17.113269,-61.808079,AG-04,,
-1323601,-1913023,hydrographic,"Winthorp Bay","Winthorp Bay",variant,17.149194,-61.786963,AG-03,,
-1323604,-1913029,hypsographic,"Yepton Peak","Yepton Peak",variant,17.124264,-61.871722,AG-04,,
-1323596,-1913016,settlement,Willikie’s,Willikie's,variant,17.086837,-61.709299,AG-08,,
-1323569,-1912981,spot,"The Dockyard","The Dockyard",official,17.008043,-61.764866,AG-06,,
-1323575,-1912987,settlement,Tremontaine,Tremontaine,variant,17.025522,-61.837308,AG-05,,
-1323585,-1913000,settlement,Watsons,Watsons,official,17.054512,-61.677886,AG-08,,
-1323566,-1912978,park,"The Canal","The Canal",official,17.613956,-61.851545,AG-10,,
-1323602,-1913024,hydrographic,"Winthorp Creek","Winthorp Creek",variant,17.135494,-61.78001,AG-03,,
-1323583,-1912997,hypsographic,"Vernon Island","Vernon Island",variant,17.114309,-61.769254,AG-07,,
-1323577,-1912990,hypsographic,"Tuson Rock","Tuson Rock",official,17.616667,-61.866667,AG-10,,
-1323605,-1913031,hypsographic,"York Island","York Island",official,17.053344,-61.669091,AG-08,,
-1323596,-1913017,settlement,Willikies,Willikies,official,17.086837,-61.709299,AG-08,,
-1323582,69136,spot,"V. C. Bird International Airport","V. C. Bird International Airport",short,17.137517,-61.791426,AG-03,,
-1323587,-1913002,hypsographic,"Weatherills Point","Weatherills Point",official,17.165742,-61.84711,AG-04,,
-1323572,-1912984,park,"The River","The River",official,17.593814,-61.829246,AG-10,,
-1323605,-1913032,hypsographic,"York Islet","York Islet",variant,17.053344,-61.669091,AG-08,,
-1323576,-1912988,hypsographic,"Tucks Point","Tucks Point",official,17.009307,-61.810751,AG-05,,
-1323573,-1912985,hypsographic,"Mount Thomas","Mount Thomas",official,17.107172,-61.883162,AG-04,,
-1323593,-1913011,hypsographic,"Wicked Will","Wicked Will",official,17.05,-61.666667,AG-08,,
-1323580,-1912993,settlement,Urlings,Urlings,official,17.026869,-61.876183,AG-05,,
-1323599,-1913021,hydrographic,"Willoughby Bay","Willoughby Bay",official,17.033551,-61.730481,AG-000,,
-1323601,-1913025,hydrographic,"Winthorpes Bay","Winthorpes Bay",official,17.149194,-61.786963,AG-03,,
-1323602,-1913026,hydrographic,"Winthorpes Foot Creek","Winthorpes Foot Creek",official,17.135494,-61.78001,AG-03,,
-1323594,-1913014,spot,"Fort William","Fort William",official,17.033333,-61.716667,AG-08,,
-1323585,-1912999,settlement,Watson,Watson,variant,17.054512,-61.677886,AG-08,,
-1323587,-1913007,hypsographic,"Wetherell Point","Wetherell Point",variant,17.165742,-61.84711,AG-04,,
-1323578,-1912991,hydrographic,"Two Feet Bay","Two Feet Bay",official,17.678722,-61.777171,AG-10,,
-1323584,-1912998,settlement,Vernons,Vernons,official,17.09192,-61.771321,AG-07,,
-1323590,-1913006,hydrographic,"West Channel","West Channel",official,17.144926,-61.900398,AG-04,,
-1323580,-1912619,settlement,Glebe,Glebe,variant,17.026869,-61.876183,AG-05,,
-1323595,-1913015,hypsographic,"William Point","William Point",official,17.039209,-61.726762,AG-08,,
-1323580,-1912994,settlement,Urlins,Urlins,variant,17.026869,-61.876183,AG-05,,
-1323582,-1912996,spot,"Vere C. Bird","Vere C. Bird",variant,17.137517,-61.791426,AG-03,,
-1323565,-1912977,settlement,"The Brook","The Brook",official,17.059724,-61.68061,AG-08,,
-1323567,-1912979,settlement,"The Caves","The Caves",official,17.68581,-61.787836,AG-10,,
-1323589,-1913005,hypsographic,"Welch Point","Welch Point",official,17.59309,-61.732738,AG-10,,
-1323571,-1912983,settlement,"The Grove","The Grove",official,17.1,-61.8,AG-03,,
-1323577,-1912989,hypsographic,"Tuscon Rock","Tuscon Rock",variant,17.616667,-61.866667,AG-10,,
-1323581,-1912995,hydrographic,"Valley Church Bay","Valley Church Bay",official,17.056169,-61.89232,AG-05,,
-1323570,-1912982,settlement,"The Garden","The Garden",official,17.071111,-61.743418,AG-07,,
-1323606,-1913033,settlement,Yorks,Yorks,official,17.078974,-61.874971,AG-05,,
-1323575,18944312,settlement,Tramontania,Tramontania,official,17.025522,-61.837308,AG-05,,
-1323568,-1912980,settlement,"The Diamond","The Diamond",official,17.07759,-61.760474,AG-07,,
-1323603,-1913028,settlement,Woods,Woods,official,17.135264,-61.825847,AG-04,,
-1323604,18944309,hypsographic,"Yepton Hill","Yepton Hill",official,17.124264,-61.871722,AG-04,,
-1323586,-1913001,settlement,Weatherills,Weatherills,official,17.165141,-61.835338,AG-04,,
-1323591,-1913009,hypsographic,"Whelk Rock","Whelk Rock",official,17.15,-61.716667,AG-07,,
-1323587,-1913008,hypsographic,"Wetherill’s Point","Wetherill's Point",variant,17.165742,-61.84711,AG-04,,
-1323597,-1913018,settlement,"Willis Freemans","Willis Freemans",official,17.049536,-61.778966,AG-06,,
-1323598,-1913020,settlement,Willoughby,Willoughby,official,17.040515,-61.719944,AG-08,,
-1323592,-1913010,hypsographic,"White Cliff","White Cliff",official,17.547758,-61.734902,AG-10,,
-1323600,-1913022,hydrographic,"Windward Bay","Windward Bay",official,17.004344,-61.775208,AG-06,,
-1323579,-1912992,settlement,Tyrells,Tyrells,official,17.04828,-61.795164,AG-06,,
-1323172,15284073,hypsographic,"Mount Obama","Mount Obama",official,17.044828,-61.861174,AG-05,,
-1323222,-1912500,settlement,"Coconut Hall","Coconut Hall",official,17.110055,-61.73462,AG-07,,
-1323238,-1912520,hypsographic,"Crab Point","Crab Point",official,17.038017,-61.893716,AG-05,,
-1323406,-1912750,settlement,Lyons,Lyons,official,17.057541,-61.730025,AG-08,,
-1323537,-1912942,hypsographic,"Shirley Heights","Shirley Heights",official,17,-61.75,AG-06,,
-1323288,-1912580,hydrographic,"Fitches Creek","Fitches Creek",variant,17.126313,-61.783449,AG-03,,
-1323212,-1912489,settlement,Claremont,Claremont,official,17.022858,-61.830223,AG-05,,
-1323512,14067327,administrative_region,"Saint George","Saint George",official,17.116667,-61.8,AG-03,,
-1323141,-1912455,hydrographic,"Cables Creek","Cables Creek",variant,17.073547,-61.70516,AG-08,,
-1323483,-1912855,hypsographic,"The Pinnacle","The Pinnacle",variant,16.933333,-62.333333,AG-000,,
-1323513,-1912905,administrative_region,"Parish of Saint John","Parish of Saint John",official,17.1,-61.85,AG-04,,
-1323197,-1913019,settlement,"Willock Village","Willock Village",variant,17.162253,-61.817804,AG-04,,
-1323339,-1912660,settlement,Gunthorpes,Gunthorpes,official,17.109749,-61.79989,AG-03,,
-1323408,-1912752,hypsographic,"Maiden Island","Maiden Island",official,17.145284,-61.763162,AG-03,,
-1323170,-1912433,park,Blakes,Blakes,official,17.049294,-61.741031,AG-08,,
-1323191,-1912465,settlement,Carlisle,Carlisle,official,17.132256,-61.803561,AG-03,,
-1323527,-1912927,settlement,Savannah,Savannah,official,17.020828,-61.738713,AG-06,,
-1323425,-1912777,spot,"Fort Monk","Fort Monk",official,17.033333,-61.766667,AG-06,,
-1323180,-1912448,settlement,"Branns Hamlet","Branns Hamlet",official,17.103663,-61.836117,AG-04,,
-1323316,-1912626,hydrographic,"Goat Reef","Goat Reef",official,17.737485,-61.868442,AG-10,,
-1323266,-1912553,settlement,Dunnings,Dunnings,official,17.071537,-61.854411,AG-05,,
-1323397,-1912738,settlement,"Little Duer","Little Duer",variant,17.069271,-61.747606,AG-07,,
-1323146,-1912550,hypsographic,Dulcina,Dulcina,variant,17.62993,-61.78838,AG-10,,
-1323287,-1912581,settlement,"Fitches Creek","Fitches Creek",official,17.124193,-61.7949,AG-03,,
-1323228,-1912507,settlement,Collins,Collins,official,17.076151,-61.733221,AG-08,,
-1323334,-1912571,hypsographic,"Ferris Point","Ferris Point",variant,17.12027,-61.897118,AG-04,,
-1323214,-1912491,hydrographic,"Cobb Cove","Cobb Cove",official,17.702665,-61.821035,AG-10,,
-1323202,-1912479,hypsographic,"Chapel Point","Chapel Point",official,17.015488,-61.768861,AG-06,,
-1323456,-1912850,settlement,"Pigots Village","Pigots Village",variant,17.125912,-61.804399,AG-03,,
-1323303,-1912842,hypsographic,"Pelican Point","Pelican Point",variant,17.10059,-61.904749,AG-04,,
-1323260,-1912546,hydrographic,"Dieppe Bay","Dieppe Bay",variant,17.012115,-61.786387,AG-06,,
-1323490,-1912865,hypsographic,"Prickley Pear Island","Prickley Pear Island",variant,17.175821,-61.798068,AG-03,,
-1323251,-1912535,spot,"Fort Cuyler","Fort Cuyler",official,17.007813,-61.774139,AG-06,,
-1323314,-1912623,hydrographic,"Goat Island Flush","Goat Island Flush",official,17.691719,-61.827456,AG-10,,
-1323434,-1912788,settlement,"Mount Williem","Mount Williem",variant,17.038923,-61.790573,AG-06,,
-1323240,-1912522,hypsographic,"Crabs Peninsula","Crabs Peninsula",official,17.116667,-61.75,AG-07,,
-1323260,-1912537,hydrographic,"Deep Bay","Deep Bay",official,17.012115,-61.786387,AG-06,,
-1323294,-1912591,hypsographic,"Flat Top Hill","Flat Top Hill",official,17.081055,-61.883426,AG-05,,
-1323501,-1912884,hydrographic,"Rendezvous Bay","Rendezvous Bay",official,17.012893,-61.807404,AG-000,,
-1323204,-1912481,hypsographic,"Point Charlotte","Point Charlotte",official,17,-61.766667,AG-06,,
-1323354,-1912679,hydrographic,"Hermitage Bay","Hermitage Bay",official,17.085465,-61.895996,AG-05,,
-1323523,-1912921,settlement,Sandersons,Sandersons,official,17.075273,-61.769909,AG-07,,
-1323557,-1912964,hypsographic,"Stoney Horn","Stoney Horn",variant,17.086261,-61.899827,AG-05,,
-1323356,-1912681,hypsographic,"High Point","High Point",official,17.151867,-61.788017,AG-03,,
-1323141,-1912627,hydrographic,"Gobles Creek","Gobles Creek",variant,17.073547,-61.70516,AG-08,,
-1323479,-1912915,settlement,"Saint Marks Village","Saint Marks Village",variant,17.123236,-61.802769,AG-03,,
-1323478,-1912848,hypsographic,"Pigeon Cliff","Pigeon Cliff",official,17.64446,-61.746861,AG-10,,
-1323444,18944307,hydrographic,"North Channel","North Channel",official,17.11585,-61.711946,AG-07,,
-1323562,-1912973,hypsographic,"Table Hill","Table Hill",official,17.112391,-61.892341,AG-04,,
-1323143,-1912397,hydrographic,"Ballast Bay","Ballast Bay",official,17.121056,-61.865678,AG-04,,
-1323273,-1912561,hypsographic,"English Point","English Point",official,17.002653,-61.773578,AG-06,,
-1323531,-1912934,settlement,"Seatons Village","Seatons Village",variant,17.094346,-61.725525,AG-08,,
-1323165,-1912427,hypsographic,"Bishop Island","Bishop Island",official,17,-61.783333,AG-06,,
-1323350,-1912662,hypsographic,"Hale Gate Island","Hale Gate Island",variant,17.141059,-61.72194,AG-07,,
-1323475,-1912843,hypsographic,"Pelican Point","Pelican Point",official,17.570844,-61.736371,AG-10,,
-1323550,-1912956,hydrographic,"South Channel","South Channel",official,17.110885,-61.708285,AG-000,,
-1323189,-1912458,hydrographic,"Cade Reef","Cade Reef",variant,17.008187,-61.864067,AG-05,,
-1323271,-1912558,hydrographic,"English Harbor","English Harbor",variant,17.003521,-61.762156,AG-06,,
-1323142,-1912396,hypsographic,"Bakers Cellar","Bakers Cellar",official,17.084938,-61.902849,AG-05,,
-1323331,-1912651,hypsographic,"Guard Point","Guard Point",official,17.081204,-61.697576,AG-08,,
-1323472,-1912710,hypsographic,"Johnson Island","Johnson Island",variant,17.025248,-61.89103,AG-05,,
-1323392,-1912732,settlement,Liberta,Liberta,official,17.041413,-61.790516,AG-06,,
-1323217,-1912494,settlement,Cochranes,Cochranes,official,17.083344,-61.766914,AG-07,,
-1323443,-1912799,hydrographic,"Nonsuch Bay","Nonsuch Bay",official,17.077166,-61.687584,AG-08,,
-1323327,-1912644,settlement,"Green Bay","Green Bay",official,17.114677,-61.848923,AG-04,,
-1323365,-1912693,hydrographic,"Hughes Bay","Hughes Bay",official,17.071472,-61.699038,AG-08,,
-1323147,-1912402,hypsographic,"Barnacle Point","Barnacle Point",official,17.141161,-61.773512,AG-03,,
-1323491,18944582,hypsographic,"Proctors Point","Proctors Point",official,17.007167,-61.785298,AG-06,,
-1323422,-1912774,hydrographic,"Middle Reef","Middle Reef",official,17.014586,-61.878882,AG-05,,
-1323342,-1912667,settlement,"Hamiltons Village","Hamiltons Village",variant,17.05,-61.833333,AG-04,,
-1323206,-1912483,hydrographic,"Christian Cove","Christian Cove",official,17.041127,-61.742553,AG-000,,
-1323561,-1912972,settlement,"Swetes Village","Swetes Village",variant,17.050374,-61.800913,AG-06,,
-1323197,-1912473,settlement,"Cedar Grove","Cedar Grove",official,17.162253,-61.817804,AG-04,,
-1323561,-1912970,settlement,"Sweets Village","Sweets Village",variant,17.050374,-61.800913,AG-06,,
-1323363,-1912688,hydrographic,"The Horse Shoe","The Horse Shoe",variant,17.026223,-61.714239,AG-000,,
-1323317,-1912628,settlement,"Golden Grove","Golden Grove",official,17.099799,-61.843554,AG-04,,
-1323491,-1912869,hypsographic,"Proctor Point","Proctor Point",variant,17.007167,-61.785298,AG-06,,
-1323275,-1912563,hypsographic,"Exchange Island","Exchange Island",official,17.136395,-61.72325,AG-07,,
-1323360,-1912686,hypsographic,"Hog Point","Hog Point",official,17.700483,-61.795685,AG-10,,
-1323503,-1912888,hydrographic,"Ricket Harbour","Ricket Harbour",variant,17.070009,-61.670705,AG-08,,
-1323409,-1912763,hydrographic,"Marmora Bay","Marmora Bay",variant,17.014391,-61.736732,AG-06,,
-1323152,-1912408,park,Barters,Barters,official,17.015592,-61.799234,AG-06,,
-1323423,-1912775,park,"Mill Reef","Mill Reef",official,17.05,-61.666667,AG-08,,
-1323174,-1912440,settlement,Bolans,Bolans,official,17.065445,-61.873571,AG-05,,
-1323442,-1913027,settlement,"Winthorpes Village","Winthorpes Village",variant,17.145751,-61.813437,AG-03,,
-1323184,-1912453,spot,"Fort Byham","Fort Byham",official,17.15,-61.8,AG-03,,
-1323378,-1912714,settlement,"Johnson Point Village","Johnson Point Village",variant,17.02888,-61.885248,AG-05,,
-1323312,-1912620,hypsographic,"Goat Head","Goat Head",official,17.017846,-61.857337,AG-05,,
-1323310,-1912617,settlement,Gilberts,Gilberts,official,17.089049,-61.739033,AG-07,,
-1323295,-1912704,hydrographic,"James Bay","James Bay",variant,17.136704,-61.860992,AG-04,,
-1323507,-1912897,hydrographic,"Royal Bay","Royal Bay",variant,17.168889,-61.81,AG-04,,
-1323499,-1912880,hypsographic,"Redonda Island","Redonda Island",variant,16.9375,-62.345,AG-11,,
-1323159,-1912418,settlement,"Betty’s Hope","Betty's Hope",official,17.081186,-61.744794,AG-07,,
-1323367,-1912697,hydrographic,"Indian Creek","Indian Creek",official,17.003115,-61.738144,AG-06,,
-1323329,-1912656,hydrographic,"Guiana Bay","Guiana Bay",official,17.114677,-61.736099,AG-07,,
-1323380,-1912717,hypsographic,"Jolly Hill","Jolly Hill",official,17.068504,-61.872153,AG-05,,
-1323230,-1913012,settlement,Wickham,Wickham,variant,17.081328,-61.714155,AG-08,,
-1323247,-1912531,hypsographic,"Crump Island","Crump Island",official,17.108512,-61.717781,AG-07,,
-1323530,-1912931,settlement,Seaforth,Seaforth,variant,17.09376,-61.864303,AG-05,,
-1323538,-1912943,hypsographic,"Shoal Point","Shoal Point",official,17.15896,-61.790326,AG-03,,
-1323411,-1912758,settlement,Mannings,Mannings,official,17.037786,-61.693801,AG-08,,
-1323505,-1912894,hypsographic,"Rock Peak","Rock Peak",official,17.061472,-61.853428,AG-05,,
-1323555,-1912962,hydrographic,"Spithead Channel","Spithead Channel",official,17.0975,-61.672454,AG-08,,
-1323344,-1912668,hydrographic,"Hansons Bay","Hansons Bay",official,17.102564,-61.876045,AG-05,,
-1323386,-1912725,hydrographic,"Laurys Bay","Laurys Bay",official,17.099942,-61.694584,AG-08,,
-1323472,-1912838,hypsographic,"Pelican Island","Pelican Island",official,17.025248,-61.89103,AG-05,,
-1323188,-1912460,settlement,"Cades Bay","Cades Bay",official,17.028465,-61.86108,AG-05,,
-1323389,-1912728,hydrographic,"Ledcoff Cove","Ledcoff Cove",variant,17.086384,-61.69189,AG-08,,
-1323200,-1912477,settlement,"Cedar Valley Mill","Cedar Valley Mill",official,17.133333,-61.8,AG-04,,
-1323174,-1912439,settlement,"Boland Village","Boland Village",variant,17.065445,-61.873571,AG-05,,
-1323158,-1912417,settlement,"Bethesda Village","Bethesda Village",variant,17.043313,-61.750833,AG-06,,
-1323299,-1912597,hydrographic,"Freemans Bay","Freemans Bay",official,17.004323,-61.760011,AG-06,,
-1323189,-1912958,hydrographic,"South Sandy Island","South Sandy Island",variant,17.008187,-61.864067,AG-05,,
-1323193,-1912468,hypsographic,"Cashew Hill","Cashew Hill",official,17.093678,-61.859322,AG-05,,
-1323139,-1912391,administrative_region,"State of Antigua","State of Antigua",variant,17.05,-61.8,AG-000,,
-1323376,-1912707,settlement,Jennings,Jennings,official,17.077348,-61.862238,AG-05,,
-1323276,-1912564,settlement,Falmouth,Falmouth,official,17.024328,-61.776629,AG-06,,
-1323557,-1912965,hypsographic,"Stony Horn","Stony Horn",official,17.086261,-61.899827,AG-05,,
-1323137,-1912384,settlement,"Aberdeen Village","Aberdeen Village",variant,17.069944,-61.809772,AG-04,,
-1323428,-1912780,settlement,Montpelier,Montpelier,official,17.050868,-61.719121,AG-08,,
-1323175,18944638,hydrographic,"Boons Bay","Boons Bay",official,17.173005,-61.829083,AG-04,,
-1323139,-1912394,administrative_region,"Antigua Presidency","Antigua Presidency",variant,17.05,-61.8,AG-000,,
-1323480,-1912852,hypsographic,"Pig Point","Pig Point",official,17.068517,-61.69366,AG-08,,
-1323167,-1912429,hypsographic,"Blackman Point","Blackman Point",variant,17.124195,-61.777601,AG-03,,
-1323481,-1912853,hypsographic,"Pillar Rock","Pillar Rock",official,17.133333,-61.883333,AG-04,,
-1323139,-1912390,administrative_region,"Presidency of Antigua","Presidency of Antigua",variant,17.05,-61.8,AG-000,,
-1323397,-1912739,settlement,"Little Duers","Little Duers",official,17.069271,-61.747606,AG-07,,
-1323158,-1912416,settlement,Bethesda,Bethesda,official,17.043313,-61.750833,AG-06,,
-1323503,-1912890,hydrographic,"Rickett Harbor","Rickett Harbor",variant,17.070009,-61.670705,AG-08,,
-1323318,-1912629,settlement,Grants,Grants,official,17.083333,-61.716667,AG-08,,
-1323265,-1912552,hypsographic,"Dums Point","Dums Point",official,17.101834,-61.68258,AG-08,,
-1323321,-1912635,settlement,Grays,Grays,official,17.07853,-61.707212,AG-08,,
-1323207,-1912484,settlement,"Christian Hill","Christian Hill",official,17.035322,-61.751364,AG-06,,
-1323198,-1912475,settlement,"Cedar Hall","Cedar Hall",official,17.0773,-61.857629,AG-05,,
-1323470,-1912836,hypsographic,"Pearns Point","Pearns Point",official,17.079591,-61.905314,AG-05,,
-1323178,-1912445,hypsographic,"Boon Point","Boon Point",official,17.173054,-61.832383,AG-04,,
-1323404,-1912749,settlement,Lyon,Lyon,variant,17.044075,-61.736176,AG-08,,
-1323418,-1912975,hypsographic,"Table Mountain","Table Mountain",variant,17.058418,-61.842264,AG-04,,
-1323306,-1912612,hypsographic,"Garden Hill","Garden Hill",official,17.05,-61.883333,AG-05,,
-1323161,-1912420,hypsographic,"Billy Point","Billy Point",official,17.715652,-61.868142,AG-10,,
-1323521,14067334,administrative_region,"Saint Philip","Saint Philip",official,17.05,-61.716667,AG-08,,
-1323311,-1912618,settlement,Glanvilles,Glanvilles,official,17.085797,-61.725201,AG-08,,
-1323508,-1912899,hydrographic,"Rubbish Bay","Rubbish Bay",official,17.664391,-61.761335,AG-10,,
-1323526,-1912924,hydrographic,"Sandy Island Channel","Sandy Island Channel",official,17.119905,-61.913529,AG-04,,
-1323394,-1912735,hydrographic,"Lignumvitae Bay","Lignumvitae Bay",official,17.066235,-61.890436,AG-05,,
-1323503,-1912891,hydrographic,"Rickett Harbour","Rickett Harbour",variant,17.070009,-61.670705,AG-08,,
-1323332,-1912613,hypsographic,"Garde Point","Garde Point",variant,17.098788,-61.715652,AG-08,,
-1323244,-1912528,hydrographic,"The Creek","The Creek",official,17.71525,-61.863438,AG-10,,
-1323456,-1912851,settlement,Pigotts,Pigotts,variant,17.125912,-61.804399,AG-03,,
-1323319,-1912630,hydrographic,"Grape Bay","Grape Bay",official,17.131806,-61.7224,AG-07,,
-1323447,-1912804,hypsographic,"North Sound Point","North Sound Point",official,17.137603,-61.748624,AG-07,,
-1323286,-1912579,hydrographic,"Fish Pond","Fish Pond",official,17.016322,-61.830461,AG-05,,
-1323230,-1912509,settlement,"Comfort Hall","Comfort Hall",official,17.081328,-61.714155,AG-08,,
-1323441,-1912796,settlement,Newfield,Newfield,official,17.058536,-61.725115,AG-08,,
-1323192,-1912466,hydrographic,"Carlisle Bay","Carlisle Bay",official,17.014045,-61.833765,AG-05,,
-1323483,-1912856,hypsographic,"Pinnacle Rock","Pinnacle Rock",official,16.933333,-62.333333,AG-000,,
-1323438,-1912793,hydrographic,"The Narrows","The Narrows",official,17.11562,-61.747494,AG-07,,
-1323519,14067332,administrative_region,"Saint Paul","Saint Paul",official,17.033333,-61.766667,AG-06,,
-1323514,-1912904,settlement,"Saint John","Saint John",variant,17.116667,-61.85,AG-04,,
-1323444,-1912801,hydrographic,"North Channnel","North Channnel",variant,17.11585,-61.711946,AG-07,,
-1323487,-1912862,spot,"Potworks Dam","Potworks Dam",official,17.068292,-61.74612,AG-07,,
-1323335,-1912655,hypsographic,"Guard Point","Guard Point",official,17.133333,-61.75,AG-07,,
-1323430,-1912783,hydrographic,"Morris Bay","Morris Bay",official,17.01586,-61.845074,AG-05,,
-1323507,-1912859,hydrographic,"Port Royal Bay","Port Royal Bay",official,17.168889,-61.81,AG-04,,
-1323308,-1912615,hypsographic,"Gaulding Point","Gaulding Point",official,17.008713,-61.787984,AG-06,,
-1323272,-1912560,settlement,"English Harbour Town","English Harbour Town",official,17.016371,-61.7674,AG-06,,
-1323264,-1912551,settlement,Dulcina,Dulcina,official,17.593669,-61.826975,AG-10,,
-1323420,-1912772,settlement,"Mercers Creek","Mercers Creek",official,17.093762,-61.736894,AG-07,,
-1323379,-1912716,hypsographic,"Johnsons Point","Johnsons Point",official,17.026619,-61.890105,AG-05,,
-1323305,-1912611,settlement,Gambles,Gambles,official,17.12735,-61.833123,AG-04,,
-1323173,-1912441,hypsographic,"Bolans Hill","Bolans Hill",official,17.059368,-61.877034,AG-05,,
-1323196,-1912472,hypsographic,"Castle Hill","Castle Hill",official,17.61501,-61.736734,AG-10,,
-1323410,-1912764,hydrographic,"Marmora Reef","Marmora Reef",variant,17.011234,-61.731561,AG-06,,
-1323459,-1912821,hypsographic,"Palmetto Point","Palmetto Point",official,17.580433,-61.857156,AG-10,,
-1323452,-1912810,hypsographic,"Old Road Bluff","Old Road Bluff",official,17.00492,-61.832714,AG-05,,
-1323479,-1912849,settlement,Piggotts,Piggotts,official,17.123236,-61.802769,AG-03,,
-1323357,-1912683,hypsographic,"Hog Cliffs","Hog Cliffs",official,17.653192,-61.752138,AG-10,,
-1323175,-1912696,hydrographic,"Humphrys Bay","Humphrys Bay",variant,17.173005,-61.829083,AG-04,,
-1323229,-1912508,spot,"Collins Dam","Collins Dam",official,17.076617,-61.736334,AG-08,,
-1323139,-1912392,administrative_region,"Antigua and Barbuda","Antigua and Barbuda",official,17.05,-61.8,AG-000,,
-1323564,-1912976,hydrographic,"Tank Bay","Tank Bay",official,17.009911,-61.766859,AG-06,,
-1323250,-1912534,hypsographic,"Curtain Bluff","Curtain Bluff",official,17.013457,-61.843847,AG-05,,
-1323490,-1912866,hypsographic,"Prickly Pear Island","Prickly Pear Island",official,17.175821,-61.798068,AG-03,,
-1323415,-1912765,hydrographic,"Marygalante Bay","Marygalante Bay",official,17.047955,-61.675453,AG-08,,
-1323156,-1912413,settlement,Belmont,Belmont,official,17.09964,-61.826123,AG-04,,
-1323391,-1912731,hypsographic,"Leonards Point","Leonards Point",official,17.088311,-61.887231,AG-05,,
-1323388,-1912727,hypsographic,"Laviscounts Island","Laviscounts Island",official,17.099148,-61.723147,AG-08,,
-1323221,-1912499,hypsographic,"Cocoa Point Beach","Cocoa Point Beach",official,17.549845,-61.766146,AG-10,,
-1323234,-1912515,hydrographic,"The Cove","The Cove",official,17.132371,-61.854013,AG-04,,
-1323328,-1912645,hypsographic,"Green Island","Green Island",official,17.070863,-61.666732,AG-08,,
-1323499,-1912881,hypsographic,"Redonda Islet","Redonda Islet",variant,16.9375,-62.345,AG-11,,
-1323281,-1912573,hydrographic,"Ffryes Bay","Ffryes Bay",official,17.048963,-61.896975,AG-05,,
-1323153,-1912409,settlement,"Bats Cave","Bats Cave",official,17.016667,-61.75,AG-06,,
-1323503,-1912889,hydrographic,"Rickets Harbour","Rickets Harbour",variant,17.070009,-61.670705,AG-08,,
-1323322,-1912633,settlement,"Gray House","Gray House",variant,17.105791,-61.847375,AG-04,,
-1323353,-1912678,park,Hermitage,Hermitage,official,17.086238,-61.879846,AG-05,,
-1323510,-1912901,hypsographic,"Saddle Hill","Saddle Hill",official,17.083054,-61.884512,AG-05,,
-1323419,-1912770,hydrographic,"Mercer Creek","Mercer Creek",variant,17.103231,-61.729776,AG-07,,
-1323137,-1912383,settlement,Aberdeen,Aberdeen,official,17.069944,-61.809772,AG-04,,
-1323522,-1912920,settlement,"Saint Philips","Saint Philips",official,17.046275,-61.723734,AG-08,,
-1323495,-1912875,hypsographic,"Red Cliff","Red Cliff",official,17.083333,-61.9,AG-05,,
-1323506,-1912895,settlement,Rooms,Rooms,official,17.099709,-61.69749,AG-08,,
-1323452,-1912813,hypsographic,"Old Rood Bluff","Old Rood Bluff",variant,17.00492,-61.832714,AG-05,,
-1323461,-1912824,settlement,"Pares Village","Pares Village",variant,17.084926,-61.754452,AG-07,,
-1323553,-1912960,hypsographic,"Spanish Well Point","Spanish Well Point",official,17.573432,-61.793333,AG-10,,
-1323261,-1912547,hydrographic,"Dodington Bank","Dodington Bank",official,17.5,-61.75,AG-10,,
-1323343,-1912666,spot,"Hamiltons Dam","Hamiltons Dam",official,17.060607,-61.831468,AG-04,,
-1323435,-1912789,hydrographic,"Muddy Bay","Muddy Bay",official,17.080193,-61.701505,AG-08,,
-1323183,-1912451,settlement,Burkes,Burkes,official,17.060109,-61.783975,AG-06,,
-1323138,-1912385,settlement,"All Saints","All Saints",official,17.06559,-61.793131,AG-07,,
-1323179,-1912447,hypsographic,"Botts Peak","Botts Peak",official,17.05192,-61.863337,AG-05,,
-1323336,-1912657,hypsographic,"Guiana Island","Guiana Island",official,17.12248,-61.731204,AG-07,,
-1323424,-1912776,settlement,"Mill Reef Club","Mill Reef Club",official,17.033333,-61.683333,AG-08,,
-1323225,-1912503,hypsographic,"Codrington Island","Codrington Island",official,17.102751,-61.705633,AG-08,,
-1323358,-1912684,hydrographic,"Hog Hole","Hog Hole",official,17.70343,-61.795776,AG-10,,
-1323239,-1912521,park,"Crabs Mill","Crabs Mill",official,17.113656,-61.750976,AG-07,,
-1323436,-1912790,hypsographic,"Musgrave Point","Musgrave Point",official,17.020073,-61.781892,AG-06,,
-1323407,-1912751,hypsographic,"Maiden Island","Maiden Island",official,17.095677,-61.887362,AG-05,,
-1323352,-1912677,settlement,Herberts,Herberts,official,17.094005,-61.814031,AG-04,,
-1323474,-1912841,hypsographic,"Pelican Islet","Pelican Islet",variant,17.099738,-61.908675,AG-04,,
-1323408,-1912755,hypsographic,"Maid Island","Maid Island",variant,17.145284,-61.763162,AG-03,,
-1323461,-1912823,settlement,Pares,Pares,official,17.084926,-61.754452,AG-07,,
-1323303,-1912609,hypsographic,"Fullerton Point","Fullerton Point",official,17.10059,-61.904749,AG-04,,
-1323368,-1912698,hypsographic,"Indian Creek Point","Indian Creek Point",official,17.002275,-61.736825,AG-06,,
-1323449,-1912806,park,"Old Battery","Old Battery",official,17.099477,-61.901732,AG-04,,
-1323325,-1913030,hydrographic,"York Bay","York Bay",variant,17.05556,-61.675655,AG-08,,
-1323545,-1912951,hydrographic,"Snapper Hole","Snapper Hole",official,17.003084,-61.767131,AG-06,,
-1323267,-1912554,spot,"Dunnings Dam","Dunnings Dam",official,17.070946,-61.852852,AG-05,,
-1323369,-1912699,hydrographic,"Indian Town Creek","Indian Town Creek",official,17.100883,-61.680799,AG-08,,
-1323150,-1912406,hypsographic,"Barnes Point","Barnes Point",official,17.120794,-61.74607,AG-07,,
-1323520,14067333,administrative_region,"Saint Peter","Saint Peter",official,17.1,-61.766667,AG-07,,
-1323347,-1912671,hypsographic,"Hawes Island","Hawes Island",official,17.112803,-61.727798,AG-07,,
-1323145,-1912399,administrative_region,Barbuda,Barbuda,official,17.633333,-61.8,AG-10,,
-1323476,-1912844,hypsographic,"Pelican Rocks","Pelican Rocks",official,17.149528,-61.858768,AG-04,,
-1323284,-1912577,hypsographic,"Fisher Hill","Fisher Hill",official,17.008415,-61.828312,AG-05,,
-1323538,-1912720,hypsographic,"Judge Bay Point","Judge Bay Point",variant,17.15896,-61.790326,AG-03,,
-1323401,-1912744,hypsographic,"Long Islet","Long Islet",variant,17.155096,-61.753963,AG-03,,
-1323387,-1912726,settlement,Lavingtons,Lavingtons,official,17.06087,-61.738831,AG-08,,
-1323146,-1912401,hypsographic,"Barbuda Island","Barbuda Island",variant,17.62993,-61.78838,AG-10,,
-1323245,-1912529,settlement,Creekside,Creekside,official,17.094494,-61.84433,AG-04,,
-1323155,-1912412,settlement,"Bellevue Heights","Bellevue Heights",official,17.092205,-61.823021,AG-04,,
-1323491,-1912867,hypsographic,"Procters Point","Procters Point",variant,17.007167,-61.785298,AG-06,,
-1323485,-1912858,hypsographic,"Popes Head Hills","Popes Head Hills",official,17.166667,-61.833333,AG-04,,
-1323154,-1912682,hypsographic,"Hodge Point","Hodge Point",variant,17.169877,-61.801965,AG-03,,
-1323412,-1912759,hypsographic,"Man of War Island","Man of War Island",official,17.668128,-61.851303,AG-10,,
-1323442,-1912798,settlement,"New Winthorpes","New Winthorpes",official,17.145751,-61.813437,AG-03,,
-1323451,-1912464,settlement,Carlisle,Carlisle,variant,17.016816,-61.835787,AG-05,,
-1323326,-1912643,hydrographic,"Green Bay","Green Bay",official,17.120326,-61.848963,AG-04,,
-1323236,-1912517,settlement,"Crab Hill","Crab Hill",official,17.034365,-61.891144,AG-05,,
-1323350,-1912675,hypsographic,"Hells Gate Island","Hells Gate Island",official,17.141059,-61.72194,AG-07,,
-1323315,-1912625,hypsographic,"Goat Point","Goat Point",official,17.728871,-61.844793,AG-10,,
-1323503,-1912887,hydrographic,"Ricket Harbor","Ricket Harbor",variant,17.070009,-61.670705,AG-08,,
-1323279,-1912570,hydrographic,"Farley Bay","Farley Bay",official,17.094203,-61.731734,AG-000,,
-1323154,-1912410,hypsographic,"Beggars Point","Beggars Point",official,17.169877,-61.801965,AG-03,,
-1323351,-1912791,hypsographic,"Nanny Island","Nanny Island",variant,17.066667,-61.683333,AG-08,,
-1323138,-1912386,settlement,"All Saints Village","All Saints Village",variant,17.06559,-61.793131,AG-07,,
-1323526,-1912926,hydrographic,"Sandy Islet Channel","Sandy Islet Channel",variant,17.119905,-61.913529,AG-04,,
-1323414,-1912761,hypsographic,"Marble Hill","Marble Hill",official,17.154091,-61.836309,AG-04,,
-1323439,-1912794,settlement,"New Division","New Division",official,17.089288,-61.877111,AG-05,,
-1323302,-1912603,hypsographic,"Friars Hill","Friars Hill",official,17.145234,-61.834309,AG-04,,
-1323499,-1912879,hypsographic,Redonda,Redonda,official,16.9375,-62.345,AG-11,,
-1323241,-1912524,hydrographic,"Crawle Bay","Crawle Bay",variant,17.024518,-61.735522,AG-06,,
-1323402,-1912745,settlement,"Long Lane","Long Lane",official,17.067345,-61.741997,AG-08,,
-1323541,-1912946,hypsographic,"Signal Hill","Signal Hill",official,17.028649,-61.813106,AG-05,,
-1323338,-1912659,hypsographic,"Gun Shop Cliff","Gun Shop Cliff",official,17.667956,-61.767501,AG-10,,
-1323194,-1912470,settlement,"Cassada Gardens","Cassada Gardens",official,17.12824,-61.811479,AG-04,,
-1323437,-1912792,hypsographic,"Nanton Point","Nanton Point",official,16.998166,-61.754716,AG-06,,
-1323268,-1912555,hydrographic,"Dutchman Bay","Dutchman Bay",official,17.154062,-61.788864,AG-03,,
-1323549,-1912955,hypsographic,"Soldier Point","Soldier Point",official,17.170811,-61.837687,AG-04,,
-1323409,-1912756,hydrographic,"Mamora Bay","Mamora Bay",official,17.014391,-61.736732,AG-06,,
-1323236,-1912519,settlement,"Crab Hill Village","Crab Hill Village",variant,17.034365,-61.891144,AG-05,,
-1323199,-1912476,hypsographic,"Cedar Tree Point","Cedar Tree Point",official,17.69581,-61.886683,AG-10,,
-1323241,-1912523,hydrographic,"Crawl Bay","Crawl Bay",official,17.024518,-61.735522,AG-06,,
-1323340,-1912845,hydrographic,"Picartes Bay","Picartes Bay",variant,17.041975,-61.895131,AG-05,,
-1323463,-1912826,hydrographic,"Parham Harbor","Parham Harbor",variant,17.116754,-61.76586,AG-000,,
-1323336,-1912648,hypsographic,"Guana Island","Guana Island",variant,17.12248,-61.731204,AG-07,,
-1323484,-1912857,hypsographic,"Pointed Hill","Pointed Hill",official,17.098327,-61.757136,AG-07,,
-1323237,-1912518,hydrographic,"Crab Hill Bay","Crab Hill Bay",official,17.031028,-61.891399,AG-05,,
-1323418,-1912769,hypsographic,"McNish Mountain","McNish Mountain",official,17.058418,-61.842264,AG-04,,
-1323260,-1912868,hydrographic,"Proctor Bay","Proctor Bay",variant,17.012115,-61.786387,AG-06,,
-1323531,-1912933,settlement,Seatons,Seatons,official,17.094346,-61.725525,AG-08,,
-1323374,-1912705,hydrographic,"James Ground","James Ground",official,17.133333,-61.866667,AG-04,,
-1323190,-1912463,hypsographic,"Canditch Hill","Canditch Hill",official,17.05,-61.883333,AG-03,,
-1323486,-1912861,settlement,"Potters Village","Potters Village",official,17.113369,-61.819618,AG-04,,
-1323451,-1912811,settlement,"Old Road Town","Old Road Town",variant,17.016816,-61.835787,AG-05,,
-1323467,-1912819,settlement,"Painter Village","Painter Village",variant,17.117894,-61.806778,AG-03,,
-1323187,-1912459,hydrographic,"Cades Bay","Cades Bay",official,17.020897,-61.860415,AG-05,,
-1323324,-1912641,hypsographic,"Great Bird Islet","Great Bird Islet",variant,17.14512,-61.724233,AG-07,,
-1323507,-1912898,hydrographic,"Royal’s Bay","Royal's Bay",variant,17.168889,-61.81,AG-04,,
-1323164,-1912423,hydrographic,"Bird Island Reef","Bird Island Reef",official,17.161109,-61.736736,AG-03,,
-1323300,-1912569,settlement,"Far Hill Village","Far Hill Village",variant,17.047905,-61.703322,AG-08,,
-1323536,-1912941,spot,"Shirley Heights","Shirley Heights",official,17.002139,-61.754775,AG-06,,
-1323503,-1912892,hydrographic,"Ricketts Harbour","Ricketts Harbour",official,17.070009,-61.670705,AG-08,,
-1323144,-1912398,hypsographic,"Ballast Bluff","Ballast Bluff",official,17.122557,-61.868632,AG-04,,
-1323504,-1912893,hypsographic,"The Ridge","The Ridge",official,17.016667,-61.733333,AG-06,,
-1323162,-1912424,hypsographic,"Bird Islet","Bird Islet",variant,17.079423,-61.672436,AG-08,,
-1323539,-1912944,hydrographic,"Side Hill Bay","Side Hill Bay",official,17.120427,-61.860646,AG-04,,
-1323141,-1912395,hydrographic,"Ayres Creek","Ayres Creek",official,17.073547,-61.70516,AG-08,,
-1323351,-1912676,hypsographic,"Henry Island","Henry Island",official,17.066667,-61.683333,AG-08,,
-1323213,-1912490,spot,"Clarence House","Clarence House",official,17.010063,-61.762193,AG-06,,
-1323269,-1912556,settlement,Ebenezer,Ebenezer,official,17.082854,-61.858946,AG-05,,
-1323521,-1912919,administrative_region,"Parish of Saint Philip","Parish of Saint Philip",official,17.05,-61.716667,AG-08,,
-1323497,-1912877,settlement,"Red Hill","Red Hill",official,17.031113,-61.741596,AG-06,,
-1323341,-1912664,hydrographic,"Half Moon Bay","Half Moon Bay",official,17.037827,-61.687049,AG-08,,
-1323456,-1912817,settlement,Osbourn,Osbourn,official,17.125912,-61.804399,AG-03,,
-1323407,-1912753,hypsographic,"Maiden Islet","Maiden Islet",variant,17.095677,-61.887362,AG-05,,
-1323293,-1912590,hypsographic,"Flat Point","Flat Point",official,17.083431,-61.683923,AG-08,,
-1323320,-1912632,hydrographic,Gravenors,Gravenors,variant,17.549775,-61.751351,AG-10,,
-1323232,-1912511,settlement,Cooks,Cooks,official,17.104985,-61.854289,AG-04,,
-1323465,-1912829,settlement,Pattersons,Pattersons,official,17.024152,-61.78848,AG-06,,
-1323421,-1912773,hydrographic,"Mercers Creek Bay","Mercers Creek Bay",official,17.103803,-61.717214,AG-000,,
-1323544,-1912950,hypsographic,"Smith Island","Smith Island",official,17.040997,-61.680156,AG-08,,
-1323552,-1912959,hypsographic,"Spanish Point","Spanish Point",official,17.544681,-61.733572,AG-10,,
-1323248,-1912532,hypsographic,"Crumps Point","Crumps Point",official,17.100033,-61.731335,AG-07,,
-1323382,-1912719,hydrographic,"Judge Bay","Judge Bay",official,17.166667,-61.783333,AG-03,,
-1323226,-1912504,hydrographic,"Codrington Lagoon","Codrington Lagoon",official,17.643868,-61.841015,AG-10,,
-1323489,-1912864,hypsographic,"Powells Hill","Powells Hill",official,17.138632,-61.801104,AG-03,,
-1323498,-1912878,spot,"Red Hill Dam","Red Hill Dam",official,17.02915,-61.743591,AG-06,,
-1323139,-1912388,administrative_region,"Colony of Antigua","Colony of Antigua",variant,17.05,-61.8,AG-000,,
-1323494,-1912874,hypsographic,"Rat Islet","Rat Islet",variant,17.126085,-61.85571,AG-04,,
-1323529,-1912929,hypsographic,"Scott Hill","Scott Hill",variant,17.11167,-61.824709,AG-04,,
-1323291,-1912588,settlement,"Five Islands Village","Five Islands Village",official,17.118672,-61.882645,AG-04,,
-1323389,-1912729,hydrographic,"Ledeatt Cove","Ledeatt Cove",official,17.086384,-61.69189,AG-08,,
-1323281,-1912607,hydrographic,"Frys Bay","Frys Bay",variant,17.048963,-61.896975,AG-05,,
-1323429,-1912781,hypsographic,"Moor Island","Moor Island",official,17.166667,-61.766667,AG-03,,
-1323518,14067330,administrative_region,"Saint Mary","Saint Mary",official,17.05,-61.85,AG-05,,
-1323496,-1912876,hypsographic,"Red Head Island","Red Head Island",official,17.137886,-61.728327,AG-07,,
-1323530,-1912932,settlement,Seaforths,Seaforths,official,17.09376,-61.864303,AG-05,,
-1323539,-1913003,hydrographic,"Week Bay","Week Bay",variant,17.120427,-61.860646,AG-04,,
-1323256,-1912541,settlement,Denfields,Denfields,official,17.110937,-61.856669,AG-04,,
-1323189,-1912462,hydrographic,"Cailes Reef","Cailes Reef",variant,17.008187,-61.864067,AG-05,,
-1323295,-1912592,hydrographic,"Fort Bay","Fort Bay",official,17.136704,-61.860992,AG-04,,
-1323289,-1912586,hypsographic,"Five Islands","Five Islands",official,17.081237,-61.913392,AG-05,,
-1323322,-1912636,settlement,Grays,Grays,variant,17.105791,-61.847375,AG-04,,
-1323163,-1912425,hydrographic,"Bird Islet Channel","Bird Islet Channel",variant,17.166501,-61.72793,AG-03,,
-1323296,-1912593,hypsographic,"Fort Harman Point","Fort Harman Point",official,17.066667,-61.676848,AG-08,,
-1323330,-1912650,hypsographic,"Guard Hill","Guard Hill",official,17.13104,-61.746139,AG-07,,
-1323548,-1912954,hypsographic,"Soldier Point","Soldier Point",official,17.035202,-61.685394,AG-08,,
-1323558,-1912966,hypsographic,"Sugar Loaf Hill","Sugar Loaf Hill",official,17.024617,-61.797869,AG-06,,
-1323429,-1912782,hypsographic,"Moor Islet","Moor Islet",variant,17.166667,-61.766667,AG-03,,
-1323513,14067329,administrative_region,"Saint John","Saint John",official,17.1,-61.85,AG-04,,
-1323333,-1912653,hypsographic,"Guard Point","Guard Point",official,17.106645,-61.72705,AG-07,,
-1323525,-1912923,hypsographic,"Sandy Island","Sandy Island",official,17.133333,-61.916667,AG-04,,
-1323532,-1912935,settlement,"Sea View Farm","Sea View Farm",official,17.088091,-61.802813,AG-03,,
-1323283,-1912576,spot,"Fisher Dam","Fisher Dam",official,17.062195,-61.819593,AG-04,,
-1323445,-1912802,hydrographic,"North Sound","North Sound",official,17.14353,-61.750066,AG-07,,
-1323426,-1912778,hypsographic,"Monocle Point","Monocle Point",official,17.132776,-61.724069,AG-07,,
-1323300,-1912601,settlement,"Freetown Village","Freetown Village",variant,17.047905,-61.703322,AG-08,,
-1323469,-1912835,hypsographic,"Pearns Hill","Pearns Hill",official,17.082403,-61.900848,AG-05,,
-1323464,-1912828,settlement,Parrys,Parrys,official,17.073879,-61.764767,AG-07,,
-1323342,-1912665,settlement,Hamiltons,Hamiltons,official,17.05,-61.833333,AG-04,,
-1323259,-1912545,hydrographic,"Dickinson Bay","Dickinson Bay",official,17.159724,-61.849741,AG-04,,
-1323366,-1912695,hypsographic,"Hughes Point","Hughes Point",official,17.073774,-61.700655,AG-08,,
-1323242,-1912525,hypsographic,"Crawle Point","Crawle Point",variant,17.025636,-61.737231,AG-06,,
-1323349,-1912672,hypsographic,"Hawkes Bill Rock","Hawkes Bill Rock",variant,17.112159,-61.902408,AG-04,,
-1323372,-1912702,hypsographic,"Isaac Point","Isaac Point",official,17.017519,-61.730647,AG-06,,
-1323479,-1912914,settlement,"Saint Mark’s","Saint Mark's",variant,17.123236,-61.802769,AG-03,,
-1323211,-1912488,settlement,"Clare Hall","Clare Hall",official,17.116667,-61.816667,AG-04,,
-1323222,-1912496,settlement,"Cocoa Hall","Cocoa Hall",variant,17.110055,-61.73462,AG-07,,
-1323440,-1912795,hydrographic,"New Division Bay","New Division Bay",official,17.08823,-61.882872,AG-05,,
-1323364,-1912692,hypsographic,"Hudson Point","Hudson Point",official,17.031532,-61.691554,AG-08,,
-1323140,-1912387,hypsographic,Antigua,Antigua,official,17.073879,-61.795755,AG-000,,
-1323515,-1912907,hydrographic,"Saint Johns Harbor","Saint Johns Harbor",variant,17.125987,-61.86347,AG-04,,
-1323327,-1912583,settlement,"Fitzroy Town","Fitzroy Town",variant,17.114677,-61.848923,AG-04,,
-1323509,-1912900,hydrographic,"Runaway Bay","Runaway Bay",official,17.148617,-61.856251,AG-04,,
-1323477,-1912847,settlement,Piccadilly,Piccadilly,official,17.031474,-61.753115,AG-06,,
-1323199,-1912512,hypsographic,"Cooks Bay Point","Cooks Bay Point",variant,17.69581,-61.886683,AG-10,,
-1323340,-1912846,hydrographic,"Picarts Bay","Picarts Bay",variant,17.041975,-61.895131,AG-05,,
-1323208,-1912485,hypsographic,"Christian Point","Christian Point",official,17.0371,-61.742307,AG-06,,
-1323560,-1912968,settlement,"Sutherlands Development","Sutherlands Development",official,17.122682,-61.829505,AG-04,,
-1323231,-1912510,hypsographic,"Conk Point","Conk Point",official,17.071482,-61.679735,AG-08,,
-1323298,-1912596,settlement,Freemans,Freemans,official,17.079171,-61.785703,AG-07,,
-1323543,-1912949,hypsographic,"Smith Hill","Smith Hill",official,17.090168,-61.856613,AG-05,,
-1323162,-1912421,hypsographic,"Bird Island","Bird Island",official,17.079423,-61.672436,AG-08,,
-1323563,-1912974,settlement,"Table Hill Gordon","Table Hill Gordon",official,17.043319,-61.779906,AG-06,,
-1323288,-1912575,hydrographic,"Fischer Creek","Fischer Creek",variant,17.126313,-61.783449,AG-03,,
-1323278,-1912567,hydrographic,"Fanneys Cove","Fanneys Cove",variant,17.093477,-61.684132,AG-08,,
-1323290,-1912587,hydrographic,"Five Islands Harbour","Five Islands Harbour",variant,17.097868,-61.882802,AG-05,,
-1323359,-1912685,hydrographic,"Hog Hole","Hog Hole",official,17.09927,-61.679055,AG-08,,
-1323157,-1912415,settlement,"Bendals Village","Bendals Village",variant,17.06807,-61.836042,AG-04,,
-1323263,-1912549,hypsographic,"Dow Hill","Dow Hill",official,17.016667,-61.75,AG-06,,
-1323371,-1912701,hydrographic,"Isaac Channel","Isaac Channel",official,17.016451,-61.722935,AG-000,,
-1323457,-1912818,spot,"Ottos Estate","Ottos Estate",official,17.116667,-61.833333,AG-04,,
-1323561,-1912971,settlement,Swetes,Swetes,official,17.050374,-61.800913,AG-06,,
-1323233,-1912513,hypsographic,"Corbison Point","Corbison Point",official,17.153996,-61.85524,AG-04,,
-1323451,-1912812,settlement,"Old Road Village","Old Road Village",variant,17.016816,-61.835787,AG-05,,
-1323323,-1912638,hypsographic,"Grays Point","Grays Point",official,17.076979,-61.703898,AG-08,,
-1323546,-1912952,hypsographic,"Snapper Point","Snapper Point",official,17.001137,-61.770231,AG-06,,
-1323219,-1912497,spot,"Cocoa Point","Cocoa Point",short,17.55,-61.75,AG-10,,
-1323376,-1912708,settlement,"Jennings Village","Jennings Village",variant,17.077348,-61.862238,AG-05,,
-1323405,-1912748,hypsographic,"Lynch Point","Lynch Point",official,17.032023,-61.712147,AG-08,,
-1323185,-1912452,hypsographic,"Byam Point","Byam Point",variant,17.127274,-61.718992,AG-07,,
-1323278,-1912568,hydrographic,"Fannys Cove","Fannys Cove",official,17.093477,-61.684132,AG-08,,
-1323502,-1912886,settlement,Renfrew,Renfrew,official,17.090231,-61.810713,AG-04,,
-1323205,-1912482,hypsographic,"Cherry Hill","Cherry Hill",official,17.019503,-61.788354,AG-06,,
-1323149,-1912404,settlement,"Barnes Hill","Barnes Hill",official,17.142272,-61.80788,AG-03,,
-1323324,-1912640,hypsographic,"Great Bird Island","Great Bird Island",official,17.14512,-61.724233,AG-07,,
-1323453,-1912814,settlement,Olivers,Olivers,official,17.07713,-61.815515,AG-04,,
-1323473,-1912839,hypsographic,"Pelican Island","Pelican Island",official,17.10547,-61.70393,AG-08,,
-1323377,-1912709,settlement,"John Hughes","John Hughes",official,17.043282,-61.822203,AG-05,,
-1323390,-1912730,hypsographic,"Ledwell Point","Ledwell Point",official,17.15,-61.866667,AG-04,,
-1323262,-1912548,park,Doigs,Doigs,official,17.017455,-61.810503,AG-05,,
-1323395,-1912736,hydrographic,"Little Cove","Little Cove",official,17.032869,-61.691293,AG-08,,
-1323415,-1912762,hydrographic,"Marigalante Bay","Marigalante Bay",variant,17.047955,-61.675453,AG-08,,
-1323493,-1912871,hypsographic,"Rabbit Island","Rabbit Island",official,17.704826,-61.827479,AG-10,,
-1323177,-1912444,settlement,"Boon House","Boon House",official,17.166667,-61.833333,AG-04,,
-1323385,-1912723,hypsographic,"Kid Island","Kid Island",official,17.699487,-61.813274,AG-10,,
-1323277,-1912565,hydrographic,"Falmouth Harbor","Falmouth Harbor",variant,17.017272,-61.775251,AG-06,,
-1323322,-1912637,settlement,"Grays Hill","Grays Hill",official,17.105791,-61.847375,AG-04,,
-1323193,-1912469,hypsographic,"Cashou Hill","Cashou Hill",variant,17.093678,-61.859322,AG-05,,
-1323320,-1912631,hydrographic,"Gravenor Bay","Gravenor Bay",official,17.549775,-61.751351,AG-10,,
-1323210,-1912487,hypsographic,"Cinnamon Island","Cinnamon Island",official,17.116667,-61.783333,AG-03,,
-1323334,-1912654,hypsographic,"Guard Point","Guard Point",official,17.12027,-61.897118,AG-04,,
-1323467,-1912833,settlement,Paynters,Paynters,official,17.117894,-61.806778,AG-03,,
-1323313,-1912622,hypsographic,"Goat Island","Goat Island",official,17.704704,-61.851415,AG-10,,
-1323482,-1912854,hydrographic,"Pinching Bay","Pinching Bay",official,17.104245,-61.90302,AG-04,,
-1323176,-1912443,hydrographic,"Boon Channel","Boon Channel",official,17.17494,-61.852786,AG-04,,
-1323233,-1912514,hypsographic,"Corbizon Point","Corbizon Point",variant,17.153996,-61.85524,AG-04,,
-1323298,-1912599,settlement,Freemonville,Freemonville,variant,17.079171,-61.785703,AG-07,,
-1323446,-1912803,settlement,"North Sound","North Sound",official,17.095629,-61.783659,AG-03,,
-1323216,-1912493,settlement,"Cobbs Cross","Cobbs Cross",official,17.024016,-61.765985,AG-06,,
-1323474,-1912840,hypsographic,"Pelican Island","Pelican Island",official,17.099738,-61.908675,AG-04,,
-1323201,-1912478,hypsographic,"Chalky Hill","Chalky Hill",official,17.033333,-61.733333,AG-06,,
-1323519,-1912917,administrative_region,"Parish of Saint Paul","Parish of Saint Paul",official,17.033333,-61.766667,AG-06,,
-1323168,-1912431,hypsographic,"Blacks Point","Blacks Point",official,17.006387,-61.778093,AG-06,,
-1323540,-1912945,settlement,Sign,Sign,official,17.090964,-61.711791,AG-08,,
-1323169,-1912434,hypsographic,"Blake’s Islet","Blake's Islet",variant,17.01456,-61.782659,AG-06,,
-1323467,-1912832,settlement,Paynter,Paynter,variant,17.117894,-61.806778,AG-03,,
-1323227,-1912505,hydrographic,"Codrington Shoals","Codrington Shoals",official,17.483333,-61.833333,AG-10,,
-1323361,-1912687,hydrographic,"Horse Channel","Horse Channel",official,17.182673,-61.800389,AG-03,,
-1323175,-1912442,hydrographic,"Boon Bay","Boon Bay",variant,17.173005,-61.829083,AG-04,,
-1323336,-1912649,hypsographic,"Guana Islet","Guana Islet",variant,17.12248,-61.731204,AG-07,,
-1323340,-1912663,hydrographic,"Half Hide Bay","Half Hide Bay",official,17.041975,-61.895131,AG-05,,
-1323416,-1912767,settlement,Matthews,Matthews,official,17.058156,-61.794931,AG-06,,
-1323365,-1912694,hydrographic,"Hughes Cove","Hughes Cove",variant,17.071472,-61.699038,AG-08,,
-1323292,-1912589,hydrographic,"The Flashes","The Flashes",official,17.101492,-61.868506,AG-05,,
-1323393,-1912734,settlement,Lightfoots,Lightfoots,official,17.100883,-61.802743,AG-03,,
-1323164,-1912426,hydrographic,"Bird Islet Reef","Bird Islet Reef",variant,17.161109,-61.736736,AG-03,,
-1323285,-1912578,hydrographic,"Fishing Creek","Fishing Creek",official,17.698697,-61.805241,AG-10,,
-1323517,-1912913,settlement,"Saint Lukes Village","Saint Lukes Village",variant,17.078772,-61.834366,AG-04,,
-1323298,-1912598,settlement,Freemanville,Freemanville,variant,17.079171,-61.785703,AG-07,,
-1323514,-1912906,settlement,"Saint John’s","Saint John's",official,17.116667,-61.85,AG-04,,
-1323417,-1912768,settlement,Mayers,Mayers,official,17.086804,-61.713736,AG-08,,
-1323160,-1912419,settlement,"Big Duers","Big Duers",official,17.070752,-61.7633,AG-07,,
-1323518,-1912916,administrative_region,"Parish of Saint Mary","Parish of Saint Mary",official,17.05,-61.85,AG-05,,
-1323290,-1912585,hydrographic,"Five Island Harbour","Five Island Harbour",official,17.097868,-61.882802,AG-05,,
-1323500,-1912883,hypsographic,"Reeds Point","Reeds Point",official,17.071638,-61.895008,AG-05,,
-1323561,-1912969,settlement,Sweets,Sweets,variant,17.050374,-61.800913,AG-06,,
-1323189,-1912461,hydrographic,"Cades Reef","Cades Reef",official,17.008187,-61.864067,AG-05,,
-1323511,-1912902,hypsographic,"Sage Hill","Sage Hill",official,17.045409,-61.838471,AG-05,,
-1323166,-1912428,settlement,Bishops,Bishops,official,17.045229,-61.815569,AG-05,,
-1323471,-1912837,hydrographic,"Pelican Bay","Pelican Bay",official,17.581906,-61.736263,AG-10,,
-1323337,-1912658,hypsographic,"Gulf Point","Gulf Point",official,17.106714,-61.902915,AG-04,,
-1323288,-1912582,hydrographic,"Fitches Creek Bay","Fitches Creek Bay",official,17.126313,-61.783449,AG-03,,
-1323181,-1912449,settlement,"Brooks Old Mill","Brooks Old Mill",official,17.024855,-61.858712,AG-05,,
-1323282,-1912608,hypsographic,"Frys Point","Frys Point",variant,17.051572,-61.897445,AG-05,,
-1323399,-1912741,hypsographic,"Lobster Island","Lobster Island",official,17.133824,-61.729763,AG-07,,
-1323224,-1912502,settlement,Codrington,Codrington,official,17.639627,-61.825248,AG-10,,
-1323149,-1912405,settlement,"Barnes Hill Village","Barnes Hill Village",variant,17.142272,-61.80788,AG-03,,
-1323329,-1912647,hydrographic,"Guana Bay","Guana Bay",variant,17.114677,-61.736099,AG-07,,
-1323410,-1912757,hydrographic,"Mamora Reef","Mamora Reef",official,17.011234,-61.731561,AG-06,,
-1323395,-1912691,hydrographic,"Hudson Cove","Hudson Cove",variant,17.032869,-61.691293,AG-08,,
-1323258,-1912543,hydrographic,"Devils Hole","Devils Hole",official,17.065141,-61.677297,AG-08,,
-1323290,-1912584,hydrographic,"Five Island Harbor","Five Island Harbor",variant,17.097868,-61.882802,AG-05,,
-1323230,-1913013,settlement,Wickhams,Wickhams,variant,17.081328,-61.714155,AG-08,,
-1323416,-1912766,settlement,Mathew,Mathew,variant,17.058156,-61.794931,AG-06,,
-1323187,-1912456,hydrographic,"Cade Bay","Cade Bay",variant,17.020897,-61.860415,AG-05,,
-1323253,-1912538,hydrographic,"Deep Bay","Deep Bay",official,17.126592,-61.88672,AG-04,,
-1323277,-1912566,hydrographic,"Falmouth Harbour","Falmouth Harbour",official,17.017272,-61.775251,AG-06,,
-1323516,-1912910,settlement,"Saint Johnstone Village","Saint Johnstone Village",variant,17.118612,-61.827004,AG-04,,
-1323466,-1912830,settlement,Pattersons,Pattersons,variant,17.033333,-61.783333,AG-06,,
-1323348,-1912673,hydrographic,"Hawks Bill Bay","Hawks Bill Bay",official,17.114708,-61.898313,AG-04,,
-1323533,-1912937,hypsographic,"Shekerley Mountains","Shekerley Mountains",official,17.038872,-61.865575,AG-05,,
-1323450,-1912807,hypsographic,"Old Fort Point","Old Fort Point",official,17.121885,-61.764116,AG-07,,
-1323355,-1912680,hypsographic,"The Highlands","The Highlands",official,17.651982,-61.767489,AG-10,,
-1323265,-1912544,hypsographic,"Dian Point","Dian Point",variant,17.101834,-61.68258,AG-08,,
-1323542,-1912948,hypsographic,"The Sisters","The Sisters",official,17.160841,-61.868333,AG-04,,
-1323441,-1912797,settlement,"Newfield Village","Newfield Village",variant,17.058536,-61.725115,AG-08,,
-1323458,-1912820,hydrographic,"Palaster Reef","Palaster Reef",official,17.526857,-61.747672,AG-10,,
-1323325,-1912642,hydrographic,"Great Deep Bay","Great Deep Bay",official,17.05556,-61.675655,AG-08,,
-1323235,-1912516,hypsographic,"Crab Hill","Crab Hill",official,17.033867,-61.883194,AG-05,,
-1323246,-1912530,settlement,Crosbies,Crosbies,official,17.165695,-61.823666,AG-04,,
-1323301,-1912602,hypsographic,"Friars Head","Friars Head",official,17.046639,-61.67384,AG-08,,
-1323384,-1912722,hydrographic,"Kettle Bottom Shoals","Kettle Bottom Shoals",official,17.15,-61.766667,AG-03,,
-1323174,-1912438,settlement,Bolands,Bolands,variant,17.065445,-61.873571,AG-05,,
-1323448,-1912805,hydrographic,"North West Channel","North West Channel",official,17.176749,-61.883963,AG-04,,
-1323362,-1912689,hydrographic,"Horse Shoe Channel","Horse Shoe Channel",official,17.022636,-61.72272,AG-000,,
-1323535,-1912939,hypsographic,"Cape Shirley","Cape Shirley",official,16.999238,-61.746427,AG-06,,
-1323379,-1912713,hypsographic,"Johnson Point","Johnson Point",variant,17.026619,-61.890105,AG-05,,
-1323517,-1912912,settlement,"Saint Lukes","Saint Lukes",official,17.078772,-61.834366,AG-04,,
-1323472,-1912711,hypsographic,"Johnson Islet","Johnson Islet",variant,17.025248,-61.89103,AG-05,,
-1323298,-1912594,settlement,Freeman,Freeman,variant,17.079171,-61.785703,AG-07,,
-1323468,-1912834,hydrographic,"Pearns Bay","Pearns Bay",official,17.083247,-61.904264,AG-05,,
-1323140,-1912389,hypsographic,"Island of Antigua","Island of Antigua",variant,17.073879,-61.795755,AG-000,,
-1323209,-1912486,hypsographic,"Christian Valley","Christian Valley",official,17.055433,-61.852389,AG-05,,
-1323163,-1912422,hydrographic,"Bird Island Channel","Bird Island Channel",official,17.166501,-61.72793,AG-03,,
-1323528,-1912928,settlement,Sawcolts,Sawcolts,official,17.050382,-61.820138,AG-05,,
-1323282,-1912574,hypsographic,"Ffryes Point","Ffryes Point",official,17.051572,-61.897445,AG-05,,
-1323408,-1912754,hypsographic,"Maiden Islet","Maiden Islet",variant,17.145284,-61.763162,AG-03,,
-1323460,-1912822,settlement,"Paradise View","Paradise View",official,17.149534,-61.841609,AG-04,,
-1323254,-1912539,hypsographic,"Deep Bay Point","Deep Bay Point",official,17.124102,-61.889978,AG-04,,
-1323182,-1912450,settlement,Buckleys,Buckleys,official,17.069281,-61.814148,AG-04,,
-1323400,-1912742,hydrographic,"Long Bay","Long Bay",official,17.09977,-61.69016,AG-08,,
-1323350,-1912661,hypsographic,"Hale Gate","Hale Gate",variant,17.141059,-61.72194,AG-07,,
-1323345,-1912669,hypsographic,"Harman Point","Harman Point",official,17.000557,-61.760186,AG-06,,
-1323547,-1912953,hydrographic,"Soldier Bay","Soldier Bay",official,17.166667,-61.833333,AG-04,,
-1323431,-1912784,hydrographic,"Morris Bay","Morris Bay",official,17.066667,-61.883333,AG-05,,
-1323271,-1912559,hydrographic,"English Harbour","English Harbour",official,17.003521,-61.762156,AG-06,,
-1323195,-1912471,hydrographic,"Castle Bay","Castle Bay",official,17.610968,-61.73307,AG-10,,
-1323534,-1912938,hypsographic,"Shipstern Point","Shipstern Point",official,17.128786,-61.890983,AG-04,,
-1323307,-1912614,hypsographic,"Gateward Point","Gateward Point",official,17.016667,-61.783333,AG-06,,
-1323440,-1912872,hydrographic,"Ramsay Bay","Ramsay Bay",variant,17.08823,-61.882872,AG-05,,
-1323451,-1912467,settlement,"Carlisle’s Estate","Carlisle's Estate",variant,17.016816,-61.835787,AG-05,,
-1323146,-1912400,hypsographic,Barbuda,Barbuda,official,17.62993,-61.78838,AG-10,,
-1323383,-1912721,hydrographic,"Jumby Bay","Jumby Bay",official,17.155589,-61.761078,AG-03,,
-1323346,-1912670,settlement,Harveys,Harveys,official,17.033333,-61.866667,AG-05,,
-1323157,-1912414,settlement,Bendals,Bendals,official,17.06807,-61.836042,AG-04,,
-1323375,-1912706,hypsographic,"James Point","James Point",official,17.102849,-61.698068,AG-08,,
-1323396,-1912737,hydrographic,"Little Deep Bay","Little Deep Bay",official,17.059148,-61.677254,AG-08,,
-1323270,-1912557,settlement,Emanuel,Emanuel,official,17.072174,-61.837313,AG-04,,
-1323463,-1912827,hydrographic,"Parham Harbour","Parham Harbour",official,17.116754,-61.76586,AG-000,,
-1323280,-1912604,settlement,Frryes,Frryes,variant,17.055088,-61.731433,AG-08,,
-1323413,-1912760,hypsographic,"Man of War Point","Man of War Point",official,17.068665,-61.657762,AG-08,,
-1323304,-1912610,hydrographic,"Galley Bay","Galley Bay",official,17.122112,-61.893558,AG-04,,
-1323249,-1912533,hydrographic,"Cuffy Creek","Cuffy Creek",official,17.680614,-61.835571,AG-10,,
-1323300,-1912600,settlement,Freetown,Freetown,official,17.047905,-61.703322,AG-08,,
-1323454,-1912815,settlement,"Orange Valley Mill","Orange Valley Mill",official,17.033333,-61.866667,AG-05,,
-1323554,-1912961,settlement,Spencers,Spencers,official,17.093912,-61.703891,AG-08,,
-1323215,-1912492,hydrographic,"Cobb Reef","Cobb Reef",official,17.724302,-61.817761,AG-10,,
-1323551,-1912957,hypsographic,"South Point","South Point",official,16.933333,-62.35,AG-000,,
-1323421,-1912411,hydrographic,"Belfast Bay","Belfast Bay",variant,17.103803,-61.717214,AG-000,,
-1323255,-1912540,settlement,Delaps,Delaps,official,17.06046,-61.751788,AG-06,,
-1323186,-1912457,hypsographic,"Cade Peak","Cade Peak",official,17.028748,-61.84877,AG-05,,
-1323392,-1912733,settlement,"Liberta Village","Liberta Village",variant,17.041413,-61.790516,AG-06,,
-1323434,-1912787,settlement,"Mount William","Mount William",official,17.038923,-61.790573,AG-06,,
-1323242,-1912526,hypsographic,"Crawl Point","Crawl Point",official,17.025636,-61.737231,AG-06,,
-1323280,-1912947,settlement,Simpson,Simpson,variant,17.055088,-61.731433,AG-08,,
-1323512,-1912903,administrative_region,"Parish of Saint George","Parish of Saint George",official,17.116667,-61.8,AG-03,,
-1323486,-1912860,settlement,Potters,Potters,variant,17.113369,-61.819618,AG-04,,
-1323398,-1912740,hypsographic,"Loblolly Point","Loblolly Point",official,17.133333,-61.866667,AG-04,,
-1323322,-1912634,settlement,"Gray House Village","Gray House Village",variant,17.105791,-61.847375,AG-04,,
-1323319,-1912639,hydrographic,"Great Bay","Great Bay",variant,17.131806,-61.7224,AG-07,,
-1323379,-1912808,hypsographic,"Old Fort Point","Old Fort Point",variant,17.026619,-61.890105,AG-05,,
-1323404,-1912747,settlement,"Lower Lyons","Lower Lyons",official,17.044075,-61.736176,AG-08,,
-1323494,-1912873,hypsographic,"Rat Island","Rat Island",official,17.126085,-61.85571,AG-04,,
-1323169,-1912432,hypsographic,"Blake Island","Blake Island",official,17.01456,-61.782659,AG-06,,
-1323520,-1912918,administrative_region,"Parish of Saint Peter","Parish of Saint Peter",official,17.1,-61.766667,AG-07,,
-1323220,-1912498,hypsographic,"Cocoa Point","Cocoa Point",official,17.543735,-61.766505,AG-10,,
-1323297,-1912595,hypsographic,"Freeman Point","Freeman Point",official,17,-61.766667,AG-06,,
-1323140,-1912393,hypsographic,"Antigua Island","Antigua Island",official,17.073879,-61.795755,AG-000,,
-1323529,-1912930,hypsographic,"Scotts Hill","Scotts Hill",official,17.11167,-61.824709,AG-04,,
-1323252,-1912536,settlement,"Dark Wood","Dark Wood",official,17.040525,-61.889597,AG-05,,
-1323536,-1912940,spot,"Fort Shirley","Fort Shirley",variant,17.002139,-61.754775,AG-06,,
-1323492,-1912870,hypsographic,"Rabbit Island","Rabbit Island",official,17.13592,-61.731008,AG-07,,
-1323370,-1912700,hypsographic,"Indian Town Point","Indian Town Point",official,17.101474,-61.678098,AG-08,,
-1323148,-1912403,hypsographic,"Barnes Hill","Barnes Hill",official,17.15,-61.8,AG-03,,
-1323488,-1912863,hydrographic,"Potworks Dam","Potworks Dam",official,17.066282,-61.750193,AG-07,,
-1323185,-1912454,hypsographic,"Byham Point","Byham Point",official,17.127274,-61.718992,AG-07,,
-1323559,-1912967,settlement,Sutherland,Sutherland,official,17.112412,-61.880068,AG-04,,
-1323378,-1912715,settlement,"Johnsons Point","Johnsons Point",official,17.02888,-61.885248,AG-05,,
-1323151,-1912407,spot,"Fort Barrington","Fort Barrington",official,17.129303,-61.888118,AG-04,,
-1323328,-1912646,hypsographic,"Green Islet","Green Islet",variant,17.070863,-61.666732,AG-08,,
-1323218,-1912495,hypsographic,"Cocks Hill","Cocks Hill",official,17.065133,-61.880148,AG-05,,
-1323280,-1912572,settlement,Ffryes,Ffryes,official,17.055088,-61.731433,AG-08,,
-1323516,-1912911,settlement,"Saint Johnston Village","Saint Johnston Village",official,17.118612,-61.827004,AG-04,,
-1323253,-1912621,hydrographic,"Goat Hill Bay","Goat Hill Bay",variant,17.126592,-61.88672,AG-04,,
-1323281,-1912605,hydrographic,"Fryes Bay","Fryes Bay",variant,17.048963,-61.896975,AG-05,,
-1323455,-1912816,hydrographic,"Ordnance Bay","Ordnance Bay",official,17.011547,-61.764661,AG-06,,
-1323451,-1912809,settlement,"Old Road","Old Road",official,17.016816,-61.835787,AG-05,,
-1323378,-1912712,settlement,"Johnson Point","Johnson Point",variant,17.02888,-61.885248,AG-05,,
-1323173,-1912437,hypsographic,"Boland Hill","Boland Hill",variant,17.059368,-61.877034,AG-05,,
-1323531,-1912936,settlement,"Seton Village","Seton Village",variant,17.094346,-61.725525,AG-08,,
-1323282,-1912606,hypsographic,"Fryes Point","Fryes Point",variant,17.051572,-61.897445,AG-05,,
-1323224,-1912506,settlement,"Codrington Village","Codrington Village",variant,17.639627,-61.825248,AG-10,,
-1323272,-1912896,settlement,"Rotten Town","Rotten Town",variant,17.016371,-61.7674,AG-06,,
-1323203,-1912480,spot,"Fort Charlotte","Fort Charlotte",official,17.001581,-61.760929,AG-06,,
-1323254,-1912724,hypsographic,"Kid Point","Kid Point",variant,17.124102,-61.889978,AG-04,,
-1323172,-1912436,hypsographic,"Boggy Peak","Boggy Peak",variant,17.044828,-61.861174,AG-05,,
-1323462,-1912825,settlement,Parham,Parham,official,17.110311,-61.766427,AG-07,,
-1323257,-1912542,hydrographic,"Devils Bridge","Devils Bridge",official,17.100663,-61.677799,AG-08,,
-1323197,-1912474,settlement,"Cedar Grove Village","Cedar Grove Village",variant,17.162253,-61.817804,AG-04,,
-1323432,-1912785,settlement,"Morris Loobys","Morris Loobys",official,17.049607,-61.758919,AG-06,,
-1323167,-1912430,hypsographic,"Blackmans Point","Blackmans Point",official,17.124195,-61.777601,AG-03,,
-1323373,-1912703,spot,"Fort James","Fort James",official,17.130431,-61.863533,AG-04,,
-1323443,-1912800,hydrographic,"Nonsuch Harbour","Nonsuch Harbour",variant,17.077166,-61.687584,AG-08,,
-1323516,-1912909,settlement,"Saint Johnston","Saint Johnston",variant,17.118612,-61.827004,AG-04,,
-1323433,-1912786,hydrographic,"Mosquito Cove","Mosquito Cove",official,17.076401,-61.892239,AG-05,,
-1323500,-1912882,hypsographic,"Reed Point","Reed Point",variant,17.071638,-61.895008,AG-05,,
-1323309,-1912616,settlement,Gaynors,Gaynors,official,17.067393,-61.718599,AG-08,,
-1323525,-1912925,hypsographic,"Sandy Islet","Sandy Islet",variant,17.133333,-61.916667,AG-04,,
-1323381,-1912718,hydrographic,"Jolly Hill Salt Pond","Jolly Hill Salt Pond",official,17.071715,-61.887538,AG-05,,
-1323401,-1912743,hypsographic,"Long Island","Long Island",official,17.155096,-61.753963,AG-03,,
-1323171,-1912435,settlement,"Blubber Valley","Blubber Valley",official,17.066515,-61.864186,AG-05,,
-1323556,-1912963,hypsographic,"Standfast Point","Standfast Point",official,17.002774,-61.73428,AG-06,,
-1323363,-1912690,hydrographic,"Horse Shoe Reef","Horse Shoe Reef",official,17.026223,-61.714239,AG-000,,
-1323349,-1912674,hypsographic,"Hawks Bill Rock","Hawks Bill Rock",official,17.112159,-61.902408,AG-04,,
-1323178,-1912446,hypsographic,"Boon’s Point","Boon's Point",variant,17.173054,-61.832383,AG-04,,
-1323524,-1912922,spot,"Sand Ground Plantation","Sand Ground Plantation",official,17.605479,-61.832893,AG-10,,
-1323274,-1912562,hydrographic,"Exchange Bay","Exchange Bay",official,17.043489,-61.680869,AG-08,,
-1323427,-1912779,hypsographic,"Monteros Hill","Monteros Hill",official,17.084135,-61.868631,AG-05,,
-1323332,-1912652,hypsographic,"Guard Point","Guard Point",official,17.098788,-61.715652,AG-08,,
-1323403,-1912746,hydrographic,"Low Bay","Low Bay",official,17.656648,-61.858503,AG-10,,
-1323329,-1912885,hydrographic,"Rendezvous Bay","Rendezvous Bay",variant,17.114677,-61.736099,AG-07,,
-1323419,-1912771,hydrographic,"Mercers Creek","Mercers Creek",official,17.103231,-61.729776,AG-07,,
-1323315,-1912624,hypsographic,"Goat Island Point","Goat Island Point",variant,17.728871,-61.844793,AG-10,,
-1323466,-1912831,settlement,"Pattersons Dwelling House","Pattersons Dwelling House",official,17.033333,-61.783333,AG-06,,
-1323223,-1912501,spot,Codrington,Codrington,short,17.633333,-61.816667,AG-10,,
-1323515,-1912908,hydrographic,"Saint John’s Harbour","Saint John's Harbour",official,17.125987,-61.86347,AG-04,,
-1203233,-1767220,hypsographic,"Antilles Menores","Antilles Menores",variant,14.666667,-61.016667,S1-000,,
-1203184,-1768384,hypsographic,"Groupe de Leeward","Groupe de Leeward",variant,17.35,-62.783333,S1-000,,
-1203233,-1768235,hypsographic,"Kleine Antillen","Kleine Antillen",variant,14.666667,-61.016667,S1-000,,
-1203233,-1768798,hypsographic,"Pequeñas Antillas","Pequenas Antillas",variant,14.666667,-61.016667,S1-000,,
-1203184,-1768385,hypsographic,"Leeward Islands","Leeward Islands",colloquial,17.35,-62.783333,S1-000,,
-1203233,-1768849,hypsographic,"Petites Antilles","Petites Antilles",variant,14.666667,-61.016667,S1-000,,
-1203184,-1769274,hypsographic,"Îles Sous-le-Vent","Iles Sous-le-Vent",variant,17.35,-62.783333,S1-000,,
-1203233,-1768455,hypsographic,"Lesser Antilles","Lesser Antilles",colloquial,14.666667,-61.016667,S1-000,,
-153700,-238541,hydrographic,"Havers Shoal","Havers Shoal",official,16.816667,-62.416667,AG-000,,
41592,52631,spot,"Martello Tower","Martello Tower",official,17.595102,-61.829229,AG-10,,
41593,52632,spot,"Hudson Landing","Hudson Landing",official,17.611111,-61.840833,AG-10,,
41595,52634,spot,"Castle Landing","Castle Landing",official,17.639444,-61.828333,AG-10,,
52688,66631,hypsographic,"Lindsay Hill","Lindsay Hill",official,17.093999,-61.763098,AG-07,,
52926,66953,hydrographic,"Warrington Bank","Warrington Bank",official,17.145833,-61.883333,AG-04,,
52847,66843,hydrographic,"Scott Shoal","Scott Shoal",official,17.166667,-61.783333,AG-03,,
52729,66699,hydrographic,"York Bank","York Bank",official,17.061111,-61.666667,AG-08,,
52743,66717,hypsographic,"Mount Pleasant","Mount Pleasant",official,17.133333,-61.816667,AG-03,,
52922,66947,hydrographic,"Irish Bank","Irish Bank",official,17.066667,-61.925,AG-05,,
52845,66841,hydrographic,"Jarvis Shoal","Jarvis Shoal",official,17.191667,-61.816667,AG-04,,
52858,66864,hydrographic,"Bannister Bank","Bannister Bank",official,17.183333,-61.883333,AG-04,,
52850,66848,hydrographic,"Salt Fish Tail","Salt Fish Tail",official,17.175,-61.85,AG-04,,
52911,66932,hydrographic,"Pelican Shoal","Pelican Shoal",official,17.1,-61.916667,AG-04,,
52838,66833,hydrographic,"Horse Shoe","Horse Shoe",official,17.191667,-61.791667,AG-03,,
52855,66860,hydrographic,"Diamond Bank","Diamond Bank",official,17.2,-61.883333,AG-04,,
52913,66934,hydrographic,"Cook Shoal","Cook Shoal",official,17.1,-61.9,AG-000,,
52792,66775,hydrographic,"Ward Shoal","Ward Shoal",official,17.183333,-61.783333,AG-03,,
52950,66984,hydrographic,"Codrington Bank","Codrington Bank",official,17.45,-61.783333,AG-10,,
53411,67607,hydrographic,"McKinnons Salt Pond","McKinnons Salt Pond",official,17.14731,-61.851667,AG-04,,
53391,18944575,hydrographic,"Yam Piece Shoal","Yam Piece Shoal",variant,17.159104,-61.77087,AG-03,,
53403,67595,hydrographic,"Langford Bay","Langford Bay",official,17.170083,-61.838114,AG-04,,
53363,67532,hypsographic,"Hand Point","Hand Point",official,17.120139,-61.752224,AG-07,,
53356,67523,hypsographic,"North Whelk","North Whelk",official,17.158333,-61.729167,AG-000,,
53367,67535,hypsographic,"Crabs Point","Crabs Point",official,17.136734,-61.751761,AG-07,,
53405,67597,hydrographic,"Diamond Channel","Diamond Channel",official,17.2,-61.872222,AG-000,,
53493,67741,hydrographic,"Hurst Shoals","Hurst Shoals",official,17.105556,-61.916667,AG-04,,
53484,67718,hydrographic,"Middle Ground","Middle Ground",official,17.144444,-61.881944,AG-04,,
53486,67727,hydrographic,"Weymouth Reef","Weymouth Reef",official,17.132222,-61.931111,AG-04,,
53390,67581,hydrographic,"Fellingo Shoal","Fellingo Shoal",official,17.135987,-61.769983,AG-03,,
53409,67603,hydrographic,"Great Sister","Great Sister",official,17.161667,-61.868056,AG-04,,
53400,67592,hydrographic,"Harney Shoal","Harney Shoal",official,17.197222,-61.803333,AG-04,,
53407,67601,hydrographic,"Little Sister","Little Sister",official,17.1625,-61.865,AG-04,,
53414,67612,hydrographic,"Saint John’s Road","Saint John's Road",official,17.15,-61.875,AG-04,,
53393,67585,hydrographic,"Shoal Bay","Shoal Bay",official,17.1625,-61.793333,AG-03,,
53391,67582,hydrographic,"Yam Piece Shoals","Yam Piece Shoals",official,17.159104,-61.77087,AG-03,,
53350,67514,hydrographic,"Keeves Landing","Keeves Landing",official,17.096298,-61.715098,AG-08,,
53392,67583,hydrographic,"Addison Shoal","Addison Shoal",official,17.170833,-61.770833,AG-03,,
11658784,14013928,administrative_region,Redonda,Redonda,official,16.9375,-62.345,AG-11,,
14576911,18938627,settlement,Royals,Royals,official,17.163291,-61.810566,AG-04,,
14572202,18937056,hypsographic,"Black Rock","Black Rock",official,17.124724,-61.719938,AG-07,,
14572190,18929184,hypsographic,"Philips Point","Philips Point",official,17.082587,-61.695906,AG-08,,
14572187,18929180,hypsographic,"Nanny Island","Nanny Island",official,17.068156,-61.690643,AG-08,,
14565647,18922619,spot,"Montpelier Sugar Factory","Montpelier Sugar Factory",official,17.045847,-61.720228,AG-08,,
14572188,18929181,hydrographic,"Browns Bay","Browns Bay",official,17.06846,-61.696108,AG-08,,
14572186,18929179,hypsographic,"Neck of Land","Neck of Land",official,17.061346,-61.674709,AG-08,,
14572197,18929191,hydrographic,"Nibbs Wharf","Nibbs Wharf",official,17.110094,-61.742248,AG-07,,
14572195,18929189,hydrographic,"Seaton Bay","Seaton Bay",official,17.0975,-61.725301,AG-08,,
14572191,18929185,hypsographic,"Goat Hill","Goat Hill",official,17.08383,-61.689428,AG-08,,
14572201,18937055,hydrographic,"Poals Bay","Poals Bay",official,17.128592,-61.727943,AG-07,,
14572199,18929193,hydrographic,"Harris Bay","Harris Bay",official,17.120724,-61.727568,AG-07,,
14572189,18929182,hydrographic,"Liddy Bay","Liddy Bay",official,17.077844,-61.70422,AG-08,,
14572193,18929187,hypsographic,"Laurys Point","Laurys Point",official,17.100039,-61.693101,AG-08,,
14572200,18937054,hydrographic,"Guiana Bay","Guiana Bay",official,17.125585,-61.731224,AG-07,,
14572185,18929178,hydrographic,"Machin Bay","Machin Bay",official,17.02149,-61.732141,AG-06,,
14572198,18929192,hypsographic,"Nibbs Point","Nibbs Point",official,17.114935,-61.744972,AG-07,,
14572194,18929188,hydrographic,"Lords Cove","Lords Cove",official,17.099157,-61.704104,AG-08,,
14572192,18929186,hydrographic,"Tonnies Cove","Tonnies Cove",official,17.098188,-61.679958,AG-08,,
14572196,18929190,hydrographic,"Crumps Wharf","Crumps Wharf",official,17.110747,-61.732027,AG-07,,
14572184,18929177,hydrographic,"Daniel Bay","Daniel Bay",official,17.022797,-61.733402,AG-06,,
14576818,18938474,settlement,Soldier,Soldier,official,17.168587,-61.836185,AG-04,,
14576854,18938542,spot,"Saint Anne’s Fort","Saint Anne's Fort",official,17.010689,-61.774836,AG-06,,
14576820,18938477,hydrographic,"Tom Long Pond","Tom Long Pond",official,17.139125,-61.845957,AG-04,,
14576852,18938538,hydrographic,"Cherry Hill Bay","Cherry Hill Bay",official,17.018068,-61.782732,AG-06,,
14576819,18938475,spot,"Old Fort","Old Fort",official,17.154203,-61.855497,AG-04,,
14576858,18938548,hydrographic,"Ricketts Harbour","Ricketts Harbour",official,17.067802,-61.678816,AG-08,,
14576855,18938543,spot,"Dow Hill Fort","Dow Hill Fort",official,17.011022,-61.757682,AG-06,,
14576853,18938540,hypsographic,"Saint Anne’s Point","Saint Anne's Point",official,17.010726,-61.77491,AG-06,,
14576857,18938545,hypsographic,"Goat Hill","Goat Hill",official,17.040549,-61.75456,AG-06,,
14576886,18938576,spot,"Wallings Pumping Station","Wallings Pumping Station",official,17.0392,-61.824553,AG-05,,
14576950,18938649,settlement,Bodkins,Bodkins,official,17.049471,-61.765673,AG-06,,
14576840,18938506,hydrographic,"Yorks Salt Pond","Yorks Salt Pond",official,17.081861,-61.893138,AG-05,,
14576826,18938485,hypsographic,"Hattons Hill","Hattons Hill",official,17.117099,-61.856771,AG-04,,
14576890,18938580,spot,"Creekside Bridge","Creekside Bridge",official,17.092168,-61.848954,AG-05,,
14576890,18938581,spot,"Thibous Bridge","Thibous Bridge",variant,17.092168,-61.848954,AG-05,,
14576809,18937063,hypsographic,"Cistern Point","Cistern Point",official,17.14951,-61.753953,AG-03,,
14576985,18938995,hypsographic,"Charlotte Point","Charlotte Point",official,17.001775,-61.76113,AG-06,,
14576915,18938631,hypsographic,"Sampson Hill","Sampson Hill",official,17.123365,-61.811629,AG-04,,
14577348,18939186,spot,"Fort Charles","Fort Charles",official,17.014594,-61.782693,AG-06,,
14576806,18937060,spot,"Jordans Pier","Jordans Pier",official,17.112906,-61.763393,AG-07,,
14576842,18938508,hypsographic,"Leonards Hill","Leonards Hill",official,17.085128,-61.889191,AG-05,,
14576828,18938487,hypsographic,"Side Hill","Side Hill",official,17.115929,-61.860847,AG-04,,
14576896,18938587,settlement,"Grays Farm","Grays Farm",official,17.110956,-61.847692,AG-04,,
14576884,18938574,hypsographic,"Spring Hill","Spring Hill",official,17.025714,-61.791523,AG-06,,
14576945,18938644,hypsographic,"Parrys Hill","Parrys Hill",official,17.071337,-61.75958,AG-07,,
14576814,18937070,hypsographic,"Pasture Point","Pasture Point",official,17.161625,-61.758413,AG-03,,
14576920,18938639,spot,"North Sound Bridge","North Sound Bridge",official,17.104994,-61.790524,AG-03,,
14576986,18938996,settlement,"The Ordnance Land","The Ordnance Land",official,17.010418,-61.765824,AG-06,,
14576815,18937071,hypsographic,"Little Bird Island","Little Bird Island",official,17.157462,-61.738038,AG-03,,
14577001,18939179,park,Archbolds,Archbolds,official,17.062464,-61.710163,AG-08,,
14576897,18938588,settlement,Kentish,Kentish,official,17.112264,-61.842519,AG-04,,
14576947,18938645,park,Yeamans,Yeamans,official,17.064481,-61.764688,AG-07,,
14576951,18938652,spot,"Savannah Dam","Savannah Dam",official,17.030226,-61.75892,AG-06,,
14576905,18938617,settlement,"Gambles Terrace","Gambles Terrace",official,17.128435,-61.842049,AG-04,,
14576833,18938494,hydrographic,"Rocky Bay","Rocky Bay",official,17.130136,-61.884732,AG-04,,
14576804,18937058,hypsographic,"Galley Islands","Galley Islands",official,17.143463,-61.726272,AG-07,,
14576984,18938994,hydrographic,"South Sandy Island","South Sandy Island",official,17.007653,-61.876326,AG-05,,
14576891,18938582,hypsographic,"Green Castle Hill","Green Castle Hill",official,17.073904,-61.849297,AG-05,,
14576846,18938512,settlement,Willocks,Willocks,official,17.048843,-61.87584,AG-05,,
14576910,18938624,spot,"Weatherills Farm","Weatherills Farm",official,17.161779,-61.836509,AG-04,,
14577002,18939180,park,Skerretts,Skerretts,official,17.059191,-61.700329,AG-08,,
14577351,18939189,spot,"Brecknocks Number Two Dam","Brecknocks Number Two Dam",official,17.064499,-61.823016,AG-04,,
14576838,18938500,hydrographic,"Cooks Creek","Cooks Creek",official,17.103509,-61.871504,AG-05,,
14576997,18939175,settlement,Villa,Villa,official,17.133481,-61.849706,AG-04,,
14576885,18938575,hydrographic,"Wallings Reservoir","Wallings Reservoir",official,17.035269,-61.825044,AG-05,,
14576992,18939007,spot,"Fort Berkeley","Fort Berkeley",official,17.004415,-61.763212,AG-06,,
14576989,18938998,hypsographic,"Man O’War Hill","Man O'War Hill",official,17.007041,-61.761704,AG-06,,
14576813,18937068,hydrographic,"Pond Bay","Pond Bay",official,17.159927,-61.759681,AG-03,,
14576983,18938693,settlement,"Guinea Bush","Guinea Bush",official,17.031227,-61.771853,AG-06,,
14576850,18938536,park,Fishers,Fishers,official,17.006006,-61.830383,AG-05,,
14577356,18939234,spot,"Antigua Sugar Factory","Antigua Sugar Factory",official,17.110094,-61.797967,AG-03,,
14577000,18939177,settlement,Wickhams,Wickhams,official,17.075743,-61.713796,AG-08,,
14576893,18938584,hypsographic,"Brown Hill","Brown Hill",official,17.085577,-61.858056,AG-05,,
14576816,18937072,hydrographic,"Elys Bay","Elys Bay",official,17.168376,-61.800365,AG-03,,
14576899,18938590,hypsographic,"Cooks Hill","Cooks Hill",official,17.109627,-61.851658,AG-04,,
14576839,18938505,hydrographic,"The Cove","The Cove",official,17.079794,-61.90078,AG-05,,
14576887,18938577,hydrographic,"Body Pond","Body Pond",official,17.061112,-61.81899,AG-04,,
14576808,18937062,hydrographic,"Loblolly Bay","Loblolly Bay",official,17.149764,-61.762012,AG-03,,
14576832,18938493,hydrographic,"Pillar Rock Bay","Pillar Rock Bay",official,17.128985,-61.880789,AG-04,,
14576998,18939176,spot,"Saint George’s Church","Saint George's Church",official,17.128762,-61.787555,AG-03,,
14576889,18938579,hypsographic,"Belmont Hill","Belmont Hill",official,17.103028,-61.820317,AG-04,,
14577352,18939190,settlement,"Martin Hill","Martin Hill",official,17.072911,-61.817037,AG-04,,
14576913,18938628,hypsographic,"Santa Maria Hill","Santa Maria Hill",official,17.156095,-61.81999,AG-04,,
14576961,18938691,settlement,"Green Hill","Green Hill",official,17.038209,-61.78555,AG-06,,
14576862,18938552,hydrographic,"Skerrets Bay","Skerrets Bay",official,17.067001,-61.690954,AG-08,,
14576829,18938488,hypsographic,"Top Side Hill","Top Side Hill",official,17.118325,-61.862507,AG-04,,
14576825,18938484,spot,"Treasury Pier","Treasury Pier",official,17.121918,-61.846842,AG-04,,
14576908,18938623,settlement,"Black Rock","Black Rock",official,17.169118,-61.827412,AG-04,,
14577345,18939183,settlement,Browns,Browns,official,17.067807,-61.698122,AG-08,,
14576803,18937057,hydrographic,"Pauls Bay","Pauls Bay",official,17.132558,-61.725712,AG-07,,
14576903,18938592,settlement,Point,Point,official,17.124551,-61.847344,AG-04,,
14576943,18938642,settlement,"Mount Joy","Mount Joy",official,17.087403,-61.77274,AG-07,,
14576919,18938638,hypsographic,"Saint George’s Hill","Saint George's Hill",official,17.121014,-61.794313,AG-03,,
14577343,18939181,park,Colebrooks,Colebrooks,official,17.053745,-61.705916,AG-08,,
14576843,18938509,settlement,Roses,Roses,official,17.057351,-61.87432,AG-05,,
14576898,18938589,settlement,"Ottos New Town","Ottos New Town",official,17.112591,-61.837838,AG-04,,
14576859,18938549,hydrographic,"Savannah Bay","Savannah Bay",official,17.067691,-61.661819,AG-08,,
14576822,18938479,spot,"Friars Hill Power Plant","Friars Hill Power Plant",official,17.135909,-61.836584,AG-04,,
14576831,18938492,hydrographic,"Hog John Bay","Hog John Bay",official,17.126362,-61.876053,AG-04,,
14576836,18938497,hydrographic,"Neds Bay","Neds Bay",official,17.120155,-61.897901,AG-04,,
14577347,18939185,park,"Fort William","Fort William",official,17.033828,-61.711427,AG-08,,
14576860,18938550,hydrographic,"Indian Creek","Indian Creek",official,17.068267,-61.660564,AG-08,,
14576900,18938591,hypsographic,"Jacks Hill","Jacks Hill",official,17.108891,-61.85912,AG-04,,
14576995,18939012,spot,"Antigua Recreation Ground","Antigua Recreation Ground",official,17.122361,-61.839065,AG-04,,
14576845,18938511,hypsographic,"Willneks Hill","Willneks Hill",official,17.055564,-61.883228,AG-05,,
14577350,18939188,spot,"Brecknocks Number One Dam","Brecknocks Number One Dam",official,17.057664,-61.826495,AG-05,,
14577353,18939191,settlement,Belvedere,Belvedere,official,17.067725,-61.838672,AG-04,,
14576944,18938643,settlement,Elliots,Elliots,official,17.08088,-61.737503,AG-08,,
14576922,18938641,settlement,"Parham Hill","Parham Hill",official,17.098663,-61.76522,AG-07,,
14576824,18938483,spot,"Point Wharf","Point Wharf",official,17.125042,-61.852017,AG-04,,
14577354,18939192,settlement,"Potters Buff","Potters Buff",official,17.10366,-61.812974,AG-04,,
14576948,18938648,spot,"Delaps Dam","Delaps Dam",official,17.05825,-61.752556,AG-06,,
14576851,18938537,hydrographic,"Turtle Bay","Turtle Bay",official,17.010169,-61.790652,AG-06,,
14576847,18938513,hypsographic,"Mount Carmel","Mount Carmel",official,17.010623,-61.817857,AG-05,,
14576918,18938635,settlement,Weirs,Weirs,official,17.116435,-61.790899,AG-03,,
14576960,18938690,settlement,Richmond,Richmond,official,17.039373,-61.801548,AG-06,,
14576844,18938510,settlement,"Tottenham Park","Tottenham Park",official,17.061552,-61.872666,AG-05,,
14576921,18938640,settlement,"Twenty Hill","Twenty Hill",official,17.102358,-61.769778,AG-07,,
14577349,18939187,settlement,Follys,Follys,official,17.051051,-61.808822,AG-06,,
14576916,18938634,hypsographic,"Piggotts Hill","Piggotts Hill",official,17.125471,-61.800099,AG-03,,
14576892,18938583,hypsographic,"Green Hill","Green Hill",official,17.080798,-61.846398,AG-05,,
14576830,18938489,settlement,"Side Hill","Side Hill",official,17.118174,-61.86245,AG-04,,
14576811,18937066,hydrographic,"Flinty Bay","Flinty Bay",official,17.159597,-61.750759,AG-03,,
14576888,18938578,hypsographic,"Ottos Hill","Ottos Hill",official,17.106233,-61.822344,AG-04,,
14576823,18938480,hypsographic,"Dry Hill","Dry Hill",official,17.138889,-61.857224,AG-04,,
14576895,18938586,settlement,"Nut Grove","Nut Grove",official,17.105722,-61.844584,AG-04,,
14576810,18937065,hydrographic,"Buckley Bay","Buckley Bay",official,17.154148,-61.747921,AG-03,,
14576894,18938585,settlement,"Saint Clare","Saint Clare",official,17.084696,-61.823178,AG-04,,
14576821,18938478,spot,"West Indies Oil Refinery","West Indies Oil Refinery",official,17.139739,-61.839923,AG-04,,
14576805,18937059,hypsographic,"Rat Island","Rat Island",official,17.128976,-61.76975,AG-03,,
14576841,18938507,hypsographic,"Mosquito Hill","Mosquito Hill",official,17.079568,-61.895565,AG-05,,
14576837,18938499,hydrographic,"Landing Bay","Landing Bay",official,17.117269,-61.897694,AG-04,,
14576962,18938692,settlement,Brooks,Brooks,official,17.041951,-61.781257,AG-06,,
14576907,18938620,settlement,"Friars Hill","Friars Hill",official,17.146344,-61.834056,AG-04,,
14576812,18937067,hydrographic,"Pasture Bay","Pasture Bay",official,17.159648,-61.755119,AG-03,,
14576861,18938551,hydrographic,"Grassfield Cove","Grassfield Cove",official,17.067376,-61.686641,AG-08,,
14576827,18938486,hypsographic,"Mission Hill","Mission Hill",official,17.115439,-61.853281,AG-04,,
14576817,18937073,hydrographic,"Blue Waters Bay","Blue Waters Bay",official,17.171216,-61.836072,AG-04,,
14576835,18938496,hypsographic,"Goat Hill","Goat Hill",official,17.129513,-61.886638,AG-04,,
14576849,18938535,hydrographic,"Farley Bay","Farley Bay",official,17.009023,-61.813537,AG-05,,
14576848,18938534,hypsographic,"Winter Hill","Winter Hill",official,17.005209,-61.832286,AG-05,,
14580413,18944297,settlement,Jonas,Jonas,official,17.074132,-61.790863,AG-07,,
14580412,18944295,spot,"Monks Hill","Monks Hill",official,17.030804,-61.777485,AG-06,,
14580419,18944303,hydrographic,"Black Ghaut","Black Ghaut",official,17.06858,-61.728453,AG-08,,
14580402,18944265,hypsographic,"Dark Valley","Dark Valley",official,17.04942,-61.86576,AG-05,,
14580418,18944302,spot,"Sion Hill Church","Sion Hill Church",official,17.080769,-61.728287,AG-08,,
14580948,18944879,settlement,Hattons,Hattons,official,17.116545,-61.853024,AG-04,,
14580417,18944301,settlement,"Crabs Peninsula","Crabs Peninsula",official,17.124229,-61.757252,AG-07,,
14580412,18944296,spot,"Great George Fort","Great George Fort",variant,17.030804,-61.777485,AG-06,,
14580680,18944637,spot,"Blockhouse Hill","Blockhouse Hill",official,17.000441,-61.746668,AG-06,,
14580411,18944294,park,"Cherry Hill","Cherry Hill",official,17.017406,-61.787632,AG-06,,
14580405,18944268,settlement,Yepton,Yepton,official,17.124925,-61.872352,AG-04,,
14580407,18944270,spot,"Mount Joshua","Mount Joshua",official,17.15442,-61.815799,AG-04,,
14580955,18944890,spot,"Byams Wharf","Byams Wharf",official,17.112127,-61.775308,AG-07,,
14580947,18944878,settlement,Union,Union,official,17.113836,-61.858056,AG-04,,
14580416,18944300,settlement,"Cedar Hill","Cedar Hill",official,17.105055,-61.780666,AG-07,,
14580953,18944885,settlement,Halls,Halls,official,17.091574,-61.858013,AG-05,,
14580950,18944882,hypsographic,"Road Fort","Road Fort",official,17.012506,-61.838547,AG-05,,
14580682,18944646,hydrographic,"Wicked Will Reef","Wicked Will Reef",official,17.050648,-61.672547,AG-08,,
14580403,18944266,park,"Fig Tree Hill","Fig Tree Hill",official,17.037352,-61.836864,AG-05,,
14580406,18944269,park,"Green Castle","Green Castle",official,17.082853,-61.838846,AG-05,,
14580420,18944304,hydrographic,"Bristol Ghaut","Bristol Ghaut",official,17.071198,-61.720186,AG-08,,
14580414,18944298,settlement,Bellevue,Bellevue,official,17.080041,-61.793727,AG-03,,
14580404,18944267,spot,"Valley Church","Valley Church",official,17.054676,-61.889545,AG-05,,
14580951,18944883,park,"The Ridge","The Ridge",official,17.007199,-61.752155,AG-06,,
14580410,18944273,spot,"Fiennes Dam","Fiennes Dam",official,17.05668,-61.812681,AG-04,,
14580415,18944299,park,Sherwood,Sherwood,official,17.085275,-61.791325,AG-03,,
14580952,18944884,settlement,Picarts,Picarts,official,17.042139,-61.887533,AG-05,,
14580409,18944272,spot,"Sweet Dam","Sweet Dam",official,17.055975,-61.812647,AG-04,,
14580408,18944271,settlement,Skerretts,Skerretts,official,17.122297,-61.823815,AG-04,,
14580421,18944305,park,Elmes,Elmes,official,17.064021,-61.722811,AG-08,,
14584126,18949892,hypsographic,"Darby Sink Cave","Darby Sink Cave",official,17.659258,-61.774875,AG-10,,
14584131,18949917,hydrographic,"Spring Well","Spring Well",official,17.634669,-61.828281,AG-10,,
14584132,18949918,hydrographic,"Indigo Well","Indigo Well",official,17.640438,-61.817645,AG-10,,
14584133,18949919,hydrographic,"All in Well","All in Well",official,17.65518,-61.810132,AG-10,,
14584123,18949889,spot,"The Castle","The Castle",official,17.551039,-61.739546,AG-10,,
14584127,18949893,settlement,"James Corner","James Corner",official,17.642615,-61.816857,AG-10,,
14584134,18949920,hydrographic,"Horse Pond","Horse Pond",official,17.68006,-61.819921,AG-10,,
14584125,18949891,hypsographic,"Highland Field","Highland Field",official,17.669133,-61.788607,AG-10,,
14584137,18949923,hydrographic,"Beazels Well","Beazels Well",official,17.624998,-61.808404,AG-10,,
14584136,18949922,hydrographic,"Plantation Well","Plantation Well",official,17.632098,-61.806158,AG-10,,
14584243,18949994,settlement,"Saint Helena","Saint Helena",official,17.0072,-61.762246,AG-06,,
14584130,18949916,hydrographic,"John Well","John Well",official,17.633971,-61.819108,AG-10,,
14584124,18949890,spot,"Highland House","Highland House",official,17.666139,-61.790384,AG-10,,
14584135,18949921,hydrographic,"Sam Spring Well","Sam Spring Well",official,17.620061,-61.824982,AG-10,,