wgdPlaceId,wgdId,type,name,fullName,nameType,latitude,longitude,administrationGroup,isHistorical,isCapital
-1336944,-1929314,hydrographic,Ya,Ya,official,10.033333,3.233333,BJ-000,,
-1334811,-1926709,hydrographic,Kpité,Kpite,official,7.6,1.75,BJ-000,,
-1333580,-1925264,hydrographic,Gao,Gao,official,10.676053,3.809663,BJ-AL,,
-2079785,-2875926,park,"Guinea Settentrionale","Guinea Settentrionale",variant,7,-4,S1-000,,
-2079785,-2881376,park,"Northern Guinea","Northern Guinea",variant,7,-4,S1-000,,
-2079785,-2885862,park,"Upper Guinea","Upper Guinea",official,7,-4,S1-000,,
-2079785,-2875925,park,"Guinea del Norte","Guinea del Norte",variant,7,-4,S1-000,,
-2079785,14102529,park,Haute-Guinée,Haute-Guinee,variant,7,-4,S1-000,,
-2079785,-2882066,park,Oberguinea,Oberguinea,variant,7,-4,S1-000,,
-2031737,-2822387,hydrographic,Yéoua,Yeoua,variant,6.433721,2.849016,S1-000,,
-2031737,-2822419,hydrographic,Yéwa,Yewa,official,6.433721,2.849016,S1-000,,
-2031737,-2822418,hydrographic,"River Yewa","River Yewa",official,6.433721,2.849016,S1-000,,
-2030661,-2816682,hydrographic,Shodu,Shodu,variant,11.134586,3.753415,S1-000,,
-2030661,-2789637,hydrographic,Chodou,Chodou,variant,11.134586,3.753415,S1-000,,
-2030661,-1927619,hydrographic,Ouora,Ouora,variant,11.134586,3.753415,S1-000,,
-2030661,-2821204,hydrographic,Ouara,Ouara,official,11.134586,3.753415,S1-000,,
-2030661,-2821203,hydrographic,Wara,Wara,official,11.134586,3.753415,S1-000,,
-2030661,-2789638,hydrographic,Chodu,Chodu,variant,11.134586,3.753415,S1-000,,
-2030661,-2813957,hydrographic,"River Ouora","River Ouora",variant,11.134586,3.753415,S1-000,,
-2024286,-2813799,settlement,Osubi,Osubi,short,7.134646,2.767346,BJ-PL,,
-2022826,-2812133,hydrographic,"Okpara Rivière","Okpara Riviere",variant,7.75,2.483333,S1-000,,
-2022826,-2812125,hydrographic,"River Okpara",RiverOkpara,official,7.75,2.483333,S1-000,,
-2022826,-2812126,hydrographic,Okpara,Okpara,official,7.75,2.483333,S1-000,,
-2023101,-2812475,hydrographic,Oli,Oli,official,9.77351983,4.63035202,S1-000,,
-2023101,-2813865,hydrographic,"Oti Riviere","Oti Riviere",variant,9.77351983,4.63035202,S1-000,,
-2023101,-2812474,hydrographic,"River Oli","River Oli",official,9.77351983,4.63035202,S1-000,,
-2023101,-2812948,hydrographic,Oly,Oly,variant,9.77351983,4.63035202,S1-000,,
-2020889,-2805435,hydrographic,Kworra,Kworra,variant,5.301564,6.416801,S1-000,,
-2020889,-2791009,hydrographic,"Dioliba Fleuve","Dioliba Fleuve",variant,5.301564,6.416801,S1-000,,
-2020889,-2801542,hydrographic,Joliba,Joliba,variant,5.301564,6.416801,S1-000,,
-2020889,-2791048,hydrographic,Djoliba,Djoliba,variant,5.301564,6.416801,S1-000,,
-2021082,19757283,hydrographic,"River Nanu","River Nanu",variant,9.907632,3.94035,S1-000,,
-2020889,-2809831,hydrographic,"River Niger","River Niger",official,5.301564,6.416801,S1-000,,
-2020889,-1924821,hydrographic,Dioliba,Dioliba,variant,5.301564,6.416801,S1-000,,
-2021082,-2810070,hydrographic,"River Nono","River Nono",variant,9.907632,3.94035,S1-000,,
-2020889,-2809834,hydrographic,Niger,Niger,official,5.301564,6.416801,S1-000,,
-2021082,19758118,hydrographic,"Nono River","Nono River",official,9.907632,3.94035,S1-000,,
-2020889,-2817817,hydrographic,Timbiko,Timbiko,variant,5.301564,6.416801,S1-000,,
-2012644,-2800154,hydrographic,"Essi River","Essi River",variant,10.05496,3.71986,S1-000,,
-2012644,19757405,hydrographic,"River Essi","River Essi",official,10.05496,3.71986,S1-000,,
-2012644,19768861,hydrographic,"River Esi","River Esi",variant,10.05496,3.71986,S1-000,,
-2010708,19385724,hydrographic,"River Ibu","River Ibu",variant,7.034933,2.907989,S1-000,,
-2010708,19385723,hydrographic,Idi,Idi,official,7.034933,2.907989,S1-000,,
-2010708,-2797793,hydrographic,"River Idi","River Idi",official,7.034933,2.907989,S1-000,,
-1998329,-2783083,hydrographic,Adjaran,Adjaran,official,6.460104,2.714092,S1-000,,
-1998329,-1923455,hydrographic,Ajarra,Ajarra,variant,6.460104,2.714092,S1-000,,
-1998329,-2782015,hydrographic,Adjira,Adjira,variant,6.460104,2.714092,S1-000,,
-1998329,-2783085,hydrographic,"Ajarra River","Ajarra River",variant,6.460104,2.714092,S1-000,,
-1998329,-2783082,hydrographic,Ajara,Ajara,variant,6.460104,2.714092,S1-000,,
-1998329,19380427,hydrographic,"River Ajara","River Ajara",official,6.460104,2.714092,S1-000,,
-1722157,-2412852,hydrographic,"Kounné Rivière","Kounne Riviere",variant,10.906213,0.839862,S1-000,,
-1722157,-2415555,hydrographic,Pins’héri,Pins'heri,variant,10.906213,0.839862,S1-000,,
-1722157,-2415424,hydrographic,Penjari,Penjari,variant,10.906213,0.839862,S1-000,,
-1722157,-2415410,hydrographic,Pendjari,Pendjari,official,10.906213,0.839862,S1-000,,
-1715605,-2407589,hypsographic,"Chaîne de l’Atacora","Chaine de l'Atacora",variant,10.75,1.5,S1-000,,
-1715605,-2407591,hypsographic,"Chaine de l’Atakopa","Chaine de l'Atakopa",variant,10.75,1.5,S1-000,,
-1715605,-2407597,hypsographic,Attacora,Attacora,variant,10.75,1.5,S1-000,,
-1715605,-2413233,hypsographic,"Chaîne de Latakora","Chaine de Latakora",variant,10.75,1.5,S1-000,,
-1715605,-2407592,hypsographic,"Chaîne de l’ Atakora",Chainedel'Atakora,official,10.75,1.5,S1-000,,
-1715605,-2407596,hypsographic,"Atakora Mountains","Atakora Mountains",variant,10.75,1.5,S1-000,,
-1715605,-2407590,hypsographic,"Monts de l’Atacora","Monts de l'Atacora",variant,10.75,1.5,S1-000,,
-1715605,-2407595,hypsographic,"Monts de l’Atakora","Monts de l'Atakora",variant,10.75,1.5,S1-000,,
-1715605,-2413232,hypsographic,"Chaine de Latacora","Chaine de Latacora",variant,10.75,1.5,S1-000,,
-1497436,-2138304,settlement,Kouandé,Kouande,official,10.34168,1.689238,BJ-AK,,
-1336909,-1929271,settlement,Wétchétché,Wetchetche,variant,9.372536,1.687692,BJ-000,,
-1336981,-1929356,settlement,Yanéri,Yaneri,official,9.980275,2.91325,BJ-000,,
-1336901,-1929260,settlement,Wéré,Were,official,10.788034,2.805683,BJ-000,,
-1336640,-1928953,hypsographic,"Mont Tobé","Mont Tobe",official,8.325581,1.840867,BJ-000,,
-1337054,-1929435,hydrographic,Youé,Youe,official,8.010533,2.591381,BJ-000,,
-1336552,-1928858,settlement,Tiatiakou,Tiatiakou,official,9.73812,1.434009,BJ-000,,
-1336755,-1929087,settlement,Toumé-Sakatou,Toume-Sakatou,official,10.067648,2.452893,BJ-000,,
-1337025,9175824,settlement,Yerakyao,Yerakyao,variant,9.540432,1.543741,BJ-DO,,
-1335906,-1928085,settlement,Saro,Saro,official,10.842477,2.649793,BJ-000,,
-1337007,-1929384,hydrographic,Yawéni,Yaweni,official,10.198028,0.675438,BJ-000,,
-1337035,-1929414,hypsographic,Yetamoute,Yetamoute,official,10.642825,1.293991,BJ-000,,
-1336410,-1928691,settlement,Tassénégourou,Tassenegourou,official,9.984097,2.858697,BJ-000,,
-1337011,-1929388,hydrographic,Yayo,Yayo,official,10.162351,2.73218,BJ-000,,
-1336166,-1928399,settlement,Sonhoré,Sonhore,official,9.551331,2.840317,BJ-000,,
-1336624,-1928935,hydrographic,Tiouri,Tiouri,official,9.496703,1.710419,BJ-000,,
-1335945,-1928137,settlement,Segbowe,Segbowe,variant,6.410075,1.960508,BJ-MO,,
-1335754,-1927901,hydrographic,"Bouche du Roi","Bouche du Roi",variant,6.295199,1.931158,BJ-000,,
-1336573,-1928880,settlement,Tiensitingou,Tiensitingou,official,10.448249,1.276885,BJ-000,,
-1335895,-1928073,spot,Saradogon,Saradogon,official,11.002213,2.250449,BJ-000,,
-1335972,-1928167,settlement,Sékoupouarou,Sekoupouarou,official,10.440618,2.444627,BJ-000,,
-1336724,-1924905,settlement,Dogbo-Tota,Dogbo-Tota,variant,6.799253,1.784132,BJ-000,,
-1335929,-1928113,settlement,Sazakounga,Sazakounga,official,9.528611,3.032214,BJ-000,,
-1336642,-1928955,settlement,Tobougué,Tobougue,official,10.431227,0.816812,BJ-000,,
-1336077,-1928297,settlement,Sinhoué-Hounto,Sinhoue-Hounto,official,7.05,2,BJ-000,,
-1336918,-1929286,settlement,Wodou,Wodou,official,10.230801,2.109848,BJ-000,,
-1336048,-1926522,hydrographic,Kountienga,Kountienga,variant,10.488897,0.686388,BJ-000,,
-1335813,-1927969,settlement,Sakouna-Neugbawaperoun,Sakouna-Neugbawaperoun,official,9.366667,1.85,BJ-000,,
-1336014,-1928218,settlement,Sérou,Serou,official,9.743633,3.168448,BJ-000,,
-1336512,-1928817,hypsographic,"Monts Tertiaga","Monts Tertiaga",official,10.35,0.966667,BJ-000,,
-1336403,-1928683,settlement,Tarbakou,Tarbakou,official,9.012191,2.548799,BJ-000,,
-1336983,-1929359,settlement,Yaobérégou,Yaoberegou,official,11.31993,2.709126,BJ-000,,
-1336292,-1928548,settlement,Tagoporga,Tagoporga,official,10.81524,1.009911,BJ-000,,
-1336353,-1928623,settlement,Tangbamora,Tangbamora,variant,9.827546,1.612274,BJ-000,,
-1337096,9190912,administrative_region,"Département du Zou","Departement du Zou",official,7.266667,2.133333,BJ-ZO,,
-1336098,-1928319,settlement,Siri,Siri,official,10.782255,1.683689,BJ-000,,
-1336468,-1928739,settlement,Tcheumi-Tchoumi,Tcheumi-Tchoumi,variant,10.085037,1.380115,BJ-000,,
-1335808,11114317,hydrographic,Sakabana,Sakabana,official,10.002827,3.396142,BJ-BO,,
-1335916,-1928096,hydrographic,Satona,Satona,official,11.080039,2.295468,BJ-000,,
-1336162,-1928395,settlement,"Sondo Yendé","Sondo Yende",official,11.421435,3.10582,BJ-AK,,
-1336554,-1928860,settlement,Tiatibouré,Tiatiboure,official,10.558244,1.469808,BJ-000,,
-1336691,-1929011,hydrographic,Tomhé,Tomhe,official,10.132216,1.633018,BJ-000,,
-1335875,9176028,settlement,Sonsoro,Sonsoro,official,11.086621,2.756416,BJ-AL,,
-1335947,-1928156,settlement,Sékkou,Sekkou,variant,6.640048,2.220089,BJ-000,,
-1336089,-1928190,settlement,Sénou,Senou,variant,9.21788,2.509631,BJ-000,,
-1336851,-1929200,settlement,Warandji,Warandji,variant,10.949318,3.459109,BJ-AL,,
-1336069,-1928289,settlement,Sinawongourou,Sinawongourou,official,11.122037,2.775704,BJ-000,,
-1336337,-1928602,settlement,Tandara,Tandara,official,11.487125,2.352462,BJ-000,,
-1336840,-1929188,settlement,Wanrarou,Wanrarou,official,10.171781,2.738809,BJ-000,,
-1337088,-1929476,settlement,Zogbodomé,Zogbodome,official,7.067249,2.11755,BJ-000,,
-1336089,-1928193,settlement,Senu,Senu,variant,9.21788,2.509631,BJ-000,,
-1335836,-1927181,hydrographic,Nassi,Nassi,variant,10.669299,3.214544,BJ-AL,,
-1336547,-1928853,settlement,Tiapéta,Tiapeta,official,10.214744,1.224496,BJ-000,,
-1336560,-1928866,settlement,Tiazaga,Tiazaga,official,10.796206,0.969044,BJ-000,,
-1337114,-1929507,settlement,Zounké,Zounke,official,6.616211,2.528365,BJ-000,,
-1337114,-1929506,settlement,Zoungué,Zoungue,variant,6.616211,2.528365,BJ-000,,
-1335826,-1927991,settlement,Samahou,Samahou,official,10.684514,0.912177,BJ-000,,
-1336258,-1928502,settlement,Souroukou,Souroukou,official,10.468231,1.589554,BJ-000,,
-1336289,-1928544,settlement,Tafenda,Tafenda,official,9.97534,1.587658,BJ-000,,
-1336006,-1928201,settlement,Séré,Sere,variant,9.966401,3.078809,BJ-000,,
-1336176,-1928409,hydrographic,Sonoukoka,Sonoukoka,official,10.848144,2.913526,BJ-000,,
-1336664,-1928982,settlement,Tokamé,Tokame,official,7.060774,1.835607,BJ-000,,
-1336239,-1928483,hydrographic,Soulé,Soule,official,10.543769,2.342486,BJ-000,,
-1336093,-1928314,settlement,Siona,Siona,official,9.573068,2.569002,BJ-000,,
-1336332,-1928596,settlement,Tan,Tan,official,7.274038,2.361554,BJ-000,,
-1336621,-1928932,settlement,Tiori,Tiori,official,10.35,1.45,BJ-000,,
-1336447,-1928740,settlement,Tchi,Tchi,official,6.883333,1.95,BJ-000,,
-1336759,11114321,settlement,Toumbou,Toumbou,official,10.859996,3.674202,BJ-AL,,
-1336005,-1928209,settlement,Sérètiouri,Seretiouri,official,9.743602,1.650855,BJ-000,,
-1335982,-1927134,settlement,Namboulé,Namboule,variant,10.874589,0.954664,BJ-000,,
-1336563,-1928870,hydrographic,Tiédaro,Tiedaro,official,9.477775,2.456441,BJ-000,,
-1336611,-1928922,spot,Tinra,Tinra,official,9.670004,3.224632,BJ-000,,
-1336206,-1925864,hydrographic,Kakigourou,Kakigourou,variant,11.876237,3.406222,BJ-AK,,
-1336178,-1928411,settlement,Sonoumo,Sonoumo,variant,9.771288,2.26708,BJ-BO,,
-1336250,-1928494,settlement,"Soun Soun","Soun Soun",official,11.216099,2.31925,BJ-000,,
-1336830,-1929178,hydrographic,Wana,Wana,variant,10.771445,3.233805,BJ-AL,,
-1337111,-1929502,settlement,Zoungahou,Zoungahou,official,7.538841,1.791924,BJ-000,,
-1335993,-1928192,hydrographic,Sentsrou,Sentsrou,official,9.783333,1.4,BJ-000,,
-1336228,-1928469,settlement,Soubo,Soubo,official,10.068165,2.826307,BJ-000,,
-1336961,-1929332,settlement,Yakamaro,Yakamaro,official,9.77984,1.553659,BJ-000,,
-1336805,-1929147,settlement,Vomé-Végamè,Vome-Vegame,official,7.233333,1.65,BJ-000,,
-1336735,-1929066,spot,Toui,Toui,official,8.668839,2.621481,BJ-000,,
-1337089,-1929477,hydrographic,Zokladientooui,Zokladientooui,official,7.316667,1.75,BJ-000,,
-1337017,-1929394,settlement,Yékahou,Yekahou,official,10.659918,0.981939,BJ-000,,
-1336829,-1929177,settlement,Wan,Wan,official,9.695844,2.931798,BJ-000,,
-1336392,-1928669,settlement,Tantiari,Tantiari,official,10.86399,0.900841,BJ-000,,
-1336072,-1928292,settlement,Sinékoga,Sinekoga,official,11.417025,2.766488,BJ-000,,
-1336532,-1924545,settlement,Choparacha,Choparacha,variant,9.371229,1.407317,BJ-000,,
-1336636,-1928948,settlement,Tiwabéra,Tiwabera,official,9.864558,1.780731,BJ-000,,
-1337081,-1929466,hydrographic,Zinba,Zinba,variant,10.570359,3.137583,BJ-AL,,
-1335901,-1928079,hydrographic,Sarédarou,Saredarou,official,11.003376,2.471357,BJ-000,,
-1335812,-1927968,settlement,Sakouna,Sakouna,official,9.358328,1.883806,BJ-000,,
-1335800,-1927954,settlement,Sakasson,Sakasson,official,10.014711,1.42202,BJ-000,,
-1335810,-1927964,settlement,Sakonou,Sakonou,official,10.765933,1.014731,BJ-000,,
-1336577,-1928884,settlement,Tigapérou,Tigaperou,official,9.8366,1.760931,BJ-000,,
-1336715,-1929042,hydrographic,Torin,Torin,official,10.662637,3.437422,BJ-AL,,
-1337080,-1929465,hydrographic,Zikokouara,Zikokouara,official,9.366667,1.966667,BJ-000,,
-1336995,-1929372,settlement,Yari-Katére,Yari-Katere,variant,10.388419,1.401167,BJ-000,,
-1337116,-1929510,settlement,Zounta,Zounta,variant,6.633333,2.566667,BJ-000,,
-1335823,-1927988,settlement,Sam,Sam,official,11.032868,2.732817,BJ-000,,
-1335856,-1928028,settlement,Saninba,Saninba,variant,10.958705,3.748686,BJ-AL,,
-1335865,-1928038,hydrographic,Sanou,Sanou,official,10.174282,2.771278,BJ-000,,
-1336727,-1929055,hydrographic,Touana,Touana,official,10.639686,3.01085,BJ-000,,
-1336815,-1929158,hydrographic,Wafina,Wafina,variant,10.655791,3.405294,BJ-AL,,
-1335738,-1927879,settlement,Pouéla,Pouela,variant,10.814081,3.433268,BJ-AL,,
-1336952,-1929322,hydrographic,Yafékoga,Yafekoga,official,11.284125,2.667211,BJ-000,,
-1335982,-1927135,settlement,Nambouli,Nambouli,variant,10.874589,0.954664,BJ-000,,
-1336518,-1928824,settlement,Tia,Tia,official,11.352161,3.061856,BJ-AK,,
-1336087,-1928145,settlement,Ségré,Segre,variant,9.525063,1.731622,BJ-000,,
-1336108,-1928330,settlement,Soa,Soa,official,10.383333,1.633333,BJ-000,,
-1336859,-1927512,settlement,Ouarla,Ouarla,variant,9.075583,2.729075,BJ-000,,
-1336803,-1929145,settlement,Vodomé,Vodome,official,6.426903,1.784987,BJ-000,,
-1336522,-1928828,settlement,Tiaéta,Tiaeta,official,10.514207,1.138178,BJ-000,,
-1335742,-1927884,settlement,Poungafaga,Poungafaga,official,10.652511,1.381415,BJ-000,,
-1336238,-1928482,settlement,Soukouhon,Soukouhon,official,7.784651,1.943546,BJ-000,,
-1337003,-1929380,settlement,Yassirisson,Yassirisson,official,11.315839,2.647419,BJ-000,,
-1335914,-1928094,settlement,Satoha,Satoha,official,11.084728,2.287259,BJ-000,,
-1336899,-1929258,settlement,Wéragando,Weragando,official,9.883661,2.986499,BJ-000,,
-1336929,-1929298,settlement,Woniouroukou,Woniouroukou,official,11.063309,2.779613,BJ-000,,
-1336870,-1929220,hydrographic,Wassougou,Wassougou,official,10.871704,2.961179,BJ-000,,
-1336871,-1929222,hydrographic,Watébo,Watebo,official,9.224688,2.248139,BJ-000,,
-1335807,-1927961,settlement,Sako,Sako,official,9.858906,3.239823,BJ-000,,
-1336114,-1928328,settlement,So,So,variant,6.492447,2.401926,BJ-000,,
-1336259,-1928503,settlement,Souroukouworou,Souroukouworou,official,9.749711,2.509643,BJ-000,,
-1336637,-1928949,hydrographic,Toana,Toana,official,10.813274,3.083527,BJ-AL,,
-1336276,-1928531,settlement,Suroko,Suroko,official,11.335502,2.378877,BJ-000,,
-1336970,-1929342,settlement,Yakpabé,Yakpabe,official,9.089338,2.585262,BJ-000,,
-1335761,-1927910,settlement,Sabalouagba,Sabalouagba,official,8.020858,2.183829,BJ-000,,
-1336180,-1928413,settlement,Sonparérou,Sonparerou,official,10.186071,2.065221,BJ-000,,
-1336845,-1929194,hydrographic,Wara,Wara,official,10.166667,3.383333,BJ-000,,
-1336474,-1927693,settlement,Pandourou,Pandourou,variant,9.996792,1.565479,BJ-000,,
-1336838,-1929186,hydrographic,Wankroa,Wankroa,official,9.766667,1.533333,BJ-000,,
-1337005,-1929382,settlement,Yatanrha,Yatanrha,official,9.624342,1.75076,BJ-000,,
-1336780,-1929069,settlement,Touiklin,Touiklin,variant,6.889352,1.837223,BJ-000,,
-1336074,-1928281,settlement,Sinandé,Sinande,variant,10.34963,2.379064,BJ-BO,,
-1336356,-1928628,hypsographic,Tangouota,Tangouota,official,10.30803,1.193284,BJ-000,,
-1336460,-1928754,settlement,Tchokohoué,Tchokohoue,official,7.033333,1.816667,BJ-000,,
-1337101,-1929490,settlement,Zougou,Zougou,variant,10.733315,2.972824,BJ-AL,,
-1336373,-1928646,hydrographic,Tanmbola,Tanmbola,official,10.768015,1.575187,BJ-000,,
-1336896,-1929254,park,"Forêt Classée de Wénou-Bénou","Foret Classee de Wenou-Benou",official,10.30672,2.604129,BJ-000,,
-1336926,-1929295,hydrographic,Woloko,Woloko,official,8.26114,2.58281,BJ-000,,
-1335994,-1928194,settlement,Séougégon,Seougegon,official,7.396993,1.804427,BJ-000,,
-1336532,-1928838,settlement,Tiakpartia,Tiakpartia,official,9.371229,1.407317,BJ-000,,
-1336032,-1928242,hydrographic,Sianoukoka,Sianoukoka,official,10.639531,1.864123,BJ-000,,
-1336444,-1928734,hydrographic,Tchénélaré,Tchenelare,official,8.2,1.816667,BJ-000,,
-1336585,-1928893,hydrographic,Tikouné,Tikoune,official,9.301817,3.024574,BJ-000,,
-1336130,-1928359,settlement,Sohové,Sohove,official,7.333333,2.316667,BJ-000,,
-1336791,-1929127,settlement,Tyilirha,Tyilirha,official,9.7,1.65,BJ-000,,
-1335925,-1928108,settlement,Sayakrou,Sayakrou,official,10.325155,1.976108,BJ-000,,
-1336834,-1929182,hydrographic,Wandoueta,Wandoueta,official,10.445333,1.109531,BJ-000,,
-1336941,-1929311,settlement,Wotourou,Wotourou,official,9.201492,2.533733,BJ-000,,
-1336505,-1928810,hydrographic,Térékbé,Terekbe,official,9.430566,2.396801,BJ-000,,
-1336753,-1929085,settlement,Toumapénou,Toumapenou,official,11.162896,2.852686,BJ-000,,
-1336087,-1928308,settlement,Sinngreu,Sinngreu,official,9.525063,1.731622,BJ-000,,
-1336252,-1928496,settlement,Souré,Soure,official,9.886354,2.826818,BJ-000,,
-1335869,-1928042,hydrographic,Sanro,Sanro,official,9.163329,2.271509,BJ-000,,
-1336470,-1928764,settlement,Tébo,Tebo,official,9.983333,2.833333,BJ-000,,
-1336652,-1928950,hydrographic,"Lac Tobadji","Lac Tobadji",variant,6.743364,1.702528,BJ-000,,
-1336459,-1928753,settlement,Tchokobo,Tchokobo,official,8.379182,1.841097,BJ-000,,
-1336251,-1928057,settlement,Santu,Santu,variant,9.720707,2.842539,BJ-000,,
-1335913,-1928093,hydrographic,Sassourou,Sassourou,official,9.578347,2.279116,BJ-000,,
-1337023,-1929400,settlement,Yénékassé,Yenekasse,official,10.39085,3.217596,BJ-BO,,
-1335788,-1927937,settlement,Sahouane-Gléta,Sahouane-Gleta,official,7.066667,1.783333,BJ-000,,
-1336175,-1928408,hydrographic,Sonoukarou,Sonoukarou,official,10.63417,2.876454,BJ-000,,
-1335945,-1928136,settlement,Segbourne,Segbourne,variant,6.410075,1.960508,BJ-MO,,
-1336836,-1929184,settlement,Wangouhoun,Wangouhoun,official,10.911519,0.984093,BJ-000,,
-1335963,-1924091,settlement,Béko,Beko,variant,6.603497,2.445223,BJ-000,,
-1336163,-1928396,settlement,Songo,Songo,official,9.581743,1.438613,BJ-000,,
-1336131,-1928360,hydrographic,Soïnguina,Soinguina,official,10.802153,3.085255,BJ-AL,,
-1336604,-1928915,settlement,Tinganson,Tinganson,official,11.160829,2.563567,BJ-000,,
-1337101,9176013,settlement,Zougou-Pantrossi,Zougou-Pantrossi,official,10.733315,2.972824,BJ-AL,,
-1336156,-1928389,settlement,Sonaholou,Sonaholou,official,9.683387,1.398467,BJ-000,,
-1336608,-1928919,hydrographic,Tinhoulé,Tinhoule,official,10.434632,2.545169,BJ-000,,
-1336988,-1929364,hydrographic,Yapouno,Yapouno,official,10.516496,3.367216,BJ-BO,,
-1335897,-1928075,settlement,Sarakparou,Sarakparou,official,9.963781,3.030651,BJ-000,,
-1336347,-1928617,settlement,Tanféré,Tanfere,official,10.603387,1.330467,BJ-000,,
-1336734,-1929121,settlement,Tui,Tui,variant,8.682511,2.595697,BJ-000,,
-1336908,-1929272,settlement,Wétènga,Wetenga,official,9.766667,1.616667,BJ-000,,
-1336800,-1929142,settlement,Vivi,Vivi,official,7.635709,1.695153,BJ-000,,
-1336953,-1929323,settlement,Yagarafouguérou,Yagarafouguerou,official,11.421452,2.547528,BJ-000,,
-1336916,-1929284,hydrographic,Wo,Wo,official,10.200483,0.924638,BJ-000,,
-1336400,-1928679,settlement,Tapoundoukounta,Tapoundoukounta,official,10.038533,1.457763,BJ-000,,
-1335958,-1928151,settlement,Sékalé,Sekale,official,11.356433,2.98064,BJ-000,,
-1336483,-1928782,settlement,Télé,Tele,official,9.452209,2.635956,BJ-000,,
-1336733,-1929064,settlement,Tougo,Tougo,variant,10.520817,1.036414,BJ-000,,
-1337053,-1929434,settlement,Youé,Youe,official,8.03204,2.569176,BJ-000,,
-1335900,-1928078,settlement,Sarawalou,Sarawalou,official,9.259909,2.600792,BJ-000,,
-1336671,-1928990,hydrographic,Tokokoné,Tokokone,official,10.322508,2.746826,BJ-000,,
-1336323,-1928585,settlement,Tamaru,Tamaru,variant,9.735871,2.690083,BJ-BO,,
-1336796,-1929138,settlement,Véla,Vela,variant,10.890726,3.705715,BJ-AL,,
-1335801,-1927978,settlement,Sakwan,Sakwan,variant,11.842804,3.234412,BJ-AK,,
-1336464,-1928758,settlement,Tchouè,Tchoue,official,7,2.383333,BJ-000,,
-1336461,-1928755,settlement,Tchokoladjou,Tchokoladjou,official,7.864557,1.727307,BJ-000,,
-1336699,-1929021,hydrographic,Toné,Tone,official,9.998122,3.171473,BJ-BO,,
-1336740,-1929072,settlement,Toukamé,Toukame,official,6.783333,1.766667,BJ-000,,
-1336984,-1929360,settlement,Yaodarou,Yaodarou,official,11.046746,2.725274,BJ-000,,
-1336202,-1928439,hydrographic,Sosogté,Sosogte,official,7.3,1.783333,BJ-000,,
-1336891,11114331,settlement,Ouénagourou,Ouenagourou,official,10.34389,3.192442,BJ-BO,,
-1336752,-1929084,hypsographic,"Touloua Toundi","Touloua Toundi",official,11.794328,3.159487,BJ-AK,,
-1337048,-1929429,hypsographic,Yonmbaga,Yonmbaga,official,10.202921,1.158022,BJ-000,,
-1336199,-1928435,settlement,Sorigando,Sorigando,official,9.664183,2.916476,BJ-000,,
-1336915,-1929283,hydrographic,Wissiyérou,Wissiyerou,official,10.505007,2.945686,BJ-000,,
-1335809,-1927963,settlement,Sakoéhoum,Sakoehoum,official,10.936851,1.062436,BJ-000,,
-1336174,-1928407,settlement,Sonou,Sonou,official,7.206094,2.002704,BJ-000,,
-1335759,-1927908,settlement,Saâssissi,Saassissi,official,11.480639,2.451172,BJ-000,,
-1336062,-1928282,settlement,Sinaou,Sinaou,official,9.169833,2.246906,BJ-000,,
-1336982,-1929358,settlement,Yanpouiga,Yanpouiga,official,10.816433,0.972735,BJ-000,,
-1336567,-1928874,settlement,Tièkoumoundeu,Tiekoumoundeu,official,9.583048,1.509507,BJ-000,,
-1336540,-1928846,settlement,Tiankongou,Tiankongou,official,10.847154,0.913065,BJ-000,,
-1336795,-1929135,settlement,Vantè,Vante,official,6.616667,2.583333,BJ-000,,
-1335774,-1927923,settlement,Sadatchi,Sadatchi,official,7.033333,1.65,BJ-000,,
-1336318,-1928579,settlement,Tamaga,Tamaga,official,10.968457,0.990485,BJ-000,,
-1336542,-1928848,settlement,Tiankpèkou,Tiankpekou,official,9.60999,1.699953,BJ-000,,
-1336132,-1928361,settlement,Soïssaré,Soissare,official,10.665813,3.376042,BJ-AL,,
-1336488,-1928788,settlement,Téméré,Temere,official,11.168165,2.197934,BJ-000,,
-1336375,-1928648,hydrographic,Tanmbouni,Tanmbouni,official,10.748277,1.035593,BJ-000,,
-1337004,-1929381,hydrographic,Yatama,Yatama,official,11.05,1.116667,BJ-000,,
-1336974,-1929349,settlement,Yalrou,Yalrou,variant,9.817269,1.435171,BJ-000,,
-1336922,-1929291,hydrographic,Woli,Woli,official,10.039158,3.218443,BJ-000,,
-1336343,-1928611,settlement,Tanéka-Béri,Taneka-Beri,official,9.850689,1.501045,BJ-000,,
-1336246,-1928490,settlement,Soumou,Soumou,official,9.100049,2.4795,BJ-000,,
-1336465,-1924885,settlement,Djoué,Djoue,variant,9.616667,1.466667,BJ-000,,
-1336932,-1929301,settlement,Wopa,Wopa,official,11.025191,2.855476,BJ-000,,
-1336517,-1928823,hydrographic,Téwinga,Tewinga,official,9.35,1.716667,BJ-000,,
-1336526,-1928832,settlement,Tiahounkossi,Tiahounkossi,official,10.73969,0.971821,BJ-000,,
-1336673,-1928992,settlement,Tokoro,Tokoro,official,10.271918,1.731241,BJ-000,,
-1336990,-1929366,hydrographic,Yarékou,Yarekou,official,10.07192,2.979505,BJ-000,,
-1336269,-1928523,hydrographic,Suédarou,Suedarou,official,10.607204,2.504377,BJ-000,,
-1336633,-1928941,settlement,Tisofonti,Tisofonti,variant,10.292232,1.269739,BJ-000,,
-1337084,-1929469,settlement,Zinvié,Zinvie,official,6.617383,2.357763,BJ-000,,
-1335842,-1928011,settlement,Sandala,Sandala,official,10.583333,0.95,BJ-000,,
-1336666,-1928984,settlement,Tokanmè,Tokanme,official,7.069978,1.8174,BJ-000,,
-1335887,-1928063,settlement,Saoré,Saore,official,10.201911,2.605889,BJ-000,,
-1336075,-1928295,settlement,Singkiéni,Singkieni,official,10.618539,0.905608,BJ-000,,
-1336096,-1928199,settlement,Sérarou,Serarou,official,9.58901,2.642931,BJ-BO,,
-1337043,-1929423,settlement,Yimmpisséri,Yimmpisseri,official,10.492791,0.949943,BJ-000,,
-1336201,-1928441,settlement,Sossagbeto,Sossagbeto,variant,6.483333,2.1,BJ-000,,
-1336203,-1928440,hydrographic,Sossa,Sossa,official,10.815327,3.35158,BJ-AL,,
-1337100,-1929491,settlement,Zougoudo,Zougoudo,variant,6.383333,2.233333,BJ-000,,
-1336094,-1928315,settlement,Siourou,Siourou,official,9.222818,2.350546,BJ-000,,
-1336469,-1928763,settlement,Tchoumi-Tchoumi,Tchoumi-Tchoumi,official,10.069079,1.403533,BJ-000,,
-1336425,-1928706,settlement,Tatouta,Tatouta,official,10.404789,1.014144,BJ-000,,
-1335743,-1927886,settlement,Poupouré,Poupoure,official,10.31939,1.635662,BJ-000,,
-1336440,-1924530,settlement,Chachu,Chachu,variant,9.122733,2.560989,BJ-000,,
-1336619,-1928930,hypsographic,Tiokoti,Tiokoti,official,10.465397,1.039595,BJ-000,,
-1336759,-1929092,settlement,Tounbou,Tounbou,variant,10.859996,3.674202,BJ-AL,,
-1336379,-1928652,settlement,Tannogou,Tannogou,variant,10.814467,1.431005,BJ-AK,,
-1336290,-1928545,hydrographic,Tafiérou,Tafierou,official,9.378305,2.419496,BJ-000,,
-1336381,-1928656,hypsographic,"Tanon Tani","Tanon Tani",official,10.177303,1.165003,BJ-000,,
-1336913,-1929268,settlement,Wesseme,Wesseme,variant,10.692716,2.832196,BJ-000,,
-1336181,-1928414,hydrographic,Sonpouana,Sonpouana,variant,10.426473,3.483061,BJ-BO,,
-1337116,-1929511,settlement,Zounto,Zounto,official,6.633333,2.566667,BJ-000,,
-1335838,-1928005,settlement,Sanagou,Sanagou,official,10.389979,0.782829,BJ-000,,
-1336465,-1928759,settlement,Tchoué,Tchoue,official,9.616667,1.466667,BJ-000,,
-1336660,-1928978,settlement,Tohoueta,Tohoueta,official,7.144089,1.934754,BJ-000,,
-1336472,-1928766,hypsographic,"Mont Tébou","Mont Tebou",official,8.945669,1.951492,BJ-000,,
-1336806,-1929148,settlement,Vossa,Vossa,official,8.502184,2.346166,BJ-000,,
-1336995,-1929371,settlement,Yari-Katé,Yari-Kate,official,10.388419,1.401167,BJ-000,,
-1336974,-1929348,settlement,Yalrhou,Yalrhou,official,9.817269,1.435171,BJ-000,,
-1335862,-1928034,settlement,Sankourou,Sankourou,official,9.855923,1.778622,BJ-000,,
-1336096,-1928188,settlement,Sénarou,Senarou,variant,9.58901,2.642931,BJ-BO,,
-1335738,11114315,settlement,Pouéyla,Poueyla,official,10.814081,3.433268,BJ-AL,,
-1335980,-1928175,settlement,Sèmè,Seme,official,6.366667,2.616667,BJ-000,,
-1335797,-1927951,settlement,Sakarou,Sakarou,official,9.52031,2.517589,BJ-000,,
-1336543,-1928849,settlement,Tiannokburoutenngou,Tiannokburoutenngou,official,10.374547,1.403731,BJ-000,,
-1336936,-1929306,settlement,Worou,Worou,official,10.426023,1.954484,BJ-000,,
-1336757,-1929090,settlement,Touna,Touna,official,11.337322,3.104182,BJ-AK,,
-1335922,-1928103,settlement,Savi,Savi,official,6.416667,2.1,BJ-000,,
-1335799,-1927953,park,"Forêt Classée de Sakarou","Foret Classee de Sakarou",official,9.880966,2.764843,BJ-000,,
-1336043,-1928253,settlement,Siki,Siki,official,10.184832,2.383436,BJ-000,,
-1337075,-1929460,settlement,Zé,Ze,official,6.783333,2.3,BJ-000,,
-1336352,-1928622,hydrographic,Tangaye,Tangaye,official,9.319955,1.947413,BJ-000,,
-1336529,-1928835,settlement,Tiakénarè,Tiakenare,official,9.703999,1.472519,BJ-000,,
-1336496,-1924677,settlement,Daro-Tempobré,Daro-Tempobre,variant,10.564864,1.55645,BJ-000,,
-1336359,-1928632,settlement,Tanguiéta,Tanguieta,official,10.621178,1.266514,BJ-AK,,
-1336935,-1929304,settlement,Worora,Worora,official,9.353864,2.546787,BJ-000,,
-1336881,-1929235,park,"Parc National du W du Niger","Parc National du W du Niger",official,12.075955,2.523499,S1-000,,
-1336420,-1928701,hydrographic,Tatabou,Tatabou,official,11.199437,2.944583,BJ-000,,
-1335957,-1928150,settlement,Sékai,Sekai,official,10.461736,3.721594,BJ-BO,,
-1336201,-1928437,settlement,Sosabogto,Sosabogto,official,6.483333,2.1,BJ-000,,
-1335965,-1928159,settlement,Sékobounkpérou,Sekobounkperou,official,9.672706,3.261938,BJ-000,,
-1337069,-1929453,hydrographic,Zana,Zana,official,10.517236,3.545879,BJ-000,,
-1336080,-1928300,settlement,Sinhoué-Zoumé,Sinhoue-Zoume,official,7.016667,1.983333,BJ-000,,
-1336657,-1928975,hydrographic,"Lagune Toho","Lagune Toho",official,6.407349,2.151218,BJ-000,,
-1335925,-1928107,settlement,Sayacrou,Sayacrou,variant,10.325155,1.976108,BJ-000,,
-1336137,-1928366,hydrographic,Soki,Soki,official,9.192178,3.075176,BJ-000,,
-1336421,-1928702,settlement,Tatanta,Tatanta,official,10.465235,1.428153,BJ-000,,
-1335736,-1927877,settlement,Pototoumara,Pototoumara,official,11.407319,2.380196,BJ-000,,
-1336875,-1929228,settlement,Wavalrha,Wavalrha,official,9.640373,1.737085,BJ-000,,
-1335767,-1927916,hydrographic,Sabinbouya,Sabinbouya,official,9.379152,2.419294,BJ-000,,
-1335825,-1927990,hydrographic,Samadjarou,Samadjarou,official,9.754795,1.758712,BJ-000,,
-1336198,-1928434,settlement,"Soria Gando","Soria Gando",official,9.781634,3.143797,BJ-000,,
-1336192,-1928428,hydrographic,Sora,Sora,official,10.665743,3.344068,BJ-AL,,
-1336186,-1928421,settlement,Sonworé,Sonwore,official,9.990906,3.291363,BJ-000,,
-1335844,-1928013,settlement,Sandéou,Sandeou,official,8.113288,2.712206,BJ-000,,
-1336195,-1928427,settlement,Sor,Sor,variant,10.720152,2.77878,BJ-AL,,
-1336743,-1929075,settlement,Touko,Touko,official,11.069508,2.831783,BJ-000,,
-1336357,-1928629,settlement,Tangsar,Tangsar,official,9.693561,1.519803,BJ-000,,
-1336274,-1928529,settlement,Suiya,Suiya,official,9.858146,3.092905,BJ-000,,
-1336969,-1929340,settlement,Yakouenntchié,Yakouenntchie,official,10.299011,1.032177,BJ-000,,
-1335930,-1928114,settlement,Sazué,Sazue,official,6.44049,1.800171,BJ-000,,
-1337007,-1929357,hydrographic,Yanone,Yanone,variant,10.198028,0.675438,BJ-000,,
-1336302,-1928569,settlement,Takouenta,Takouenta,variant,10.062937,1.389937,BJ-000,,
-1336307,-1928567,hydrographic,Takou,Takou,official,10.416391,2.756098,BJ-000,,
-1336190,-1928425,settlement,Sopa-Tangagon,Sopa-Tangagon,official,7.416667,1.966667,BJ-000,,
-1336242,-1928486,settlement,Soumarou,Soumarou,official,9.890637,3.107058,BJ-000,,
-1336673,-1928960,settlement,Tocro,Tocro,variant,10.271918,1.731241,BJ-000,,
-1336907,-1929270,hydrographic,Wéssi,Wessi,official,9.31687,2.350571,BJ-000,,
-1336200,-1928436,hydrographic,Sorou,Sorou,official,10.443317,3.316431,BJ-BO,,
-1336153,-1928385,hydrographic,Sona,Sona,official,10.571705,3.807682,BJ-BO,,
-1337025,9175823,settlement,Yarakéou,Yarakeou,official,9.540432,1.543741,BJ-DO,,
-1336386,-1928663,settlement,Tanta,Tanta,official,7.082172,1.988893,BJ-000,,
-1336344,-1928613,settlement,Tanéka-Koro,Taneka-Koro,variant,9.858564,1.492824,BJ-000,,
-1336011,-1928215,settlement,"Serki Fari","Serki Fari",official,11.680811,3.197679,BJ-AK,,
-1336182,-1928415,settlement,Sonri,Sonri,official,9.880979,3.181838,BJ-000,,
-1336971,-1929344,settlement,Yakriguru,Yakriguru,variant,10.719612,2.0292,BJ-000,,
-1337100,-1929489,settlement,Zougodo,Zougodo,official,6.383333,2.233333,BJ-000,,
-1337015,-1929392,settlement,Yéhouémé,Yehoueme,official,6.966667,1.716667,BJ-000,,
-1336607,-1928918,settlement,Tinhoulé,Tinhoule,official,10.426772,2.57266,BJ-000,,
-1336140,-1928347,settlement,Socotindji,Socotindji,variant,10.850253,3.429687,BJ-AL,,
-1336613,-1928924,settlement,Tintémou,Tintemou,official,11.240514,2.342664,BJ-000,,
-1336559,-1928865,settlement,Tiazaga,Tiazaga,official,10.791747,0.938019,BJ-000,,
-1336189,-1928424,settlement,Sopa,Sopa,official,7.416701,1.963186,BJ-000,,
-1336544,-1928850,settlement,Tiantéfa,Tiantefa,official,10.624345,1.323936,BJ-000,,
-1336572,-1928879,settlement,Tiemrhou,Tiemrhou,official,9.543189,1.732509,BJ-000,,
-1336581,-1928889,settlement,Tikou,Tikou,official,10.405365,1.64445,BJ-000,,
-1336426,-1928673,settlement,Taouampouta,Taouampouta,variant,10.15622,1.488307,BJ-000,,
-1335961,-1928154,settlement,Séké,Seke,official,10.121575,2.124623,BJ-000,,
-1336749,-1929081,hydrographic,Toula,Toula,official,9.991677,2.854162,BJ-000,,
-1336754,-1929086,settlement,Toumé,Toume,official,10.087724,2.460778,BJ-000,,
-1336299,-1928559,settlement,Takissari,Takissari,official,10.409379,1.47248,BJ-000,,
-1336095,-1928316,settlement,Sirapara,Sirapara,official,9.805705,2.896916,BJ-000,,
-1336887,-1927360,hydrographic,Nouem,Nouem,variant,10.083333,1.366667,BJ-000,,
-1336033,-1928243,hydrographic,Siantabidiokou,Siantabidiokou,official,10.428318,1.211371,BJ-000,,
-1336355,-1928626,settlement,Tangfoungou,Tangfoungou,official,9.582137,1.800618,BJ-000,,
-1336748,-1929080,settlement,Toukpéta,Toukpeta,official,7.5,1.75,BJ-000,,
-1336605,-1928916,settlement,Tingourou,Tingourou,official,10.768062,2.206303,BJ-000,,
-1336453,-1928747,settlement,Tchi-Kada,Tchi-Kada,official,6.812708,2.055165,BJ-000,,
-1335796,-1927950,settlement,Sakaro,Sakaro,official,10.112276,2.374654,BJ-000,,
-1336152,-1928384,settlement,Sona,Sona,official,9.944616,3.287571,BJ-000,,
-1335790,-1927942,settlement,"Sahoué Houéyogbé","Sahoue Houeyogbe",official,6.561406,1.855515,BJ-000,,
-1336779,-1929112,settlement,Tovédogho,Tovedogho,official,7.876207,1.880735,BJ-000,,
-1337074,-1929459,spot,Zarhou,Zarhou,official,9.89424,1.435852,BJ-000,,
-1336414,-1928695,hydrographic,Tassiné,Tassine,official,10.916578,3.204941,BJ-000,,
-1336705,-1925678,settlement,Holli,Holli,variant,10.571604,0.98718,BJ-AK,,
-1336824,-1929170,settlement,Wakparou,Wakparou,official,9.732676,2.700053,BJ-000,,
-1336624,-1926130,hydrographic,Kiouri,Kiouri,variant,9.496703,1.710419,BJ-000,,
-1336457,-1928751,settlement,Tchito,Tchito,official,6.928506,2.062551,BJ-000,,
-1336647,-1928962,settlement,Todji,Todji,official,6.483333,2.533333,BJ-000,,
-1336809,-1929151,hydrographic,"Wabi Wakou","Wabi Wakou",official,9.330769,2.479191,BJ-000,,
-1335943,-1928131,settlement,Segbékérou,Segbekerou,official,10.214371,1.711528,BJ-000,,
-1336370,-1928643,settlement,Tanmbaragou,Tanmbaragou,official,10.609443,1.389915,BJ-000,,
-1336251,-1928419,settlement,Sontu,Sontu,variant,9.720707,2.842539,BJ-000,,
-1336073,-1928293,settlement,Sinékparou,Sinekparou,official,11.162792,2.882713,BJ-000,,
-1336717,-1929044,settlement,Torozougou,Torozougou,official,11.766925,3.191779,BJ-AK,,
-1336622,-1928933,hydrographic,Tiou,Tiou,official,10.817192,1.242193,BJ-000,,
-1336140,-1928369,settlement,Sokotendji,Sokotendji,variant,10.850253,3.429687,BJ-AL,,
-1336569,-1928783,settlement,Tele,Tele,variant,10.730681,1.208599,BJ-000,,
-1335781,-1927930,settlement,Sahé,Sahe,official,7.05,1.916667,BJ-000,,
-1336234,-1928477,hydrographic,Souédra,Souedra,official,10.036351,2.359896,BJ-000,,
-1336342,-1928610,hydrographic,Tanefaga,Tanefaga,official,10.653157,1.505088,BJ-000,,
-1335899,-1928077,settlement,Saramankoulou,Saramankoulou,official,11.088137,2.313981,BJ-000,,
-1335960,-1928153,settlement,Sékaré,Sekare,official,11.227288,2.861501,BJ-000,,
-1336972,-1929346,hydrographic,Yala,Yala,official,10.00679,1.856434,BJ-000,,
-1337103,-1929493,settlement,Zouingonmè,Zouingonme,official,6.933333,1.883333,BJ-000,,
-1335829,-1928008,settlement,Sanboga,Sanboga,variant,9.188121,3.059636,BJ-000,,
-1336900,-1929259,settlement,Wéragando,Weragando,official,9.890396,3.018448,BJ-000,,
-1336747,-1929079,settlement,Toukountouna,Toukountouna,official,10.502791,1.374374,BJ-AK,,
-1337021,-1929398,settlement,Yenbako,Yenbako,variant,10.397368,3.295945,BJ-BO,,
-1336688,-1929008,settlement,Toli,Toli,official,6.433333,2.583333,BJ-000,,
-1336068,-1928288,settlement,Sinawarou,Sinawarou,official,10.23275,1.988842,BJ-000,,
-1336919,-1927493,settlement,Ouagui,Ouagui,variant,8.127825,2.561896,BJ-000,,
-1336693,-1929013,hydrographic,Tona,Tona,official,10.905151,2.994979,BJ-AL,,
-1335740,-1927882,settlement,Poulagoyékire,Poulagoyekire,official,10.163461,3.177501,BJ-BO,,
-1336343,-1928229,settlement,Sessérha,Sesserha,variant,9.850689,1.501045,BJ-000,,
-1336891,-1929249,settlement,Wenagourou,Wenagourou,variant,10.34389,3.192442,BJ-BO,,
-1336270,-1928479,hydrographic,Soui,Soui,variant,9.158091,2.770906,BJ-000,,
-1336409,-1928689,settlement,Tassé,Tasse,official,10.297779,2.871626,BJ-000,,
-1336958,-1929328,settlement,Yahoungou,Yahoungou,official,10.530236,1.182657,BJ-000,,
-1336889,-1929247,hydrographic,Wéna,Wena,variant,10.454835,3.099998,BJ-BO,,
-1336986,-1929362,hydrographic,Yaourou,Yaourou,official,10.637323,2.010704,BJ-000,,
-1336396,-1928675,hydrographic,Taoukiefara,Taoukiefara,official,10.527204,1.603109,BJ-000,,
-1336026,-1928233,settlement,Sétimsi,Setimsi,variant,9.55,1.866667,BJ-000,,
-1337008,-1929385,settlement,Yawi,Yawi,official,8.48648,2.611905,BJ-000,,
-1336383,-1928659,settlement,Tanpasséga,Tanpassega,official,10.970946,0.931982,BJ-000,,
-1336157,-1928390,settlement,Sonboa,Sonboa,official,10.532248,2.609125,BJ-000,,
-1336206,-1925863,hydrographic,Kakigoru,Kakigoru,variant,11.876237,3.406222,BJ-AK,,
-1336592,-1928902,hydrographic,Tindakoga,Tindakoga,official,11.255545,2.657742,BJ-000,,
-1335847,-1928016,settlement,Sanégado,Sanegado,official,10.271552,3.291459,BJ-BO,,
-1336950,-1929320,settlement,Yabossissinou,Yabossissinou,official,11.343378,2.60038,BJ-000,,
-1336798,-1929140,hydrographic,Vergou,Vergou,official,9.716667,1.816667,BJ-000,,
-1336860,-1927511,settlement,Ouari-Maro,Ouari-Maro,variant,9.164791,2.152562,BJ-000,,
-1336315,-1928576,settlement,Talé,Tale,official,10.840611,1.092689,BJ-000,,
-1336638,-1928951,settlement,Tobaga,Tobaga,official,11.362262,2.238118,BJ-000,,
-1336945,-1929315,hydrographic,Yabana,Yabana,official,10.140956,3.472397,BJ-BO,,
-1335998,-1928202,hydrographic,Sérébabanou,Serebabanou,official,10.826112,2.573022,BJ-000,,
-1336056,-1928271,settlement,Sinagourou,Sinagourou,official,9.009325,2.594388,BJ-000,,
-1336509,-1928814,hydrographic,Téro,Tero,official,9.569966,1.714471,BJ-000,,
-1336826,-1929173,settlement,Wami,Wami,variant,10.823341,3.625016,BJ-AL,,
-1336129,-1928358,settlement,Sohouhousahoué,Sohouhousahoue,official,6.865995,1.670883,BJ-000,,
-1336734,-1929065,settlement,Toui,Toui,official,8.682511,2.595697,BJ-000,,
-1336992,-1929368,settlement,Yarhoudorh,Yarhoudorh,official,9.995913,1.611028,BJ-000,,
-1336675,-1928994,hydrographic,Tokossou,Tokossou,official,9.433333,2.983333,BJ-000,,
-1336549,-1928855,hydrographic,Tiari,Tiari,official,10.808088,0.925921,BJ-000,,
-1336405,-1928685,settlement,Tarétarébouini,Taretarebouini,official,10.372959,1.208295,BJ-000,,
-1336628,-1928939,settlement,Tiranga,Tiranga,official,9.606737,1.760191,BJ-000,,
-1336016,-1928220,park,"Forêt Classée de Sérou","Foret Classee de Serou",official,9.666667,1.7,BJ-000,,
-1336649,-1928964,settlement,Toffo,Toffo,official,6.85,2.083333,BJ-000,,
-1335997,-1928197,settlement,Séra,Sera,official,10.400113,1.766012,BJ-000,,
-1336729,-1929057,hydrographic,Touasé,Touase,official,9.413632,1.423486,BJ-000,,
-1337042,-1929422,settlement,Yidi,Yidi,official,10.515276,1.101941,BJ-000,,
-1336575,-1928882,settlement,Tiessikourbou,Tiessikourbou,official,10.413307,1.392173,BJ-000,,
-1336208,-1928448,settlement,"Sô Tchanhoué","So Tchanhoue",variant,6.471871,2.412071,BJ-000,,
-1336761,-1929094,spot,Tounkonpororo,Tounkonpororo,official,9.966667,1.966667,BJ-000,,
-1336148,-1928380,settlement,Sokponta,Sokponta,official,7.868866,2.235639,BJ-000,,
-1336958,-1929426,settlement,Yohongou,Yohongou,variant,10.530236,1.182657,BJ-000,,
-1336171,-1928404,settlement,Sonmbérékerekou,Sonmberekerekou,official,11.199018,2.460778,BJ-000,,
-1336231,-1928473,settlement,Soudé,Soude,official,10.897572,2.85093,BJ-000,,
-1336102,-1928323,hydrographic,Sirou,Sirou,official,9.650372,2.476305,BJ-000,,
-1337055,-1929436,settlement,Yougourokparou,Yougourokparou,official,10.286218,3.384795,BJ-BO,,
-1335886,-1928062,settlement,Saonzi,Saonzi,variant,10.716959,3.58935,BJ-AL,,
-1336084,-1928305,settlement,Sinmpérékou,Sinmperekou,official,11.321578,2.484632,BJ-000,,
-1336534,-1928840,hydrographic,Tianbérékou,Tianberekou,official,9.432485,2.525827,BJ-000,,
-1335757,-1927905,settlement,Saapoupouta,Saapoupouta,official,11.307003,2.908334,BJ-000,,
-1336739,-1929071,settlement,Toukadouo,Toukadouo,official,10.812295,1.075765,BJ-000,,
-1335898,-1927984,settlement,Salmanga,Salmanga,variant,9.21965,1.767574,BJ-000,,
-1336902,-1929261,hydrographic,Wéré,Were,official,9.648259,2.920127,BJ-000,,
-1337085,-1929470,settlement,Zinvié-Zounmè,Zinvie-Zounme,official,6.62471,2.347026,BJ-000,,
-1336419,-1928700,hypsographic,Tataba,Tataba,official,10.450783,1.412719,BJ-000,,
-1335891,-1928067,hydrographic,Saoungou,Saoungou,official,10.511753,1.113647,BJ-000,,
-1336786,-1929119,settlement,Tsizennkouga,Tsizennkouga,official,10.924996,1.09464,BJ-000,,
-1336905,-1929265,hydrographic,Wérou,Werou,official,9.986184,2.675619,BJ-000,,
-1336358,-1928630,settlement,Tangsara,Tangsara,official,9.616255,1.645881,BJ-000,,
-1336850,11114328,hydrographic,Ouarana,Ouarana,official,10.955148,3.245255,BJ-AL,,
-1336105,-1928326,settlement,Sissinou,Sissinou,official,10.292787,2.455683,BJ-000,,
-1336432,-1928716,hydrographic,Tchambo,Tchambo,official,7.9,1.75,BJ-000,,
-1337051,-1929440,settlement,Youroussonga,Youroussonga,variant,9.896629,1.859787,BJ-000,,
-1335859,-1928031,hydrographic,Sankou,Sankou,official,10.038912,3.207889,BJ-BO,,
-1336030,-1928238,settlement,Shin,Shin,official,9.833272,3.016319,BJ-000,,
-1336119,-1928343,settlement,Soborogou,Soborogou,official,11.365178,2.422466,BJ-000,,
-1336894,-1929252,settlement,Wénou,Wenou,variant,9.784919,2.636687,BJ-BO,,
-1336188,-1928423,settlement,Soouwèniango,Soouweniango,official,9.868645,1.397968,BJ-000,,
-1336723,-1929051,settlement,Tosso,Tosso,official,8.492175,2.347853,BJ-000,,
-1336251,-1928056,settlement,Santou,Santou,variant,9.720707,2.842539,BJ-000,,
-1336679,-1928998,settlement,Tokounkparo,Tokounkparo,official,9.513371,3.1026,BJ-000,,
-1336336,-1928601,settlement,Tandafa,Tandafa,official,10.691871,1.63422,BJ-000,,
-1336785,-1929118,settlement,Tsiglihoué,Tsiglihoue,official,6.933333,1.65,BJ-000,,
-1336706,-1929030,settlement,Tora,Tora,official,9.362719,2.576607,BJ-000,,
-1336816,-1929159,settlement,Waga,Waga,official,9.514471,1.558782,BJ-000,,
-1336254,-1928498,settlement,Sourou,Sourou,official,9.361364,2.531835,BJ-000,,
-1335772,-1927921,settlement,Sabiyèrimafowa,Sabiyerimafowa,official,9.981844,1.670215,BJ-000,,
-1336639,-1928952,settlement,Tobé,Tobe,official,11.380386,2.298828,BJ-000,,
-1336288,-1928543,hydrographic,Tafan,Tafan,official,7.175864,1.857378,BJ-000,,
-1336260,-1928504,settlement,Sousougon,Sousougon,official,7.4,1.9,BJ-000,,
-1336181,11114320,hydrographic,Sompouana,Sompouana,official,10.426473,3.483061,BJ-BO,,
-1336665,-1928983,settlement,Tokamé-Kpodji,Tokame-Kpodji,official,7.05,1.833333,BJ-000,,
-1336774,-1929107,settlement,Touroumini,Touroumini,official,9.39737,1.435424,BJ-000,,
-1336003,-1928207,settlement,Sérékali,Serekali,official,9.922502,3.036179,BJ-000,,
-1336123,-1928349,settlement,Sodjagotoe,Sodjagotoe,official,7.2,1.733333,BJ-000,,
-1335758,-1927907,settlement,Sâassibadou,Saassibadou,official,11.491666,2.440209,BJ-000,,
-1336010,-1928214,settlement,Serivèri,Seriveri,official,9.718346,1.730672,BJ-000,,
-1337065,10894002,hydrographic,Zahona,Zahona,official,11.094783,3.357173,BJ-AK,,
-1336812,-1929154,settlement,Wadi,Wadi,official,11.582224,2.368505,BJ-000,,
-1336496,-1928799,settlement,Tennpobré,Tennpobre,official,10.564864,1.55645,BJ-000,,
-1336224,11114381,hydrographic,Souatin,Souatin,official,10.302176,3.482563,BJ-BO,,
-1336876,-1929229,hydrographic,Wawa,Wawa,official,10.418896,0.826336,BJ-000,,
-1336022,-1928227,settlement,Séssé,Sesse,official,9.486148,1.775492,BJ-000,,
-1336791,-1926113,settlement,Kilir,Kilir,variant,9.7,1.65,BJ-000,,
-1336463,-1928757,hydrographic,Tchora,Tchora,official,8.456923,1.829455,BJ-000,,
-1336628,-1926134,settlement,Kiranga,Kiranga,variant,9.606737,1.760191,BJ-000,,
-1336676,-1928995,hydrographic,"Toko Toko","Toko Toko",official,9.716963,2.069449,BJ-000,,
-1335918,-1928100,settlement,Savalu,Savalu,variant,7.928068,1.975582,BJ-CO,,
-1336055,-1928270,settlement,Sinaghéré,Sinaghere,official,10.142612,2.135606,BJ-000,,
-1336669,-1928987,hydrographic,Tokéna,Tokena,official,10.448006,2.916925,BJ-000,,
-1335892,-1928068,settlement,Saoutiouri,Saoutiouri,official,9.624946,1.651616,BJ-000,,
-1335967,-1928161,settlement,Sékomkparo,Sekomkparo,official,9.915991,3.405384,BJ-000,,
-1336597,-1928907,settlement,Tindji,Tindji,variant,7.246845,2.116991,BJ-000,,
-1335945,-1928135,settlement,Segborue,Segborue,variant,6.410075,1.960508,BJ-MO,,
-1335867,-1928040,settlement,Sanpéto,Sanpeto,official,11.620184,2.438751,BJ-000,,
-1336295,-1928555,settlement,Takalafia,Takalafia,official,11.131536,3.543417,BJ-AK,,
-1336237,-1928481,settlement,Soukarou,Soukarou,official,10.691476,2.694731,BJ-000,,
-1336606,-1928917,settlement,Tingourou,Tingourou,official,10.860519,2.160881,BJ-000,,
-1336362,-1928635,settlement,Taniapéta,Taniapeta,official,10.249808,1.456664,BJ-000,,
-1336851,-1927507,settlement,Ouarandji,Ouarandji,official,10.949318,3.459109,BJ-AL,,
-1336502,-1928806,hydrographic,Teouré,Teoure,official,11.045301,2.168333,BJ-000,,
-1336433,-1928718,settlement,Tchanga,Tchanga,official,10.896871,1.055637,BJ-000,,
-1336645,-1928959,hydrographic,Tobrédarou,Tobredarou,official,10.267088,2.167923,BJ-000,,
-1337057,-1929438,settlement,Youndisséti,Youndisseti,official,10.697085,1.087172,BJ-000,,
-1337025,-1929403,settlement,Yeratiao,Yeratiao,variant,9.540432,1.543741,BJ-DO,,
-1336372,-1928587,settlement,Tambogoré,Tambogore,variant,10.682584,1.339271,BJ-000,,
-1336393,-1928670,settlement,Tanto,Tanto,official,6.553116,2.182754,BJ-000,,
-1336601,-1928912,settlement,Tinétine,Tinetine,official,10.981165,1.098965,BJ-000,,
-1337079,-1925795,settlement,Isignan,Isignan,variant,6.688757,2.678264,BJ-000,,
-1336044,-1928255,hydrographic,Siko,Siko,official,10.693842,3.503005,BJ-AL,,
-1336804,-1929146,settlement,Volli-Latadji,Volli-Latadji,official,7.227758,1.721422,BJ-000,,
-1335777,-1927926,hydrographic,Sadokara,Sadokara,official,10.831361,2.566794,BJ-000,,
-1335795,-1927947,settlement,Sakangaiparou,Sakangaiparou,official,10.252428,2.96832,BJ-000,,
-1335877,-1928051,hydrographic,Sansoupé,Sansoupe,official,8.091113,2.298235,BJ-000,,
-1335933,-1928118,settlement,Sé,Se,official,6.753903,2.10365,BJ-000,,
-1335928,-1928112,settlement,Sayounkparo,Sayounkparo,official,9.24174,3.075945,BJ-000,,
-1336746,-1929078,hydrographic,Toukouna,Toukouna,official,9.573424,3.061019,BJ-000,,
-1337021,11114332,settlement,Yembako,Yembako,official,10.397368,3.295945,BJ-BO,,
-1336593,-1928903,settlement,Tindarou,Tindarou,official,11.321169,2.506885,BJ-000,,
-1336851,-1927508,settlement,Ouarenzi,Ouarenzi,variant,10.949318,3.459109,BJ-AL,,
-1335983,-1928176,spot,Sémé,Seme,variant,6.383333,2.616667,BJ-000,,
-1336456,-1928750,hydrographic,Tchitiabouiga,Tchitiabouiga,official,10.674197,1.18389,BJ-000,,
-1336892,-1929250,hydrographic,Wénakoga,Wenakoga,official,11.178439,2.708788,BJ-000,,
-1337098,-1929487,settlement,Zoudjamé,Zoudjame,official,6.883333,1.883333,BJ-000,,
-1336177,-1928410,settlement,Sonoumo,Sonoumo,official,9.438597,2.569072,BJ-000,,
-1336451,-1928745,settlement,Tchi-Avététa,Tchi-Aveteta,official,6.833333,2,BJ-000,,
-1336654,-1928970,settlement,Togodo,Togodo,official,6.665473,2.170089,BJ-000,,
-1335873,-1928046,settlement,Sansikagou,Sansikagou,official,11.095816,2.75155,BJ-000,,
-1336931,-1929300,settlement,Wono,Wono,official,10.328283,1.765222,BJ-000,,
-1336025,-1928232,settlement,Setimsi,Setimsi,official,9.549414,1.853636,BJ-000,,
-1336975,-1929350,settlement,Yammbourga,Yammbourga,official,10.396139,0.907226,BJ-000,,
-1335997,-1924525,settlement,Céra,Cera,variant,10.400113,1.766012,BJ-000,,
-1336949,-1929319,hydrographic,Yabodarou,Yabodarou,official,11.451715,2.692551,BJ-000,,
-1336211,-1928451,settlement,Sotta,Sotta,official,7.193225,1.964736,BJ-000,,
-1336262,-1928506,hydrographic,Souté,Soute,official,10.73275,1.611852,BJ-000,,
-1335950,-1928142,settlement,Ségourou,Segourou,official,8.992175,2.601347,BJ-000,,
-1336416,-1928697,settlement,Tasso,Tasso,official,9.67474,3.229464,BJ-000,,
-1336818,-1929162,spot,Waguété,Waguete,official,10.646262,1.43247,BJ-000,,
-1336476,-1928771,settlement,Téfandou,Tefandou,official,10.749711,0.979215,BJ-000,,
-1336479,-1928801,settlement,Ténoukanmé,Tenoukanme,variant,6.666667,1.816667,BJ-000,,
-1335808,-1927962,hydrographic,Sakobana,Sakobana,variant,10.002827,3.396142,BJ-BO,,
-1335820,-1927983,hydrographic,Salifora,Salifora,official,9.916667,1.866667,BJ-000,,
-1335874,-1928047,settlement,Sanson,Sanson,official,9.2754,2.425207,BJ-000,,
-1336060,-1928278,hydrographic,Sinako,Sinako,official,10.22057,1.584312,BJ-000,,
-1336330,-1928593,settlement,Tamoussia,Tamoussia,official,9.76818,2.716499,BJ-000,,
-1336329,-1928592,settlement,Tamoté,Tamote,official,9.928425,1.770886,BJ-000,,
-1336971,-1929343,settlement,Yakrigourou,Yakrigourou,official,10.719612,2.0292,BJ-000,,
-1336736,-1929067,hydrographic,Toui,Toui,official,8.932782,2.219132,BJ-000,,
-1337113,-1929505,settlement,Zoungoudo,Zoungoudo,official,7.01196,1.981638,BJ-000,,
-1336527,-1928833,settlement,Tiakakoulrha,Tiakakoulrha,official,9.660933,1.501457,BJ-000,,
-1336118,-1928342,hypsographic,"Monts Sobirigbérou","Monts Sobirigberou",official,8.935129,2.304901,BJ-000,,
-1336210,-1928450,settlement,Sotone,Sotone,official,7.416667,1.766667,BJ-000,,
-1336096,-1928317,settlement,Sirarou,Sirarou,variant,9.58901,2.642931,BJ-BO,,
-1336887,-1929245,hydrographic,Wémou,Wemou,official,10.083333,1.366667,BJ-000,,
-1336477,-1928772,settlement,Tegbo,Tegbo,official,6.68228,2.067478,BJ-000,,
-1336344,-1928612,settlement,Tanéka-Koko,Taneka-Koko,official,9.858564,1.492824,BJ-000,,
-1335915,-1928095,hydrographic,Satoha,Satoha,official,11.102893,2.438037,BJ-000,,
-1336215,-1928455,hydrographic,Souamou,Souamou,official,10.650991,3.473226,BJ-AL,,
-1336912,-1929277,hydrographic,"Wé Wé","We We",official,9.372513,2.289241,BJ-000,,
-1336120,-1928344,settlement,Sobosigon,Sobosigon,official,7.324479,1.834683,BJ-000,,
-1336682,-1929001,settlement,Tokpa,Tokpa,official,6.655829,1.82423,BJ-000,,
-1336158,-1928391,spot,Sondari,Sondari,official,9.740031,2.49335,BJ-000,,
-1337067,-1929449,settlement,Zakamé,Zakame,variant,7.233333,1.916667,BJ-000,,
-1336667,-1928985,settlement,Toké,Toke,official,10.306871,2.145867,BJ-000,,
-1336298,-1928558,hypsographic,Takiétouota,Takietouota,official,10.426845,1.24066,BJ-000,,
-1336468,-1928762,settlement,Tchoumi-Tchoumi,Tchoumi-Tchoumi,official,10.085037,1.380115,BJ-000,,
-1337070,-1929451,settlement,Zambara,Zambara,official,10.465933,3.530074,BJ-BO,,
-1336947,-1929317,settlement,Yabiti,Yabiti,official,10.932958,1.477478,BJ-000,,
-1336389,-1928666,settlement,Tantanga,Tantanga,official,10.673363,1.408923,BJ-000,,
-1337031,-1929409,settlement,Yerissakou,Yerissakou,official,9.989021,1.71723,BJ-000,,
-1337106,-1929497,settlement,Zoumbodji,Zoumbodji,official,6.733333,2.183333,BJ-000,,
-1336442,-1928731,settlement,Tchélenga,Tchelenga,variant,9.811669,1.391227,BJ-DO,,
-1336271,-1928526,settlement,Suinrou,Suinrou,official,9.310978,2.512523,BJ-000,,
-1336842,-1929190,hypsographic,"Wan Tiégou","Wan Tiegou",official,10.330884,1.22535,BJ-000,,
-1336206,-1925862,hydrographic,Kakigorou,Kakigorou,variant,11.876237,3.406222,BJ-AK,,
-1335918,-1928098,settlement,Savalou,Savalou,official,7.928068,1.975582,BJ-CO,,
-1336661,-1928979,settlement,Tohuiné,Tohuine,official,7.033333,1.75,BJ-000,,
-1336377,-1928650,settlement,Tanmpègré,Tanmpegre,official,10.416639,1.325959,BJ-000,,
-1336314,-1928575,settlement,Talamgou,Talamgou,official,9.874009,1.630719,BJ-000,,
-1336711,-1929035,hydrographic,Toréna,Torena,official,10.635653,3.005711,BJ-000,,
-1335848,-1928019,settlement,Sangbaga,Sangbaga,variant,9.506887,1.890192,BJ-000,,
-1336043,-1928254,settlement,Sikki,Sikki,variant,10.184832,2.383436,BJ-000,,
-1335992,-1928191,settlement,Sénouorou,Senouorou,official,9.351007,2.667683,BJ-000,,
-1336813,-1929155,settlement,Wadiéron,Wadieron,official,9.799549,1.454596,BJ-000,,
-1336623,-1928934,settlement,Tiouka,Tiouka,official,10.831762,0.9042,BJ-000,,
-1335776,-1927925,hydrographic,Sadiennéga,Sadiennega,official,9.45,1.783333,BJ-000,,
-1336625,-1928936,hydrographic,Tioutiou,Tioutiou,official,8.108144,1.892397,BJ-000,,
-1337065,-1929447,hydrographic,Zahoma,Zahoma,variant,11.094783,3.357173,BJ-AK,,
-1335853,-1928025,hydrographic,Sani,Sani,official,9.729062,2.145372,BJ-000,,
-1336248,-1928492,hydrographic,Sounourékou,Sounourekou,official,9.868161,3.151822,BJ-000,,
-1336822,-1929168,settlement,Wakou,Wakou,official,10.466693,1.177852,BJ-000,,
-1337028,-1929406,settlement,Yérémarou,Yeremarou,official,9.205774,2.774938,BJ-000,,
-1336728,-1929056,hydrographic,Touaré,Touare,official,10.583333,0.883333,BJ-000,,
-1336251,-1928418,settlement,Sontou,Sontou,variant,9.720707,2.842539,BJ-000,,
-1336741,-1929073,settlement,Toukanté,Toukante,official,10.383333,0.85,BJ-000,,
-1336548,-1928854,settlement,Tiari,Tiari,official,10.766142,0.962611,BJ-000,,
-1336788,-1929122,settlement,Tui,Tui,official,11.288399,3.022923,BJ-AK,,
-1335833,-1928000,settlement,Samoné,Samone,official,9.623102,2.664061,BJ-000,,
-1336308,-1928568,settlement,Takouanta,Takouanta,official,10.200804,1.177713,BJ-000,,
-1336328,-1928591,settlement,Tammboukirou,Tammboukirou,official,9.103822,2.528056,BJ-000,,
-1336313,-1928574,settlement,Tala,Tala,official,11.506144,2.473521,BJ-000,,
-1336837,-1929185,settlement,Wanko,Wanko,official,10.060386,1.294191,BJ-000,,
-1336058,-1928274,settlement,Sinagourougando,Sinagourougando,official,9.818652,3.129095,BJ-000,,
-1335983,-1927845,spot,Podji,Podji,variant,6.383333,2.616667,BJ-000,,
-1336672,-1928991,settlement,Tokoli,Tokoli,official,6.457641,2.188503,BJ-000,,
-1336379,-1928655,settlement,Tanogu,Tanogu,variant,10.814467,1.431005,BJ-AK,,
-1335931,-1928115,hydrographic,"Lagune Sazué","Lagune Sazue",official,6.283333,1.85,BJ-000,,
-1337025,-1925050,settlement,Eratio,Eratio,variant,9.540432,1.543741,BJ-DO,,
-1336114,-1928337,settlement,"Sô Avo","So Avo",variant,6.492447,2.401926,BJ-000,,
-1335871,-1928044,settlement,Sanrou,Sanrou,official,11.183488,2.869973,BJ-000,,
-1336683,-1929002,settlement,Tokpa,Tokpa,official,6.699206,2.039767,BJ-000,,
-1336847,-1929196,hydrographic,Waragou,Waragou,official,9.733333,1.633333,BJ-000,,
-1336438,-1928725,park,"Forêt Classée de Tchaourou","Foret Classee de Tchaourou",official,8.839734,2.618651,BJ-000,,
-1335811,-1927966,hydrographic,Sakouana,Sakouana,official,9.33724,1.823025,BJ-000,,
-1336819,-1929163,settlement,Wagui,Wagui,official,11.281463,2.400951,BJ-000,,
-1337039,-1929418,settlement,Yévié,Yevie,official,6.593864,2.376642,BJ-000,,
-1336694,-1929014,settlement,Tonboutou,Tonboutou,variant,11.856282,3.291689,BJ-AK,,
-1336233,-1928475,settlement,Soué,Soue,official,10.307904,2.4239,BJ-000,,
-1336831,-1929179,hydrographic,Wana,Wana,variant,10.851647,3.197569,BJ-AL,,
-1335856,11114383,settlement,Sanimba,Sanimba,official,10.958705,3.748686,BJ-AL,,
-1336927,-1929296,settlement,Wondou,Wondou,official,9.226102,2.563195,BJ-000,,
-1336553,-1928859,settlement,Tiatiala,Tiatiala,official,9.390557,1.503745,BJ-000,,
-1336884,-1929238,hydrographic,Wégo,Wego,official,9.521674,2.339741,BJ-000,,
-1336184,-1928417,hydrographic,Sontaro,Sontaro,official,9.715964,2.179249,BJ-000,,
-1337084,-1929471,settlement,Zivie,Zivie,variant,6.617383,2.357763,BJ-000,,
-1336985,-1929361,hydrographic,Yaoulé,Yaoule,official,9.65641,1.984867,BJ-000,,
-1336709,-1929033,hydrographic,Toranagagui,Toranagagui,official,11.298806,2.276974,BJ-000,,
-1336471,-1928767,settlement,Tebu,Tebu,variant,9.917222,1.808056,BJ-DO,,
-1336415,-1928696,settlement,Tassita,Tassita,official,10.080996,1.426256,BJ-000,,
-1335989,-1928186,settlement,Sénagvéou,Senagveou,official,9.9622,1.662358,BJ-000,,
-1336275,-1928530,hydrographic,Suo,Suo,official,9.226503,3.08724,BJ-000,,
-1337087,-1929475,settlement,Zodoumé,Zodoume,official,7.05,1.666667,BJ-000,,
-1336029,-1928237,settlement,Seyadinkourou,Seyadinkourou,official,11.182352,2.301446,BJ-000,,
-1336418,-1928699,settlement,Tata,Tata,official,11.019819,2.221833,BJ-000,,
-1337007,-1928110,hydrographic,Sayota,Sayota,variant,10.198028,0.675438,BJ-000,,
-1337044,-1929424,hydrographic,Yoboué,Yoboue,official,8.701566,2.508782,BJ-000,,
-1335804,-1927958,settlement,Sakété,Sakete,official,6.736183,2.658658,BJ-PL,,
-1336565,-1928872,hydrographic,Tiéga,Tiega,official,10.869196,1.11434,BJ-000,,
-1336412,-1928693,hydrographic,Tassi,Tassi,official,10.175838,2.771416,BJ-000,,
-1337038,-1929417,hydrographic,Yévé,Yeve,official,9.170308,2.26871,BJ-000,,
-1336780,-1929113,settlement,Toviklin,Toviklin,official,6.889352,1.837223,BJ-000,,
-1335959,-1927948,settlement,Sakannou,Sakannou,variant,10.712323,1.03331,BJ-000,,
-1336893,-1929251,settlement,Wengnam,Wengnam,official,9.566667,1.783333,BJ-000,,
-1336414,-1928690,hydrographic,Tasséné,Tassene,variant,10.916578,3.204941,BJ-000,,
-1336059,-1928276,hydrographic,"Sinai Ciré","Sinai Cire",variant,10.105229,1.294297,BJ-000,,
-1336857,-1927509,settlement,Ouari,Ouari,variant,10.234727,2.403926,BJ-000,,
-1335750,-1927893,settlement,Prékété,Prekete,official,8.670077,1.633412,BJ-000,,
-1336574,-1928881,hydrographic,Tientioubéssa,Tientioubessa,official,8.285553,1.59177,BJ-000,,
-1336069,-1928280,settlement,Sinanagourou,Sinanagourou,variant,11.122037,2.775704,BJ-000,,
-1336599,-1928795,settlement,Tendu,Tendu,variant,9.09416,2.8869,BJ-000,,
-1337082,-1929467,settlement,Zinkamè,Zinkame,official,7.302121,1.946852,BJ-000,,
-1336446,-1924539,settlement,Chetti,Chetti,variant,7.828334,1.662656,BJ-000,,
-1336024,-1928230,hypsographic,Sessia,Sessia,official,9.122247,2.162057,BJ-000,,
-1336021,-1928226,hydrographic,Sessarabaga,Sessarabaga,official,11.154026,2.734475,BJ-000,,
-1336799,-1929141,hydrographic,Vionna,Vionna,official,10.97925,3.278608,BJ-AL,,
-1336344,-1924964,settlement,Dor,Dor,variant,9.858564,1.492824,BJ-000,,
-1336960,-1929330,settlement,Yaka,Yaka,official,10.405307,3.286929,BJ-BO,,
-1336546,-1928852,hydrographic,Tiapalou,Tiapalou,official,9.914022,2.698681,BJ-000,,
-1336208,-1928438,settlement,"So Shanhui","So Shanhui",variant,6.471871,2.412071,BJ-000,,
-1336028,-1928236,hydrographic,Séwi,Sewi,official,9.410196,2.182894,BJ-000,,
-1336716,-1929043,settlement,Toroung,Toroung,official,9.85,1.466667,BJ-000,,
-1335801,-1927955,settlement,Sakawa,Sakawa,variant,11.842804,3.234412,BJ-AK,,
-1335910,-1928090,hydrographic,Sassana,Sassana,official,10.736131,3.723928,BJ-AL,,
-1336437,-1924535,settlement,Chauru,Chauru,variant,8.886487,2.597525,BJ-000,,
-1335893,-1928595,settlement,Tamsar,Tamsar,variant,9.689539,1.538537,BJ-000,,
-1336911,-1929276,settlement,"Wé Wé","We We",official,9.38458,2.110303,BJ-000,,
-1336955,-1929325,hydrographic,Yagbassion,Yagbassion,official,11.658823,2.651221,BJ-000,,
-1336718,-1929046,settlement,Tosa,Tosa,official,6.983333,1.733333,BJ-000,,
-1336057,-1928272,settlement,Sinagourou,Sinagourou,official,9.675213,3.270147,BJ-000,,
-1336866,-1929216,settlement,Wassamorou,Wassamorou,official,10.241786,2.091734,BJ-000,,
-1335947,-1928163,settlement,Sékou,Sekou,variant,6.640048,2.220089,BJ-000,,
-1336966,-1929331,settlement,Yakakparo,Yakakparo,variant,9.979778,3.292005,BJ-000,,
-1335902,-1928080,hydrographic,Sarga,Sarga,official,10.803045,1.586675,BJ-000,,
-1336282,-1928537,hypsographic,Tadangou,Tadangou,official,10.950953,1.550181,BJ-000,,
-1336948,-1929318,settlement,Yabo,Yabo,official,11.29737,2.514956,BJ-000,,
-1336841,-1929189,settlement,Wansirou,Wansirou,official,9.365916,2.606725,BJ-000,,
-1337020,-1929397,settlement,Yénahoua,Yenahoua,official,7.014364,1.821762,BJ-000,,
-1336256,-1928500,hydrographic,Sourou,Sourou,official,10.390652,1.910366,BJ-000,,
-1336321,-1928582,hydrographic,Tamarakoga,Tamarakoga,official,11.668696,2.668903,BJ-000,,
-1335905,-1928084,settlement,Saro,Saro,official,10.633445,0.890248,BJ-000,,
-1335893,-1928069,settlement,Saovsar,Saovsar,official,9.689539,1.538537,BJ-000,,
-1336579,-1928887,settlement,Tikito,Tikito,official,11.151911,2.36832,BJ-000,,
-1336458,-1928752,spot,Tchito,Tchito,official,6.916667,2.016667,BJ-000,,
-1337016,-1929393,settlement,Yéhouhoué,Yehouhoue,official,7,1.783333,BJ-000,,
-1337034,-1929412,hydrographic,Yérou-Maro,Yerou-Maro,official,9.230861,2.288594,BJ-000,,
-1335785,-1927934,hydrographic,Sahom,Sahom,official,10.138505,1.622227,BJ-000,,
-1336111,-1928333,settlement,Soaodou,Soaodou,official,10.278475,1.989847,BJ-000,,
-1335773,-1927922,settlement,Sabo,Sabo,official,11.005604,3.535756,BJ-AK,,
-1336426,-1928707,settlement,Tawanmpouta,Tawanmpouta,official,10.15622,1.488307,BJ-000,,
-1336086,-1928307,settlement,Sinmpérou,Sinmperou,official,11.306242,2.490779,BJ-000,,
-1335881,-1928055,hypsographic,Santoiléboya,Santoileboya,official,10.755445,1.472742,BJ-000,,
-1335894,-1928071,settlement,Sapandé,Sapande,official,10.559961,0.807936,BJ-000,,
-1336384,-1928793,settlement,Tencé,Tence,variant,10.429657,1.693431,BJ-000,,
-1336766,-1929099,settlement,Tounré,Tounre,official,9.482728,2.575395,BJ-000,,
-1336270,-1928525,hydrographic,Sui,Sui,official,9.158091,2.770906,BJ-000,,
-1337063,-1929445,settlement,Zado,Zado,official,7.076185,2.12985,BJ-000,,
-1336971,-1927977,settlement,Sakrigourou,Sakrigourou,variant,10.719612,2.0292,BJ-000,,
-1335765,-1927914,settlement,Sabikawarou,Sabikawarou,official,9.597416,2.986208,BJ-000,,
-1336079,-1928299,settlement,Sinhoué-Pota,Sinhoue-Pota,official,7.033333,1.966667,BJ-000,,
-1336269,-1928476,hydrographic,Souédarou,Souedarou,variant,10.607204,2.504377,BJ-000,,
-1336113,-1928335,hydrographic,Soatin,Soatin,official,10.699873,3.795489,BJ-000,,
-1336436,-1928723,settlement,Tchanou,Tchanou,official,6.542951,1.758759,BJ-000,,
-1335802,-1927956,settlement,Sakawa-Kouaratégui,Sakawa-Kouarategui,variant,11.856085,3.210652,BJ-AK,,
-1336116,11114382,settlement,Sobabingbérou,Sobabingberou,official,10.039386,3.185736,BJ-BO,,
-1336445,-1928735,settlement,Tchengadé,Tchengade,official,9.488489,1.545818,BJ-000,,
-1337101,-1929514,settlement,Zugu,Zugu,variant,10.733315,2.972824,BJ-AL,,
-1335975,-1928170,hydrographic,Selmatopo,Selmatopo,official,9.733333,1.616667,BJ-000,,
-1336583,-1928891,hydrographic,Tikoudarou,Tikoudarou,official,10.481413,1.944241,BJ-000,,
-1335939,-1928127,settlement,Sèdjé,Sedje,official,6.483333,2.666667,BJ-000,,
-1336913,-1929281,settlement,Winséné,Winsene,official,10.692716,2.832196,BJ-000,,
-1336499,-1928803,settlement,Téou,Teou,official,10.092406,2.886536,BJ-000,,
-1336678,-1928997,settlement,Tokoukou,Tokoukou,official,7.472494,1.943753,BJ-000,,
-1336935,-1927621,settlement,Ouorora,Ouorora,variant,9.353864,2.546787,BJ-000,,
-1335986,-1928183,hydrographic,Sémini,Semini,official,10.406283,2.789429,BJ-000,,
-1336012,-1928216,spot,Serkindadji,Serkindadji,official,11.824176,2.825126,BJ-000,,
-1335924,-1928106,settlement,Sawoundi,Sawoundi,official,9.451518,1.757678,BJ-000,,
-1336617,-1928885,settlement,Tigninou,Tigninou,variant,9.792006,1.522512,BJ-000,,
-1336581,-1928868,settlement,Ticou,Ticou,variant,10.405365,1.64445,BJ-000,,
-1336635,-1928947,settlement,Titonzi-Kaouta,Titonzi-Kaouta,official,10.667411,1.016732,BJ-000,,
-1336528,-1928710,settlement,Tchakalakou,Tchakalakou,variant,10.546277,1.339173,BJ-000,,
-1336880,-1929233,settlement,Wawi,Wawi,official,9.566895,1.810187,BJ-000,,
-1337002,-1929379,hydrographic,Yassikoga,Yassikoga,official,11.29377,2.682655,BJ-000,,
-1337046,-1929427,settlement,Yoko,Yoko,official,6.707958,2.610381,BJ-000,,
-1337026,-1929404,settlement,Yéré,Yere,official,9.863096,3.000018,BJ-000,,
-1336777,-1929110,settlement,Touza,Touza,official,11.003048,2.776101,BJ-000,,
-1336967,-1929338,hydrographic,Yakona,Yakona,official,10.127407,3.501988,BJ-BO,,
-1336485,-1928785,settlement,Tembieléka,Tembieleka,official,10.81804,1.04062,BJ-000,,
-1336712,-1929037,spot,Tori,Tori,official,6.505627,2.178224,BJ-000,,
-1335760,-1927909,settlement,Sabalagban,Sabalagban,official,8.013322,2.198277,BJ-000,,
-1335747,-1926727,settlement,Kpovidji,Kpovidji,variant,6.343712,1.839112,BJ-000,,
-1336178,-1927994,settlement,Samérou,Samerou,variant,9.771288,2.26708,BJ-BO,,
-1336940,-1929310,settlement,Wotéré,Wotere,official,9.916956,3.320294,BJ-000,,
-1336991,-1929367,settlement,Yarhoubarh,Yarhoubarh,official,9.980513,1.701964,BJ-000,,
-1336244,-1928488,settlement,Soumbégolo,Soumbegolo,official,11.735303,3.37686,BJ-AK,,
-1336214,-1928454,hydrographic,Souakaka,Souakaka,official,11.101124,3.299801,BJ-AK,,
-1336304,-1928564,settlement,Takotiéta,Takotieta,official,10.337339,1.071842,BJ-000,,
-1335980,-1928181,settlement,Semi,Semi,variant,6.366667,2.616667,BJ-000,,
-1336107,-1928329,hydrographic,So,So,official,6.469756,2.408812,BJ-000,,
-1336243,-1928487,settlement,"Soumarou Gando","Soumarou Gando",official,9.890928,3.119472,BJ-000,,
-1336674,-1928993,settlement,Tokorou,Tokorou,official,9.054258,2.432059,BJ-000,,
-1336067,-1928287,settlement,Sinawanonkoulou,Sinawanonkoulou,official,11.196125,2.351446,BJ-000,,
-1336074,-1928294,settlement,Sinendé,Sinende,official,10.34963,2.379064,BJ-BO,,
-1337070,-1929457,settlement,Zanmbara,Zanmbara,variant,10.465933,3.530074,BJ-BO,,
-1335921,-1928102,hypsographic,"Mont de Savé","Mont de Save",official,8.041342,2.505305,BJ-000,,
-1335927,-1928111,settlement,Sayounga,Sayounga,official,9.255663,3.129431,BJ-000,,
-1336046,-1928257,hydrographic,Sikorounkouka,Sikorounkouka,official,9.848492,2.367784,BJ-000,,
-1336810,-1927488,settlement,Ouabou,Ouabou,variant,10.483333,1.45,BJ-000,,
-1336831,11114327,hydrographic,Ouana,Ouana,official,10.851647,3.197569,BJ-AL,,
-1336919,-1927503,settlement,Ouao,Ouao,variant,8.127825,2.561896,BJ-000,,
-1336358,-1928607,settlement,Tandsara,Tandsara,variant,9.616255,1.645881,BJ-000,,
-1336946,-1929316,hydrographic,Yabata,Yabata,official,10.505083,1.994522,BJ-000,,
-1336280,-1928535,hypsographic,"Tabi Akpmé","Tabi Akpme",official,8.810627,2.271795,BJ-000,,
-1336599,-1928606,settlement,Tandou,Tandou,variant,9.09416,2.8869,BJ-000,,
-1337086,-1929473,settlement,Zobasagon,Zobasagon,official,7.416667,1.9,BJ-000,,
-1336020,-1928225,hydrographic,Séssama,Sessama,official,10.346074,3.040277,BJ-BO,,
-1336061,-1928279,settlement,Sinakpérou,Sinakperou,official,9.158407,2.162846,BJ-000,,
-1336385,-1928662,settlement,Tanta,Tanta,official,6.682725,2.2309,BJ-000,,
-1336452,-1928746,settlement,Tchihozé,Tchihoze,official,6.466667,2.05,BJ-000,,
-1336710,-1929034,settlement,Torawé,Torawe,official,9.895176,1.392587,BJ-000,,
-1336443,-1928733,settlement,Tchèmbèré,Tchembere,official,9.339131,1.425793,BJ-000,,
-1336481,-1928779,settlement,Tekpara,Tekpara,variant,9.006551,2.58474,BJ-000,,
-1335880,-1928054,hydrographic,Santiéboualka,Santieboualka,official,10.754234,1.045182,BJ-000,,
-1336348,-1928618,settlement,Tanforgou,Tanforgou,official,10.672901,1.352694,BJ-000,,
-1335903,-1928082,settlement,Sargayouré,Sargayoure,variant,10.423003,1.58341,BJ-000,,
-1336334,-1928599,settlement,Tanakpé,Tanakpe,official,9.71505,3.226229,BJ-000,,
-1336928,-1929297,settlement,Wongoulou,Wongoulou,official,9.298127,2.428779,BJ-000,,
-1337060,-1929442,settlement,Yowaperoun,Yowaperoun,official,9.918315,1.805275,BJ-000,,
-1336864,-1929214,hydrographic,Waroué,Waroue,official,9.583333,1.8,BJ-000,,
-1336316,-1928577,hydrographic,Talo,Talo,official,9.129732,1.572041,BJ-000,,
-1336595,-1928905,hydrographic,Tindawanga,Tindawanga,official,10.660587,0.832582,BJ-000,,
-1336700,-1929022,settlement,Tonhoué,Tonhoue,official,6.917583,1.753434,BJ-000,,
-1336173,-1928406,hydrographic,Sonona,Sonona,official,10.666162,3.336905,BJ-AL,,
-1336859,-1929209,settlement,Waria,Waria,official,9.075583,2.729075,BJ-000,,
-1335969,-1928125,settlement,Sécougourou,Secougourou,variant,10.387271,1.748476,BJ-000,,
-1335866,-1928039,settlement,Sanpéhou,Sanpehou,official,10.655452,0.906839,BJ-000,,
-1336714,-1929041,settlement,Tori-Kada,Tori-Kada,variant,6.576832,2.192025,BJ-000,,
-1337056,-1929437,settlement,Yoularou,Yoularou,official,9.906239,3.020389,BJ-000,,
-1337009,-1929386,settlement,Yayaro,Yayaro,official,11.152738,2.85217,BJ-000,,
-1336750,-1928730,hydrographic,Tchawia,Tchawia,variant,9.62886,1.308043,BJ-000,,
-1336686,-1929006,settlement,Tokpota,Tokpota,official,7.406178,1.950931,BJ-000,,
-1336038,-1928248,hypsographic,"Sidouo Pérégou","Sidouo Peregou",official,10.340844,1.204278,BJ-000,,
-1336323,-1928584,settlement,Tamarou,Tamarou,official,9.735871,2.690083,BJ-BO,,
-1336758,-1929091,hydrographic,Tounakouka,Tounakouka,official,9.95,1.8,BJ-000,,
-1336491,-1928791,settlement,Téna,Tena,official,10.623951,2.857439,BJ-000,,
-1336065,-1928285,hydrographic,Sinassessou,Sinassessou,official,9.996394,3.1716,BJ-000,,
-1336538,-1928844,settlement,Tiangoubou,Tiangoubou,official,10.654091,1.319429,BJ-000,,
-1336886,-1929240,settlement,Wèkèdè,Wekede,official,9.664235,1.38437,BJ-000,,
-1336427,-1928553,settlement,Taïakou,Taiakou,variant,10.542651,1.202598,BJ-AK,,
-1336213,-1928453,hydrographic,Sou,Sou,official,11.037316,3.040502,BJ-AK,,
-1336325,-1928588,hydrographic,Tami,Tami,official,10.143151,3.46624,BJ-000,,
-1336659,-1928977,settlement,Tohoué,Tohoue,official,6.427288,2.666424,BJ-000,,
-1335792,-1927944,settlement,Sakabansi,Sakabansi,official,10.043193,3.383283,BJ-BO,,
-1336616,-1928927,settlement,Tinturo,Tinturo,official,10.563704,0.847658,BJ-000,,
-1336914,-1929282,hydrographic,Winté,Winte,official,11.033333,3.65,BJ-000,,
-1335779,-1927928,hydrographic,Sagniri,Sagniri,official,9.683333,1.483333,BJ-000,,
-1336326,-1928589,settlement,Tamiengou,Tamiengou,official,10.375931,1.309246,BJ-000,,
-1336641,-1928954,hypsographic,Tobo,Tobo,official,9.119433,2.140563,BJ-000,,
-1336801,-1929143,settlement,Vivimé,Vivime,official,7.224503,1.678443,BJ-000,,
-1336273,-1928528,settlement,Suinrou,Suinrou,official,9.785396,2.621543,BJ-000,,
-1336138,-1928367,settlement,Soklogbo,Soklogbo,official,7.683333,2.25,BJ-000,,
-1336704,-1929026,settlement,"Tonri Gando","Tonri Gando",official,10.186691,2.042354,BJ-000,,
-1336053,-1928268,settlement,Sinabandou,Sinabandou,official,11.344455,2.944328,BJ-000,,
-1336852,-1929201,hydrographic,Warangui,Warangui,official,10.653358,2.965117,BJ-000,,
-1336537,-1928719,settlement,Tchangoata,Tchangoata,variant,10.484218,1.209435,BJ-000,,
-1336998,-1929375,hydrographic,Yarliro,Yarliro,official,9.516667,1.616667,BJ-000,,
-1337013,-1929390,hydrographic,Yébéssi,Yebessi,official,9.33467,2.274311,BJ-000,,
-1337105,-1929495,hydrographic,Zoukoukan,Zoukoukan,official,7.466667,1.716667,BJ-000,,
-1335885,-1928061,settlement,Saodou,Saodou,official,10.183333,2.35,BJ-000,,
-1336890,-1929248,hydrographic,Wéna,Wena,variant,10.549536,3.294623,BJ-BO,,
-1336519,-1928825,hydrographic,Tia,Tia,official,9.966667,2,BJ-000,,
-1335775,-1927924,settlement,Sadia-Kpara,Sadia-Kpara,official,11.574115,3.510403,BJ-AK,,
-1336588,-1928897,settlement,Timmbérékou,Timmberekou,official,11.371251,2.591734,BJ-000,,
-1336913,-1927559,settlement,Ouessémé,Ouesseme,variant,10.692716,2.832196,BJ-000,,
-1336133,-1928362,settlement,Soissarou,Soissarou,official,10.213413,2.074726,BJ-000,,
-1336993,-1929369,settlement,Yarhoufoourh,Yarhoufoourh,official,9.984505,1.741636,BJ-000,,
-1336225,-1928466,hydrographic,Souatini,Souatini,official,10.977301,3.511079,BJ-AL,,
-1337059,-1929441,settlement,Yovogan,Yovogan,official,7.45,1.7,BJ-000,,
-1335843,-1928012,settlement,Sandala,Sandala,official,10.586563,0.953099,BJ-000,,
-1336255,-1928499,settlement,Sourou,Sourou,official,11.439504,3.067802,BJ-AK,,
-1336147,-1928379,settlement,Sokplagon,Sokplagon,official,7.366667,1.783333,BJ-000,,
-1336197,-1928433,settlement,Soria,Soria,official,9.762512,3.137284,BJ-000,,
-1336580,-1928888,settlement,Tikou,Tikou,official,10.387422,1.488643,BJ-000,,
-1337104,-1929494,hypsographic,"Zouka Tondi","Zouka Tondi",official,11.587918,3.379632,BJ-AK,,
-1336644,-1928957,settlement,Tobr,Tobr,variant,10.194987,2.129986,BJ-AK,,
-1337107,-1929498,settlement,Zoumbomé,Zoumbome,official,6.642593,2.037118,BJ-000,,
-1336222,-1928463,hydrographic,Souaré,Souare,official,9.193434,2.899404,BJ-000,,
-1336999,-1929376,hydrographic,Yarmama,Yarmama,official,10.318725,1.411557,BJ-000,,
-1336034,-1928244,settlement,Sibado,Sibado,official,9.807716,2.968268,BJ-000,,
-1336345,-1928615,park,"Périmètre de Reboisement des Tanékas","Perimetre de Reboisement des Tanekas",official,9.866667,1.516667,BJ-000,,
-1336049,-1928263,settlement,Silra-Galorha,Silra-Galorha,official,9.937357,1.628201,BJ-000,,
-1336429,-1928713,settlement,Tchaladè,Tchalade,official,9.68666,1.381305,BJ-000,,
-1336820,-1929164,hydrographic,Wakakou,Wakakou,official,10.584445,1.636403,BJ-000,,
-1336143,-1928375,settlement,Sokoum,Sokoum,official,9.81217,2.726702,BJ-000,,
-1337094,-1929482,settlement,Zonklandji,Zonklandji,official,7.366667,1.65,BJ-000,,
-1336612,-1928923,settlement,Tintagrou,Tintagrou,official,10.961759,2.812431,BJ-000,,
-1336882,11114329,settlement,Ouéabara,Oueabara,official,10.429131,3.258953,BJ-BO,,
-1336859,-1927510,settlement,Ouaria,Ouaria,variant,9.075583,2.729075,BJ-000,,
-1337034,-1929413,hydrographic,"Yérou Marou","Yerou Marou",variant,9.230861,2.288594,BJ-000,,
-1336427,-1928708,settlement,Tayakou,Tayakou,official,10.542651,1.202598,BJ-AK,,
-1336150,-1928382,hydrographic,Solina,Solina,official,10.3922,3.07915,BJ-BO,,
-1336837,-1927618,settlement,Ouonko,Ouonko,variant,10.060386,1.294191,BJ-000,,
-1335970,-1928126,settlement,"Secougourou Gando","Secougourou Gando",variant,10.374879,1.735332,BJ-000,,
-1336082,-1928303,settlement,Sinlito,Sinlito,official,7.15,1.716667,BJ-000,,
-1336895,-1929253,settlement,Wénou,Wenou,official,10.692216,2.816116,BJ-000,,
-1336364,-1928637,settlement,Tankaro,Tankaro,official,9.377863,2.495809,BJ-000,,
-1337036,-1929415,settlement,Yétapo,Yetapo,official,10.201838,1.379749,BJ-000,,
-1336205,-1928443,hydrographic,Sosso,Sosso,official,11.079307,3.065029,BJ-AK,,
-1336849,-1929198,hydrographic,Warakou,Warakou,official,10.062505,1.971563,BJ-000,,
-1336478,-1928773,hydrographic,Tégo,Tego,official,10.130003,3.310423,BJ-BO,,
-1336247,-1928491,settlement,Sounarou,Sounarou,official,9.870314,3.066675,BJ-000,,
-1335898,-1927982,settlement,Salananga,Salananga,variant,9.21965,1.767574,BJ-000,,
-1335983,-1928179,spot,Sèmè-Podji,Seme-Podji,official,6.383333,2.616667,BJ-000,,
-1336859,-1929263,settlement,Weria,Weria,variant,9.075583,2.729075,BJ-000,,
-1336398,-1928677,hypsographic,"Monts Tapiengou","Monts Tapiengou",official,10.383333,0.966667,BJ-000,,
-1336878,-1929231,hydrographic,Wawakou,Wawakou,official,10.393054,2.718934,BJ-000,,
-1336713,-1928988,settlement,Toki,Toki,variant,6.503015,2.144098,BJ-000,,
-1337107,-1923226,settlement,Adjadji-Zoungbomé,Adjadji-Zoungbome,variant,6.642593,2.037118,BJ-000,,
-1336261,-1928505,settlement,Soussankparo,Soussankparo,official,9.781559,3.073628,BJ-000,,
-1336141,-1928372,settlement,Sokoubou,Sokoubou,official,9.819512,3.233354,BJ-000,,
-1336004,-1928208,settlement,Sérékibé,Serekibe,official,10.829881,3.469883,BJ-AL,,
-1336179,-1928412,settlement,Sonpararou,Sonpararou,official,9.857127,2.960921,BJ-000,,
-1336764,-1929097,settlement,Tounoukégo,Tounoukego,official,11.140204,2.323383,BJ-000,,
-1336300,-1928560,settlement,Takon,Takon,official,6.649848,2.621736,BJ-000,,
-1336617,-1928928,settlement,Tinyinoun,Tinyinoun,official,9.792006,1.522512,BJ-000,,
-1336088,-1928309,settlement,Sinoou,Sinoou,official,10.163309,2.194111,BJ-000,,
-1336989,-1929365,settlement,Yarama,Yarama,official,10.123434,2.790772,BJ-000,,
-1336794,-1929134,hydrographic,Vanhoui,Vanhoui,official,9.566667,1.85,BJ-000,,
-1335744,-1927887,settlement,Pourari,Pourari,official,9.271826,2.38344,BJ-000,,
-1335974,-1928169,settlement,Sélikiti,Selikiti,official,10.622163,3.821388,BJ-BO,,
-1336654,-1928971,settlement,Togoudo,Togoudo,variant,6.665473,2.170089,BJ-000,,
-1335932,-1928117,settlement,Sé,Se,official,6.511146,1.828315,BJ-000,,
-1336815,11114323,hydrographic,Ouafina,Ouafina,official,10.655791,3.405294,BJ-AL,,
-1336855,-1929205,settlement,Warayélenga,Warayelenga,official,9.585572,1.678602,BJ-000,,
-1336826,11114324,settlement,Ouami,Ouami,official,10.823341,3.625016,BJ-AL,,
-1336545,-1928851,settlement,"Tian Wassaka","Tian Wassaka",official,10.771547,1.396547,BJ-000,,
-1336712,-1929040,spot,Tori-Gara,Tori-Gara,variant,6.505627,2.178224,BJ-000,,
-1336089,-1928310,settlement,Sinou,Sinou,official,9.21788,2.509631,BJ-000,,
-1336206,-1928444,hydrographic,Sota,Sota,official,11.876237,3.406222,BJ-AK,,
-1336750,-1929082,hydrographic,Touli,Touli,official,9.62886,1.308043,BJ-000,,
-1337032,-1929410,hydrographic,Yérou,Yerou,official,9.516667,3.166667,BJ-000,,
-1335883,-1928059,settlement,Sanyèrangou,Sanyerangou,official,9.945776,1.647434,BJ-000,,
-1335996,-1928196,settlement,Sépounga,Sepounga,official,10.667134,1.23953,BJ-000,,
-1336196,-1928432,hydrographic,Sori,Sori,official,9.644771,2.223832,BJ-000,,
-1336906,-1929266,hydrographic,Werou,Werou,official,11.596504,3.117608,BJ-AK,,
-1335784,-1927933,settlement,Saho,Saho,official,11.423543,2.311375,BJ-000,,
-1336511,-1928818,hydrographic,Teru,Teru,variant,9.048103,2.233446,BJ-000,,
-1336859,-1925979,settlement,Karla,Karla,variant,9.075583,2.729075,BJ-000,,
-1336646,-1928961,settlement,Todjanouko,Todjanouko,official,6.354752,1.83531,BJ-000,,
-1335947,-1928139,settlement,Ségou,Segou,official,6.640048,2.220089,BJ-000,,
-1337117,-1929512,settlement,Zouto,Zouto,official,7.233333,2.233333,BJ-000,,
-1336374,-1928647,hydrographic,Tanmboufaga,Tanmboufaga,official,10.721312,1.306625,BJ-000,,
-1336662,-1928980,settlement,Toili,Toili,official,10.616667,0.883333,BJ-000,,
-1336192,-1928116,hydrographic,Sbra,Sbra,variant,10.665743,3.344068,BJ-AL,,
-1336630,-1928942,settlement,Tissarou,Tissarou,official,11.124261,2.874447,BJ-000,,
-1335977,-1928172,settlement,Sémalabokou,Semalabokou,official,11.403263,2.646736,BJ-000,,
-1336160,-1928393,settlement,"Sondo Tioka","Sondo Tioka",official,11.414324,3.131584,BJ-AK,,
-1337096,9190913,administrative_region,Zou,Zou,official,7.266667,2.133333,BJ-ZO,,
-1335828,-1927993,settlement,Samérinéga,Samerinega,official,9.246736,3.142166,BJ-000,,
-1336023,-1928228,settlement,Sésséra,Sessera,official,9.769979,2.99203,BJ-000,,
-1336994,-1929370,settlement,Yari,Yari,official,9.349454,1.610061,BJ-000,,
-1336114,-1928336,settlement,Sô-Ava,So-Ava,variant,6.492447,2.401926,BJ-000,,
-1335886,-1927985,settlement,Salonzi,Salonzi,official,10.716959,3.58935,BJ-AL,,
-1336482,-1928781,hydrographic,Tékuarou,Tekuarou,official,9.816667,1.8,BJ-000,,
-1336627,-1928938,settlement,Tipaoti,Tipaoti,official,10.128694,1.253711,BJ-000,,
-1337074,-1924939,spot,"Ferme de Doné","Ferme de Done",variant,9.89424,1.435852,BJ-000,,
-1335839,-1928007,settlement,Sanbéhou,Sanbehou,official,10.594949,0.888969,BJ-000,,
-1335814,-1927973,settlement,Sakoursi,Sakoursi,official,9.912668,1.44617,BJ-000,,
-1336768,-1929101,settlement,Tountarougando,Tountarougando,official,9.80636,3.240949,BJ-000,,
-1336172,-1928405,settlement,Sono,Sono,official,9.510997,2.911447,BJ-000,,
-1336732,-1929060,settlement,Toubounyindi,Toubounyindi,official,10.805245,0.958068,BJ-000,,
-1336178,9175992,settlement,Sonoumon,Sonoumon,official,9.771288,2.26708,BJ-BO,,
-1336537,-1928843,settlement,Tiangahonta,Tiangahonta,official,10.484218,1.209435,BJ-000,,
-1336362,-1928547,settlement,Tagnapéta,Tagnapeta,variant,10.249808,1.456664,BJ-000,,
-1336569,-1928876,settlement,Tiélé,Tiele,official,10.730681,1.208599,BJ-000,,
-1336830,11114326,hydrographic,Ouana,Ouana,official,10.771445,3.233805,BJ-AL,,
-1336391,-1928668,settlement,Tan-Teil,Tan-Teil,official,10.460698,1.383806,BJ-000,,
-1336355,-1928674,settlement,Taoufoungou,Taoufoungou,variant,9.582137,1.800618,BJ-000,,
-1336680,-1928999,settlement,Tokpa,Tokpa,official,6.361263,1.799445,BJ-000,,
-1335857,-1928029,settlement,Saniouri,Saniouri,official,10.535364,1.0225,BJ-000,,
-1336925,-1929294,hydrographic,Wolo,Wolo,official,9.156801,1.42642,BJ-000,,
-1336773,-1929106,hypsographic,"Tourougo Tondi","Tourougo Tondi",official,11.675836,3.517969,BJ-AK,,
-1336379,-1928657,settlement,Tanougou,Tanougou,official,10.814467,1.431005,BJ-AK,,
-1335855,-1928027,settlement,Sanimé,Sanime,official,9.632944,3.148055,BJ-000,,
-1335978,-1928173,settlement,Semalrhou,Semalrhou,official,9.60263,1.728898,BJ-000,,
-1336269,-1928524,hydrographic,Sue-Daru,Sue-Daru,variant,10.607204,2.504377,BJ-000,,
-1336550,-1928856,settlement,Tiarkouandé,Tiarkouande,official,10.780628,0.883152,BJ-000,,
-1336880,-1929133,settlement,Vanhoui,Vanhoui,variant,9.566895,1.810187,BJ-000,,
-1335766,-1927915,settlement,Sabikono,Sabikono,official,9.495844,3.123198,BJ-000,,
-1336066,-1928286,settlement,Sinassinrou,Sinassinrou,official,9.80735,3.217097,BJ-000,,
-1336428,-1928743,settlement,Tchiapécodji,Tchiapecodji,variant,6.383333,2.166667,BJ-000,,
-1336894,-1927551,settlement,Ouénou,Ouenou,official,9.784919,2.636687,BJ-BO,,
-1336510,-1928815,hydrographic,Téro,Tero,official,10.824348,2.481334,BJ-000,,
-1336614,-1928925,hypsographic,Tinténou,Tintenou,official,9.037458,2.150631,BJ-000,,
-1336807,-1929149,settlement,Wabé,Wabe,official,10.85618,2.193077,BJ-000,,
-1336782,-1929115,settlement,Toyo,Toyo,official,12.153015,3.081068,BJ-AL,,
-1336081,-1928302,hydrographic,Sinlingnin,Sinlingnin,official,8.484899,2.329362,BJ-000,,
-1336446,-1928738,settlement,Tchetti-Léma,Tchetti-Lema,variant,7.828334,1.662656,BJ-000,,
-1336333,-1928598,hypsographic,Tanakongoutansa,Tanakongoutansa,official,10.478366,1.268572,BJ-000,,
-1336720,-1929048,settlement,Tosoumé,Tosoume,official,6.748365,1.821395,BJ-000,,
-1335984,-1928180,settlement,Sèmèrè,Semere,official,9.557693,1.369659,BJ-DO,,
-1336401,-1928680,settlement,Tapounta,Tapounta,official,10.089886,1.313729,BJ-000,,
-1336600,-1928911,settlement,Tinékonparou,Tinekonparou,official,9.340839,2.720744,BJ-000,,
-1335827,-1927992,settlement,Sambalrhou,Sambalrhou,official,9.948257,1.504882,BJ-000,,
-1336493,-1928796,hydrographic,Téné,Tene,official,9.346534,2.877355,BJ-000,,
-1337006,-1929383,settlement,Yawéni,Yaweni,official,10.291119,0.93355,BJ-000,,
-1335737,-1927878,settlement,Pouébé,Pouebe,official,8.916167,2.570507,BJ-000,,
-1336091,-1928312,settlement,Sinwa,Sinwa,official,11.016667,2.416667,BJ-000,,
-1336494,-1928797,hydrographic,Téni,Teni,official,9.142834,2.680072,BJ-000,,
-1336504,-1928809,hydrographic,Térédja,Teredja,official,9.116667,1.866667,BJ-000,,
-1336877,-1929230,hydrographic,Wawa,Wawa,official,10.795489,1.931627,BJ-000,,
-1335937,-1928122,settlement,Sébiro,Sebiro,official,9.716414,2.839775,BJ-000,,
-1336253,-1928497,settlement,Souro,Souro,official,9.789358,3.025711,BJ-000,,
-1335801,-1927965,settlement,Sakouan,Sakouan,variant,11.842804,3.234412,BJ-AK,,
-1336828,11114325,hydrographic,Ouamoti,Ouamoti,official,10.196805,3.375767,BJ-BO,,
-1336185,-1928420,settlement,Sonviroukpéré,Sonviroukpere,official,11.083695,2.881267,BJ-000,,
-1336648,-1928963,settlement,Todjimè,Todjime,official,6.883333,1.633333,BJ-000,,
-1336125,-1928351,settlement,Soglocodji,Soglocodji,official,6.372356,2.235087,BJ-000,,
-1335988,-1928185,hydrographic,Séna,Sena,official,11.109788,3.621318,BJ-AK,,
-1336135,-1928364,hydrographic,Sokassina,Sokassina,official,10.600104,3.263514,BJ-AL,,
-1336487,-1928787,settlement,Temé,Teme,official,10.186795,2.892561,BJ-000,,
-1336776,-1929109,settlement,Touvou,Touvou,official,7,1.716667,BJ-000,,
-1336897,-1929256,settlement,Wéra,Wera,official,9.874508,3.013371,BJ-000,,
-1337088,-1929474,settlement,Zobodomé,Zobodome,variant,7.067249,2.11755,BJ-000,,
-1335764,-1927913,hydrographic,Sabidogo,Sabidogo,official,10.85697,2.941185,BJ-000,,
-1336218,-1928459,hydrographic,Souanré,Souanre,official,9.516226,2.529868,BJ-000,,
-1335834,-1928001,settlement,Samou,Samou,official,11.243542,2.24721,BJ-000,,
-1336429,-1929171,settlement,Waladé,Walade,variant,9.68666,1.381305,BJ-000,,
-1336903,-1927543,settlement,Ouékéré,Ouekere,variant,9.733158,2.512544,BJ-000,,
-1336934,-1929303,settlement,Woré,Wore,official,9.923539,3.181229,BJ-000,,
-1337112,-1929504,settlement,Zoungbodji,Zoungbodji,official,6.337325,2.08934,BJ-000,,
-1336439,-1928726,hydrographic,Tchapalanga,Tchapalanga,official,9.55,1.716667,BJ-000,,
-1336721,-1924724,settlement,Dédéra,Dedera,variant,9.708232,1.752186,BJ-000,,
-1335990,-1928187,settlement,Sénakouasso,Senakouasso,official,9.134534,2.582326,BJ-000,,
-1337096,-1924524,administrative_region,"Département du Centre","Departement du Centre",variant,7.266667,2.133333,BJ-ZO,,
-1335946,-1928138,settlement,Ségogourou,Segogourou,official,11.112689,2.34938,BJ-000,,
-1336431,-1928715,settlement,Tchallah,Tchallah,official,8.885262,2.569324,BJ-000,,
-1336516,-1928822,settlement,Tétounga,Tetounga,official,10.855335,1.062845,BJ-000,,
-1336486,-1928786,settlement,Témé,Teme,official,9.89745,2.464932,BJ-000,,
-1335858,-1928030,hydrographic,Sankani,Sankani,official,12.073793,2.814471,BJ-AL,,
-1336047,-1928259,settlement,Sikuro,Sikuro,variant,10.038241,2.760881,BJ-000,,
-1336590,-1928899,settlement,Timmboyerou,Timmboyerou,official,9.748609,2.527077,BJ-000,,
-1336714,-1929045,settlement,Torricada,Torricada,variant,6.576832,2.192025,BJ-000,,
-1336372,-1928645,settlement,Tanmbogolé,Tanmbogole,official,10.682584,1.339271,BJ-000,,
-1337062,-1929444,settlement,Zadan,Zadan,official,7.316667,1.766667,BJ-000,,
-1335801,10889444,settlement,Sakaouan,Sakaouan,official,11.842804,3.234412,BJ-AK,,
-1336042,-1928252,hypsographic,Sikelma,Sikelma,official,10.602192,1.012448,BJ-000,,
-1336359,-1928631,settlement,Tangueita,Tangueita,variant,10.621178,1.266514,BJ-AK,,
-1336278,-1928533,settlement,Tabayorourou,Tabayorourou,official,9.30439,2.538625,BJ-000,,
-1335985,-1928182,hydrographic,Sémi,Semi,official,10.364445,2.869663,BJ-000,,
-1336909,-1929273,settlement,Wétiétié,Wetietie,official,9.372536,1.687692,BJ-000,,
-1336267,-1928515,settlement,So-Zouko,So-Zouko,variant,6.465653,2.413288,BJ-000,,
-1336733,-1929063,settlement,Touga,Touga,official,10.520817,1.036414,BJ-000,,
-1335959,-1928152,settlement,Sékanon,Sekanon,official,10.712323,1.03331,BJ-000,,
-1335991,-1928189,settlement,Sendé,Sende,official,11.617286,3.49808,BJ-AK,,
-1336387,-1928664,settlement,Tantaka,Tantaka,official,10.634039,1.328004,BJ-000,,
-1336051,-1928266,settlement,Simlita,Simlita,official,7.1,1.7,BJ-000,,
-1335909,-1928089,hydrographic,Sassakana,Sassakana,official,8.770867,1.699756,BJ-000,,
-1335830,-1927997,settlement,Samokonarou,Samokonarou,official,10.265479,2.82982,BJ-000,,
-1336825,-1927586,settlement,Oulaougou,Oulaougou,variant,9.583333,1.8,BJ-000,,
-1336787,-1929120,settlement,Tsomanéhoué,Tsomanehoue,official,7.4,1.633333,BJ-000,,
-1335769,-1927918,settlement,Sabiniékonkouarou,Sabiniekonkouarou,official,11.464924,2.533048,BJ-000,,
-1336810,-1929152,settlement,Wabou,Wabou,official,10.483333,1.45,BJ-000,,
-1336428,-1928712,settlement,Tchakpécondji,Tchakpecondji,official,6.383333,2.166667,BJ-000,,
-1336128,-1928357,settlement,Sohoué-Dovoté,Sohoue-Dovote,official,7.105139,1.951242,BJ-000,,
-1336539,-1928845,hydrographic,Tiani,Tiani,official,10.60578,1.115916,BJ-000,,
-1336423,-1928704,hydrographic,Tatougou,Tatougou,official,10.366667,0.933333,BJ-000,,
-1336026,-1928234,settlement,Setmsi-Kpemrhou,Setmsi-Kpemrhou,official,9.55,1.866667,BJ-000,,
-1336689,-1929009,settlement,Toloma,Toloma,official,11.476268,2.557731,BJ-000,,
-1336937,-1929307,hydrographic,Worou,Worou,official,10.456955,1.927958,BJ-000,,
-1336000,-1928204,settlement,Sérébou,Serebou,official,9.814374,2.973688,BJ-000,,
-1336578,-1928886,settlement,Tihoun,Tihoun,official,10.805632,1.080481,BJ-000,,
-1336367,-1928640,settlement,Tankoalé,Tankoale,official,10.882947,1.053065,BJ-000,,
-1336767,-1929100,settlement,Tountarou,Tountarou,official,9.837721,3.24998,BJ-000,,
-1336530,-1928711,settlement,Tchakelno,Tchakelno,variant,9.81593,1.572702,BJ-000,,
-1337070,-1929454,settlement,Zanbara,Zanbara,variant,10.465933,3.530074,BJ-BO,,
-1336903,-1927555,settlement,Ouéréké,Ouereke,variant,9.733158,2.512544,BJ-000,,
-1337099,-1929488,settlement,Zoudji,Zoudji,official,7.872373,1.810189,BJ-000,,
-1336397,-1928676,hydrographic,Taoungba,Taoungba,official,9.141778,1.977009,BJ-000,,
-1336479,-1928775,settlement,Téhoukom,Tehoukom,official,6.666667,1.816667,BJ-000,,
-1336161,-1928394,settlement,Sondou,Sondou,official,9.818959,2.975435,BJ-000,,
-1336663,-1928981,settlement,Tokamé,Tokame,official,7.016667,1.833333,BJ-000,,
-1336854,10889242,hydrographic,Ouaraténa,Ouaratena,official,11.111338,3.671954,BJ-AK,,
-1336219,-1928460,hydrographic,Souara,Souara,official,9.376957,2.385224,BJ-000,,
-1336670,-1928989,settlement,Tokoï-Goungou,Tokoi-Goungou,variant,11.906961,3.278339,BJ-AK,,
-1336533,-1928839,settlement,Tian,Tian,official,9.425514,2.565427,BJ-000,,
-1336643,-1928956,settlement,Tobounkparo,Tobounkparo,official,9.257679,2.646761,BJ-000,,
-1336763,-1929096,settlement,Tounouhoué,Tounouhoue,official,7.033333,1.733333,BJ-000,,
-1335819,-1927980,settlement,Salakpalou,Salakpalou,official,9.718987,2.785489,BJ-000,,
-1335817,-1927691,settlement,Pandolou,Pandolou,variant,9.910046,1.578011,BJ-000,,
-1335809,-1928373,settlement,Sokouéou,Sokoueou,variant,10.936851,1.062436,BJ-000,,
-1336296,-1928556,settlement,Takété,Takete,official,8.070031,1.651121,BJ-000,,
-1337067,-1929450,settlement,Zakanmé,Zakanme,official,7.233333,1.916667,BJ-000,,
-1336797,-1929139,settlement,Vénahoué,Venahoue,official,6.816667,1.683333,BJ-000,,
-1337115,-1929508,settlement,Zounkpa,Zounkpa,variant,6.683333,1.833333,BJ-000,,
-1336019,-1928223,settlement,Sérouhé,Serouhe,official,6.9,2.283333,BJ-000,,
-1336885,11114962,hydrographic,Ouéhimi,Ouehimi,official,10.630235,3.666891,BJ-000,,
-1336040,-1928250,settlement,Siètarha,Sietarha,official,9.889396,1.375471,BJ-000,,
-1336037,-1928247,settlement,Sidikoulou,Sidikoulou,official,11.180492,2.312121,BJ-000,,
-1336629,-1928940,hydrographic,Tiri,Tiri,official,9.549809,3.122427,BJ-000,,
-1336027,-1928235,settlement,Setto,Setto,official,7.50463,2.079542,BJ-000,,
-1337096,-1924523,administrative_region,Center,Center,variant,7.266667,2.133333,BJ-ZO,,
-1336229,-1928470,settlement,Soubroukou,Soubroukou,official,9.671538,1.631575,BJ-000,,
-1336142,-1928374,settlement,Sokouhoué,Sokouhoue,official,6.894304,1.674284,BJ-000,,
-1336220,-1928445,hydrographic,Sota,Sota,variant,10.462857,3.502202,BJ-000,,
-1335756,-1927904,settlement,Sâa,Saa,official,11.175152,3.067734,BJ-AK,,
-1336371,-1928644,settlement,Tanmbogakoundi,Tanmbogakoundi,official,10.795866,1.033141,BJ-000,,
-1335969,-1928164,settlement,Sékougourou,Sekougourou,official,10.387271,1.748476,BJ-000,,
-1336208,-1928447,settlement,So-Tchahoué,So-Tchahoue,official,6.471871,2.412071,BJ-000,,
-1337090,-1929478,settlement,Zomakizi,Zomakizi,official,8.001771,2.084716,BJ-000,,
-1336555,-1928861,spot,Tiatingou,Tiatingou,official,10.824175,1.467608,BJ-000,,
-1336724,-1929052,settlement,Tota,Tota,official,6.799253,1.784132,BJ-000,,
-1335846,-1928015,hydrographic,Sané,Sane,official,10.749487,3.06235,BJ-AL,,
-1336052,-1928267,hydrographic,Sina,Sina,official,10.345846,3.386771,BJ-BO,,
-1335926,-1928109,hydrographic,Sayananga,Sayananga,official,9.916667,1.666667,BJ-000,,
-1336821,-1929165,settlement,Wakèdè,Wakede,official,9.666667,1.383333,BJ-000,,
-1336520,-1928826,spot,Tiadanfaga,Tiadanfaga,official,10.621413,1.419668,BJ-000,,
-1336235,-1928478,settlement,Sougoulo,Sougoulo,official,7.1,1.9,BJ-000,,
-1336702,-1929024,settlement,Tonkoté,Tonkote,official,11.741297,3.366213,BJ-AK,,
-1336170,-1928403,settlement,Sonmbararou,Sonmbararou,official,11.156974,2.830647,BJ-000,,
-1336708,-1929032,hydrographic,Torakou,Torakou,official,9.816667,3.116667,BJ-000,,
-1336719,-1929047,settlement,Tosougon,Tosougon,official,7.433333,1.966667,BJ-000,,
-1335771,-1927920,settlement,"Sabissé Konpararou","Sabisse Konpararou",official,9.448684,2.623456,BJ-000,,
-1336125,-1928353,settlement,Sogolocodji,Sogolocodji,variant,6.372356,2.235087,BJ-000,,
-1336442,9175887,settlement,Tchalinga,Tchalinga,official,9.811669,1.391227,BJ-DO,,
-1336867,-1929217,settlement,Wassa-Tobré,Wassa-Tobre,official,10.177186,2.128374,BJ-000,,
-1336860,-1929210,settlement,Wari-Maro,Wari-Maro,official,9.164791,2.152562,BJ-000,,
-1336587,-1928896,hydrographic,Timmba,Timmba,official,9.709383,2.039926,BJ-000,,
-1336874,-1927660,settlement,Ouyatpounga,Ouyatpounga,variant,10.360922,1.51724,BJ-000,,
-1336097,-1928318,settlement,Siréboiné,Sireboine,official,10.879862,0.91066,BJ-000,,
-1335768,-1927917,settlement,Sabinésson,Sabinesson,official,11.037001,2.280647,BJ-000,,
-1336610,-1928921,settlement,Tinra,Tinra,official,10.59251,2.826514,BJ-000,,
-1336839,-1929187,settlement,Wanou,Wanou,official,9.029075,2.053021,BJ-000,,
-1336722,-1929050,hydrographic,Tossi,Tossi,official,8.060318,2.618695,BJ-000,,
-1336602,-1928913,settlement,Tinetini,Tinetini,official,10.870203,1.171833,BJ-000,,
-1337019,-1929396,hydrographic,Yélora,Yelora,official,9.6,1.816667,BJ-000,,
-1336471,-1928765,settlement,Tébou,Tebou,official,9.917222,1.808056,BJ-DO,,
-1336827,-1929175,settlement,Wamoréga,Wamorega,variant,9.841763,1.750253,BJ-000,,
-1336335,-1928600,hypsographic,Tanatouta,Tanatouta,official,10.225791,1.452138,BJ-000,,
-1336064,-1928284,settlement,Sinassénou,Sinassenou,official,10.679975,2.748347,BJ-000,,
-1336747,-1929124,settlement,Tukuntuma,Tukuntuma,variant,10.502791,1.374374,BJ-AK,,
-1336041,-1928251,hydrographic,Sihomé,Sihome,official,10.708857,0.899188,BJ-000,,
-1336707,-1929031,settlement,Tora,Tora,official,10.665397,1.349207,BJ-000,,
-1336324,-1928586,settlement,Tamasséka,Tamasseka,official,9.7,1.65,BJ-000,,
-1336713,-1929036,settlement,Tori,Tori,variant,6.503015,2.144098,BJ-000,,
-1336107,-1929485,hydrographic,"Rivière Zou","Riviere Zou",variant,6.469756,2.408812,BJ-000,,
-1335995,-1928195,settlement,Sépounga,Sepounga,official,10.3273,1.642717,BJ-000,,
-1335836,-1928003,hydrographic,Sana,Sana,official,10.669299,3.214544,BJ-AL,,
-1336714,-1929039,settlement,Tori-Cada,Tori-Cada,official,6.576832,2.192025,BJ-000,,
-1336762,-1929095,hypsographic,Tounkpérou,Tounkperou,official,9.159728,2.186002,BJ-000,,
-1336302,-1928562,settlement,Takonta,Takonta,official,10.062937,1.389937,BJ-000,,
-1335840,-1928009,settlement,Sanbuioum,Sanbuioum,official,10.781302,1.074759,BJ-000,,
-1336230,-1928471,park,"Forêt Classée de Soubroukou","Foret Classee de Soubroukou",official,9.683333,1.633333,BJ-000,,
-1336987,-1929363,hydrographic,Yapouana,Yapouana,official,10.569433,3.339219,BJ-BO,,
-1335919,-1928099,park,"Forêt Classée de Savalou","Foret Classee de Savalou",official,7.962868,1.974608,BJ-000,,
-1336266,-1928513,settlement,Sovlégni,Sovlegni,official,7.327645,1.836968,BJ-000,,
-1336388,-1928665,settlement,Tantané,Tantane,official,10.523673,0.81699,BJ-000,,
-1336294,-1928551,hydrographic,Taï,Tai,official,11.138994,3.239929,BJ-000,,
-1336054,-1928269,settlement,Sinabanou,Sinabanou,official,10.617752,2.661398,BJ-000,,
-1335964,-1928158,settlement,Sékoboumparo,Sekoboumparo,official,9.850512,3.319349,BJ-000,,
-1335971,-1928166,settlement,Sékoukparou,Sekoukparou,official,10.068488,2.351472,BJ-000,,
-1336008,-1928212,settlement,Sérholrhou,Serholrhou,official,9.666667,1.616667,BJ-000,,
-1336159,-1928392,hydrographic,Sondarou,Sondarou,official,10.108866,2.678063,BJ-000,,
-1336448,-1928741,hydrographic,Tchiada,Tchiada,official,8.131675,1.800329,BJ-000,,
-1335752,-1927898,settlement,Rafaïtchikpa,Rafaitchikpa,official,9.45,1.466667,BJ-000,,
-1336257,-1928501,settlement,Souroubora,Souroubora,official,10.341683,2.044524,BJ-000,,
-1336284,-1928539,settlement,Tadogoyanta,Tadogoyanta,official,10.27087,1.339665,BJ-000,,
-1337109,-1929500,settlement,Zoumoumè,Zoumoume,official,6.699124,1.740468,BJ-000,,
-1336603,-1928914,settlement,Tinétinou,Tinetinou,official,10.578283,1.374263,BJ-000,,
-1336059,-1928277,hydrographic,Sina-Issire,Sina-Issire,official,10.105229,1.294297,BJ-000,,
-1336497,-1928800,settlement,Tenntakou,Tenntakou,official,10.402114,1.371139,BJ-000,,
-1335966,-1928160,settlement,Sèkolrho,Sekolrho,official,9.633494,1.721821,BJ-000,,
-1336204,-1928442,settlement,Sosso,Sosso,official,9.736945,2.592631,BJ-000,,
-1337033,-1929411,settlement,Yéroumagaya,Yeroumagaya,official,11.465532,2.608437,BJ-000,,
-1335741,-1927883,hydrographic,Poumou,Poumou,official,11.662542,2.343762,BJ-000,,
-1336101,-1928322,hydrographic,Sirou,Sirou,official,9.65,2.483333,BJ-000,,
-1336384,-1928660,settlement,Tansé,Tanse,official,10.429657,1.693431,BJ-000,,
-1336904,-1929264,settlement,Wéria,Weria,official,9.351446,2.739723,BJ-000,,
-1336655,-1928972,spot,Togougouandé,Togougouande,official,10.637089,1.435073,BJ-000,,
-1336894,-1929255,settlement,Wenu,Wenu,variant,9.784919,2.636687,BJ-BO,,
-1336454,-1928748,settlement,Tchiko,Tchiko,official,7.380387,1.99215,BJ-000,,
-1336368,-1928641,settlement,Tankonga,Tankonga,official,10.733333,1.666667,BJ-000,,
-1336908,-1924756,settlement,"Dempage Tiéné","Dempage Tiene",variant,9.766667,1.616667,BJ-000,,
-1335816,-1927975,settlement,Sakpéta,Sakpeta,official,7.283333,1.666667,BJ-000,,
-1336620,-1928931,hydrographic,Tiongo,Tiongo,official,8.145829,1.91854,BJ-000,,
-1336933,-1929302,settlement,Woré,Wore,official,9.39448,2.628063,BJ-000,,
-1336048,-1928260,hydrographic,Silébonga,Silebonga,variant,10.488897,0.686388,BJ-000,,
-1336631,-1928943,settlement,Tisserou,Tisserou,official,9.8,3.016667,BJ-000,,
-1336705,-1929029,settlement,Topoga,Topoga,official,10.571604,0.98718,BJ-AK,,
-1336267,-1928517,settlement,"So Zuco","So Zuco",variant,6.465653,2.413288,BJ-000,,
-1335889,-1928065,settlement,Saoubézé,Saoubeze,official,10.754802,3.591006,BJ-AL,,
-1336338,-1928603,hypsographic,Tandavo,Tandavo,official,10.832522,1.550166,BJ-000,,
-1336006,-1928210,settlement,Séré-Wandirou,Sere-Wandirou,official,9.966401,3.078809,BJ-000,,
-1336331,-1928594,settlement,Tampèroun,Tamperoun,official,9.866667,1.6,BJ-000,,
-1335850,-1928022,settlement,Sangou,Sangou,official,10.861272,1.461436,BJ-000,,
-1336802,-1929144,hydrographic,Vlan,Vlan,official,10.436172,3.548129,BJ-000,,
-1336890,11114330,hydrographic,Ouéna,Ouena,official,10.549536,3.294623,BJ-BO,,
-1336287,-1928542,hypsographic,Tadouota,Tadouota,official,10.337619,1.144653,BJ-000,,
-1336837,-1927501,settlement,Ouanko,Ouanko,variant,10.060386,1.294191,BJ-000,,
-1335860,-1928032,settlement,Sankoudé,Sankoude,official,9.725336,3.124432,BJ-000,,
-1336277,-1928532,settlement,Tabanga-Tiéta,Tabanga-Tieta,official,10.135354,1.297048,BJ-000,,
-1336134,-1928363,settlement,Soka,Soka,official,10.022815,2.556716,BJ-000,,
-1336216,-1928456,hydrographic,Souan,Souan,official,9.906413,2.628063,BJ-000,,
-1336599,-1928910,settlement,Tindou,Tindou,official,9.09416,2.8869,BJ-000,,
-1337077,-1929462,hydrographic,Zengo,Zengo,official,9.633333,1.65,BJ-000,,
-1336467,-1928761,settlement,Tchoukou,Tchoukou,official,7.816667,1.766667,BJ-000,,
-1335962,-1928155,settlement,Sékéré,Sekere,official,10.448192,2.45031,BJ-000,,
-1336887,-1924954,hydrographic,Doninga,Doninga,variant,10.083333,1.366667,BJ-000,,
-1336677,-1928996,settlement,Tokou,Tokou,official,9.949527,2.855785,BJ-000,,
-1335942,-1928130,settlement,Ségbana,Segbana,official,10.928213,3.694293,BJ-AL,,
-1336966,-1929337,settlement,Yakokparo,Yakokparo,official,9.979778,3.292005,BJ-000,,
-1336576,-1928883,settlement,Tieuélra,Tieuelra,official,9.666667,1.65,BJ-000,,
-1335888,-1928064,settlement,Saoré-Son,Saore-Son,official,10.233281,2.512741,BJ-000,,
-1336976,-1929351,settlement,Yamoussakparou,Yamoussakparou,official,10.203014,3.320227,BJ-BO,,
-1336339,-1928604,settlement,Tandji,Tandji,official,6.939607,1.972458,BJ-000,,
-1336378,-1928651,settlement,Tannda,Tannda,official,10.219608,1.572676,BJ-000,,
