wgdPlaceId,wgdId,type,name,fullName,nameType,latitude,longitude,administrationGroup,isHistorical,isCapital
-788481,-1136019,settlement,Rahn,Rahn,official,17.133333,54.1,OM-ZU,,
-3789648,18210678,hypsographic,"جبال القمر","جبال القمر",unknown,16.847851,53.340749,S1-000,,
-3789648,18210650,hypsographic,"Jabal al Qamr","Jabal al Qamr",variant,16.847851,53.340749,S1-000,,
-3789648,18210652,hypsographic,"جبل القمر","جبل القمر",unknown,16.847851,53.340749,S1-000,,
-3789648,18210651,hypsographic,"Jabal al Qamar","Jabal al Qamar",official,16.847851,53.340749,S1-000,,
-3789648,-5028529,hypsographic,"Jibāl al Qamar","Jibal al Qamar",official,16.847851,53.340749,S1-000,,
-3191915,-4512546,hydrographic,"Shi‘b Shibitha","Shi`b Shibitha",variant,17.326879,52.760549,S1-000,,
-3191915,18180609,hydrographic,"Shi‘b Shabathah","Shi`b Shabathah",official,17.326879,52.760549,S1-000,,
-3191915,14249949,hydrographic,"Wādī Shabathah","Wadi Shabathah",variant,17.326879,52.760549,S1-000,,
-3191915,18180610,hydrographic,"شعب شبثة","شعب شبثة",unknown,17.326879,52.760549,S1-000,,
-3189959,14259020,hydrographic,"Wādī Mitān","Wadi Mitan",variant,18.709127,52.584885,S1-000,,
-3190219,18095556,hydrographic,"وادي ناريت","وادي ناريت",unknown,17.406872,52.810853,S1-000,,
-3189959,17916502,hydrographic,"وادي ميتن","وادي ميتن",unknown,18.709127,52.584885,S1-000,,
-3189959,17916501,hydrographic,"Wādī Maytan","Wadi Maytan",official,18.709127,52.584885,S1-000,,
-3190219,12904733,hydrographic,"وادي نهرت","وادي نهرت",unknown,17.406872,52.810853,S1-000,,
-3189959,-4509179,hydrographic,"Wādī Mītan","Wadi Mitan",official,18.709127,52.584885,S1-000,,
-3190219,14249460,hydrographic,"Wādī Nārayt","Wadi Narayt",official,17.406872,52.810853,S1-000,,
-3190219,-4509648,hydrographic,"Wādī Nahrit","Wadi Nahrit",variant,17.406872,52.810853,S1-000,,
-3189314,-4508106,hydrographic,"Shi‘b Mahdoeet","Shi`b Mahdoeet",variant,17.368516,52.707571,S1-000,,
-3189332,-4508142,park,Mahrah,Mahrah,official,17.416667,53,S1-000,,
-3189314,18180614,hydrographic,"شعب مهديت","شعب مهديت",unknown,17.368516,52.707571,S1-000,,
-3189314,14249458,hydrographic,"Shi‘b Maḩdwīt","Shi`b Mahdwit",variant,17.368516,52.707571,S1-000,,
-3189314,18180613,hydrographic,"Shi‘b Mahdīt","Shi`b Mahdit",official,17.368516,52.707571,S1-000,,
-3098686,-4361961,hypsographic,"Ar Rimal","Ar Rimal",variant,21,51,S1-000,,
-3098686,-4373397,hypsographic,Ruba’-al-Khāli,Ruba'-al-Khali,variant,21,51,S1-000,,
-3098686,-4373283,hypsographic,"Rhub al Khali","Rhub al Khali",variant,21,51,S1-000,,
-3098686,-4373401,hypsographic,"Rub‘ al Khali","Rub` al Khali",colloquial,21,51,S1-000,,
-3098686,18035233,hypsographic,"الربع الخالي","الربع الخالي",unknown,21,51,S1-000,,
-3098686,-4361855,hypsographic,"Ar Rab‘ al Khālī","Ar Rab` al Khali",variant,21,51,S1-000,,
-3098686,-4366160,hypsographic,"Great Sandy Desert","Great Sandy Desert",variant,21,51,S1-000,,
-3098686,-4511244,hypsographic,"Ar Rub‘ al Khālī","Ar Rub` al Khali",official,21,51,S1-000,,
-3098686,-4365268,hypsographic,"Empty Quarter","Empty Quarter",variant,21,51,S1-000,,
-3098686,-4364378,hypsographic,Dahna,Dahna,variant,21,51,S1-000,,
-3094895,18886761,park,غنيم,غنيم,unknown,19.990578,54.76653,S1-000,,
-3094895,-4365888,park,Ghanīm,Ghanim,official,19.990578,54.76653,S1-000,,
-3094897,18886438,hypsographic,"Ghunaym ash Shaybah","Ghunaym ash Shaybah",official,19.956578,54.577238,S1-000,,
-3094897,-4365891,hypsographic,"Ghanīm ash Shaybah","Ghanim ash Shaybah",official,19.956578,54.577238,S1-000,,
-3094897,18886740,hypsographic,"غنيم الشيبة","غنيم الشيبة",unknown,19.956578,54.577238,S1-000,,
-3093725,19111000,hydrographic,"وادي بلدي","وادي بلدي",unknown,22.069486,55.468225,S1-000,,
-3093725,-4363333,hydrographic,"Wādī Baladī","Wadi Baladi",official,22.069486,55.468225,S1-000,,
-3093725,-4363334,hydrographic,"Wudayy al Baladī","Wudayy al Baladi",variant,22.069486,55.468225,S1-000,,
-3092884,15503473,hypsographic,"Shibh al Jazīrah al ‘Arabīyah","Shibh al Jazirah al `Arabiyah",official,25,45,S1-000,,
-3092546,-4373208,park,Rawashid,Rawashid,variant,19.333333,53.333333,OM-ZU,,
-3092883,-4363787,park,"Bilād al ‘Arab","Bilad al `Arab",official,25,45,S1-000,,
-3092546,-4361004,park,"Āl Rāshid","Al Rashid",official,19.333333,53.333333,OM-ZU,,
-3092884,11181255,hypsographic,"جزيرة العرب","جزيرة العرب",unknown,25,45,S1-000,,
-3092883,15503254,park,"بلاد العرب","بلاد العرب",unknown,25,45,S1-000,,
-3092883,-4368270,park,"Jazīrat al ‘Arab","Jazirat al `Arab",variant,25,45,S1-000,,
-3092883,-4361700,park,Arabia,Arabia,colloquial,25,45,S1-000,,
-3092884,15503472,hypsographic,"Jazīrat al ‘Arab","Jazirat al `Arab",variant,25,45,S1-000,,
-3092884,15503474,hypsographic,"شبه الجزيرة العربية","شبه الجزيرة العربية",unknown,25,45,S1-000,,
-3092546,-4361911,park,"Ar Rashid","Ar Rashid",variant,19.333333,53.333333,OM-ZU,,
-3092884,-4361702,hypsographic,"Arabian Peninsula","Arabian Peninsula",colloquial,25,45,S1-000,,
-934031,18775175,hydrographic,"وادي شيك","وادي شيك",unknown,24.180507,55.969005,S1-000,,
-934031,-1381575,hydrographic,"Wādī Shīk","Wadi Shik",variant,24.180507,55.969005,S1-000,,
-934031,18775240,hydrographic,"Wādī ash Shīk","Wadi ash Shik",variant,24.180507,55.969005,S1-000,,
-934031,18775174,hydrographic,"Wādī Shayk","Wadi Shayk",variant,24.180507,55.969005,S1-000,,
-934031,18775239,hydrographic,"وادي الشّيك","وادي الشيك",unknown,24.180507,55.969005,S1-000,,
-934031,18775238,hydrographic,"Wādī ash Shayk","Wadi ash Shayk",official,24.180507,55.969005,S1-000,,
-934031,-1381573,hydrographic,"Wādī Chich","Wadi Chich",variant,24.180507,55.969005,S1-000,,
-930479,12905348,hydrographic,"وادي شحن","وادي شحن",unknown,18.161162,52.919188,S1-000,,
-931168,-1377397,hydrographic,"Wādī Siqattah","Wadi Siqattah",variant,25.617542,56.233874,S1-000,,
-930479,-4851994,hydrographic,"Wādī Shaḩan","Wadi Shahan",variant,18.161162,52.919188,S1-000,,
-931168,18657679,hydrographic,"وادي سقطة","وادي سقطة",unknown,25.617542,56.233874,S1-000,,
-930479,18061450,hydrographic,"Wādī Shiḥan","Wadi Shihan",variant,18.161162,52.919188,S1-000,,
-931168,18657673,hydrographic,"Wādī Siqţţah","Wadi Siqttah",official,25.617542,56.233874,S1-000,,
-931168,-1377423,hydrographic,"Wādī Siqatta","Wadi Siqatta",variant,25.617542,56.233874,S1-000,,
-930479,-1376394,hydrographic,"Wādī Shiḩan","Wadi Shihan",official,18.161162,52.919188,S1-000,,
-931168,18657688,hydrographic,"Wādī Saqṭah","Wadi Saqtah",variant,25.617542,56.233874,S1-000,,
-931168,-1377396,hydrographic,"Wādī Siqattah","Wadi Siqattah",official,25.617542,56.233874,S1-000,,
-924153,-1368134,hydrographic,"Wadi Samain","Wadi Samain",variant,24.60836,56.02499,OM-BU,,
-924153,18679385,hydrographic,"Wādī as Sumaynī","Wadi as Sumayni",official,24.60836,56.02499,OM-BU,,
-924153,18679386,hydrographic,"وادي السميني","وادي السميني",unknown,24.60836,56.02499,OM-BU,,
-924153,-1367775,hydrographic,"Wādī Sumaynī","Wadi Sumayni",variant,24.60836,56.02499,OM-BU,,
-788595,-1136219,hydrographic,"Thuqbat Sā‘ah","Thuqbat Sa`ah",official,24.083333,56.016667,OM-BU,,
-788864,14613101,hydrographic,Sheaishat,Sheaishat,variant,17.111332,53.995368,OM-ZU,,
-788864,-1136665,hydrographic,Sherishatt,Sherishatt,official,17.111332,53.995368,OM-ZU,,
-788544,-1136119,settlement,Riqqah,Riqqah,official,24.083333,56.466667,OM-BS,,
-788684,18630425,settlement,Ṣallān,Sallan,variant,24.393701,56.727208,OM-BS,,
-788328,-1135772,settlement,Qadhait,Qadhait,official,17.111111,54.455278,OM-ZU,,
-788328,506253,settlement,Qadheit,Qadheit,variant,17.111111,54.455278,OM-ZU,,
-788919,18843080,settlement,"Ash Shurayjāt","Ash Shurayjat",official,22.973795,57.554059,OM-DA,,
-789190,18661048,settlement,Ṭimīt,Timit,variant,24.755811,56.224652,OM-BU,,
-788770,18886652,settlement,سيق,سيق,unknown,22.509584,59.122924,OM-DA,,
-789049,18707891,settlement,"سور البلوش","سور البلوش",unknown,24.621824,56.52385,OM-BS,,
-788738,-1136463,settlement,Sawāqim,Sawaqim,variant,23.259125,58.777945,OM-MA,,
-789099,-1137050,settlement,Tana’am,Tana'am,variant,23.145007,56.471623,OM-ZA,,
-789107,18773914,settlement,"Aṭ Ṭurayf","At Turayf",variant,23.74641,57.621603,OM-BS,,
-788756,-1136849,hypsographic,"Jebel Siyah","Jebel Siyah",variant,21.85,59.433333,OM-SJ,,
-789204,-1137190,hydrographic,"Wādī ‘Udayy","Wadi `Udayy",variant,23.618066,58.481741,OM-MA,,
-788714,19079664,park,"شعبة صقر","شعبة صقر",unknown,19.727149,57.467088,OM-WU,,
-788786,-1136538,hypsographic,"Jabal Shabbah","Jabal Shabbah",variant,20.52469,58.903727,OM-SJ,,
-789088,-1137030,settlement,Suwayyah,Suwayyah,official,23.676243,57.068941,OM-BS,,
-789127,-1137090,settlement,"Ţawī Sulaym","Tawi Sulaym",official,22.552261,58.67478,OM-SS,,
-788592,13132029,settlement,السعادي,السعادي,unknown,23.312191,58.565074,OM-MA,,
-788795,-1136553,hypsographic,"Jazīrat Shaghaf","Jazirat Shaghaf",variant,20.460146,58.748282,OM-SJ,,
-788296,-1135691,hydrographic,Nujub,Nujub,variant,17.137371,54.498308,OM-ZU,,
-788835,-1136616,hydrographic,"Qāriḩat Sharīyah","Qarihat Shariyah",official,23.18868,56.377145,OM-ZA,,
-788942,19151283,settlement,صيبي,صيبي,unknown,26.20804,56.41784,OM-MU,,
-789081,-1137021,settlement,Şuwayḩirah,Suwayhirah,variant,24.31642,56.78289,OM-BS,,
-789398,-1137485,hydrographic,"Ţawī Zākhir","Tawi Zakhir",official,24.584167,55.858611,OM-BU,,
-788778,-1136321,hypsographic,"Ras Saiir","Ras Saiir",variant,17.511516,56.09507,OM-ZU,,
-788755,18796245,settlement,السّيح,السيح,unknown,23.027455,58.011448,OM-DA,,
-789158,19041831,hypsographic,"قاعة ثاث","قاعة ثاث",unknown,20.105396,57.546153,OM-WU,,
-788678,18830933,hydrographic,"Wādī as Salīl","Wadi as Salil",official,23.264063,58.818944,OM-MA,,
-788966,-1136836,park,Sir,Sir,official,22.970422,56.971332,OM-DA,,
-789206,-1131632,hydrographic,"Wadi Adhaylat","Wadi Adhaylat",variant,17.966667,55.483333,OM-ZU,,
-788664,-1136337,settlement,Salala,Salala,variant,17.015046,54.09237,OM-ZU,,
-789371,18944943,hypsographic,"رملة يبلا","رملة يبلا",unknown,19.60038,54.37098,OM-ZU,,
-788674,19275201,hypsographic,"عرق السليل","عرق السليل",unknown,23.10693,55.6912,OM-ZA,,
-789368,18798057,hydrographic,"Khawr Yankit","Khawr Yankit",official,23.527468,58.703858,OM-MA,,
-788640,-1136290,settlement,"Sāḩil Ḩarmūl","Sahil Harmul",variant,24.527334,56.596528,OM-BS,,
-789370,-1137445,hypsographic,"Qurūn Yibāl","Qurun Yibal",official,22.092779,56.073781,OM-ZA,,
-788928,-1136771,hypsographic,"Jabal Shuwā‘ī","Jabal Shuwa`i",variant,23.341079,56.688574,OM-DA,,
-788985,18775082,settlement,"Aṣ Ṣibaykhā’","As Sibaykha'",variant,23.382262,57.661124,OM-BJ,,
-788797,19117886,settlement,Shāḩik,Shahik,official,22.43089,58.77181,OM-SS,,
-788571,19339258,hypsographic,"Khuraymat al Ḩāl","Khuraymat al Hal",official,23.09319,55.24621,S1-000,,
-789318,-1137361,settlement,Wāsiţ,Wasit,variant,22.449298,58.020877,OM-SS,,
-789152,-1137121,settlement,Thalfūt,Thalfut,variant,16.704025,53.242194,OM-ZU,,
-789298,-1136705,settlement,Shirş,Shirs,variant,23.774393,57.617514,OM-BS,,
-788641,-1136292,hypsographic,"Ramlat Sahm","Ramlat Sahm",variant,23.763611,55.550556,S1-000,,
-789105,-1132446,settlement,"At Tāqa","At Taqa",variant,17.048258,54.390627,OM-ZU,,
-788842,-1136630,hydrographic,"Ţawī Sharqīyah","Tawi Sharqiyah",official,23.282222,57.335,OM-BJ,,
-789019,18843355,settlement,"As Sulaymī","As Sulaymi",official,22.763922,57.847115,OM-DA,,
-788663,18873420,hypsographic,"Jabal Ṣalakh","Jabal Salakh",variant,22.336082,57.383104,OM-DA,,
-789260,18649467,hydrographic,"وادي العرف","وادي العرف",unknown,22.388487,56.750795,OM-DA,,
-789056,-1136966,settlement,Suraima,Suraima,variant,21.062396,58.357893,OM-WU,,
-789078,-1137014,settlement,Suwayd,Suwayd,official,23.388056,57.035833,OM-DA,,
-788990,18770665,hypsographic,"Sayḥ Sudayrah","Sayh Sudayrah",variant,24.030959,55.962973,OM-BU,,
-788725,19265341,hydrographic,"وادي السرين","وادي السرين",unknown,23.24336,58.53433,OM-MA,,
-789275,19198840,hydrographic,"Wādī al ‘Uwaynah","Wadi al `Uwaynah",variant,24.27708,56.8121,OM-BS,,
-789032,-1136942,settlement,Sumayyah,Sumayyah,variant,22.909268,58.883262,OM-MA,,
-789340,18771101,spot,"Khawr Widām","Khawr Widam",variant,23.807457,57.570871,OM-BS,,
-789409,469606,settlement,Z̧ābi‘ah,Zabi`ah,variant,23.45012,57.11427,OM-DA,,
-788795,-1136552,hypsographic,"Jazīrat Shaghā","Jazirat Shagha",variant,20.460146,58.748282,OM-SJ,,
-789217,19106020,settlement,"أم عديلات","أم عديلات",unknown,21.695924,58.641609,OM-SS,,
-789009,-1132401,settlement,"As Sohār","As Sohar",variant,24.364297,56.746807,OM-BS,,
-789421,18843403,settlement,زكيت,زكيت,unknown,22.880406,57.750947,OM-DA,,
-789271,-1137299,hydrographic,"Wādī ‘Uwayfī","Wadi `Uwayfi",official,22.015511,56.5743,OM-DA,,
-789119,18742547,settlement,"Aţ Ţawī","At Tawi",official,24.383893,56.311855,OM-BS,,
-788833,19146656,hypsographic,"رأس شراتي","رأس شراتي",unknown,26.38855,56.37869,OM-MU,,
-788602,14161339,hydrographic,"Wādī Sabkayr","Wadi Sabkayr",variant,17.032532,54.462822,OM-ZU,,
-788618,-1136250,park,Şafaḩ,Safah,official,23.196323,55.471184,OM-ZA,,
-788763,-1136503,park,"Sayḩ Nuhaydah","Sayh Nuhaydah",variant,21.439875,56.975459,OM-WU,,
-789031,18843078,hydrographic,"Wādī Sumayţ","Wadi Sumayt",official,22.986992,57.548694,OM-DA,,
-788756,-1136495,hypsographic,"Jabal Sayḩ","Jabal Sayh",official,21.85,59.433333,OM-SJ,,
-788791,19152317,hydrographic,"غبة شابوص","غبة شابوص",unknown,26.1844,56.45711,OM-MU,,
-788803,18776153,settlement,"Ash Shakhākhīṭ","Ash Shakhakhit",variant,23.698634,58.040014,OM-BJ,,
-789265,18875593,hydrographic,"Wādī al ‘Ishaysh","Wadi al `Ishaysh",variant,22.228397,57.622563,OM-DA,,
-788894,-1136725,hydrographic,"Wādī Shiţţah","Wadi Shittah",variant,20.219197,57.735196,OM-WU,,
-788940,14595534,hypsographic,"Qurūn ash Shuyūkh","Qurun ash Shuyukh",variant,17.56366,53.221234,OM-ZU,,
-788956,18221755,hypsographic,"سيح معال رخيوت","سيح معال رخيوت",unknown,16.799713,53.387671,OM-ZU,,
-788840,18827258,hypsographic,"Jabal Mudhayrīb al ‘Ayjah","Jabal Mudhayrib al `Ayjah",official,20.57851,58.90732,OM-SJ,,
-788645,18908610,hypsographic,"رملة السحمة","رملة السحمة",unknown,20.553982,55.219727,OM-WU,,
-789288,18787186,settlement,Wibil,Wibil,official,23.429993,57.436915,OM-BJ,,
-788939,-1136788,hydrographic,"Ţawī Shuyū‘īyah","Tawi Shuyu`iyah",official,23.755556,56.363611,OM-ZA,,
-789367,-1137436,settlement,Yawīyah,Yawiyah,official,23.142222,57.447222,OM-DA,,
-788594,-1136212,hypsographic,"Jabal Sa’a","Jabal Sa'a",variant,24.07369,56.04423,OM-BU,,
-788899,18708903,settlement,الشويمية,الشويمية,unknown,17.885002,55.605285,OM-ZU,,
-789014,-1136906,settlement,Suḩayrah,Suhayrah,variant,23.861899,56.643086,OM-BS,,
-787851,-1135009,park,Mahāmid,Mahamid,official,22.75,56.5,OM-000,,
-788774,-1136514,hydrographic,"Wādī Sayqah","Wadi Sayqah",official,16.989388,53.964707,OM-ZU,,
-789341,-1137391,settlement,Wūdam,Wudam,variant,23.809212,57.550925,OM-BS,,
-789218,-1137216,hydrographic,"Bi’r Umm al ‘Ajūz","Bi'r Umm al `Ajuz",official,21.444493,57.37104,OM-DA,,
-789157,-1132435,settlement,"Ath Tharmad","Ath Tharmad",official,23.78854,57.522738,OM-BS,,
-789237,19112120,hydrographic,"Um as Samim","Um as Samim",variant,21.775629,55.766835,OM-ZA,,
-788571,17828350,hypsographic,"Al Hāl","Al Hal",variant,23.09319,55.24621,S1-000,,
-788611,18736150,settlement,Şaddān,Saddan,official,23.762744,56.930674,OM-BS,,
-788626,18851419,hypsographic,"Ṣufrat ad Dawḥ","Sufrat ad Dawh",variant,22.559937,57.827623,OM-DA,,
-789331,-1137379,hydrographic,"West Horn Reef","West Horn Reef",official,20.7,58.883333,OM-SJ,,
-789221,18723986,hypsographic,"لجمة أم البقر","لجمة أم البقر",unknown,23.893164,56.056116,OM-BU,,
-789419,-1137517,park,Dhofar,Dhofar,colloquial,17.0425,54.165278,OM-ZU,,
-788711,-1136411,hydrographic,"Shi‘b Şanfah","Shi`b Sanfah",official,20.197764,58.58296,OM-SJ,,
-789019,18843389,settlement,"As Silaymī","As Silaymi",variant,22.763922,57.847115,OM-DA,,
-789380,-1137456,hydrographic,"Wādī Yuhaylah","Wadi Yuhaylah",official,22.751395,56.700143,OM-DA,,
-789296,-1137328,settlement,Wadīm,Wadim,variant,22.668023,57.348632,OM-DA,,
-788573,18719579,hypsographic,"رقعة علي","رقعة علي",unknown,23.844722,55.573056,OM-BU,,
-789415,-1137510,settlement,Zikt,Zikt,variant,23.093832,57.430136,OM-DA,,
-788845,18663139,hydrographic,"Wādī Shirī","Wadi Shiri",variant,24.64272,55.961283,OM-BU,,
-788717,-1136911,hypsographic,"Qarn Sukhīlah","Qarn Sukhilah",variant,23.214988,57.624452,OM-BJ,,
-788587,-1136208,hypsographic,"Jabal Ruwayshid","Jabal Ruwayshid",official,24.8175,56.178611,S1-000,,
-789225,18723233,hydrographic,"طوي الحاسي","طوي الحاسي",unknown,23.714784,55.85521,OM-BU,,
-788582,-1136202,hypsographic,"‘Irq ar Ruwayk","`Irq ar Ruwayk",official,23.24904,55.95217,OM-ZA,,
-789037,-1136958,hydrographic,Sunrik,Sunrik,variant,17.583333,55.183333,OM-ZU,,
-789086,19338914,hydrographic,"Wādī as Suwayḩ","Wadi as Suwayh",official,23.03289,58.99037,OM-MA,,
-789365,18736408,hydrographic,"وادي ينقل","وادي ينقل",unknown,23.526269,56.54115,OM-ZA,,
-788743,-1136472,settlement,Şawqarah,Sawqarah,official,18.157824,56.538585,OM-WU,,
-788624,18222621,settlement,صفكوت,صفكوت,unknown,16.761727,53.488725,OM-ZU,,
-789142,-1137044,hypsographic,"Sayḩ Taiyya","Sayh Taiyya",official,23.853889,55.789167,OM-BU,,
-789143,-1137107,settlement,Ţayyib,Tayyib,variant,23.42627,57.16291,OM-BJ,,
-789394,-1135180,hydrographic,Marzun,Marzun,variant,19.177558,57.585263,OM-WU,,
-788765,18793366,settlement,سيجاء,سيجاء,unknown,23.211376,57.878316,OM-DA,,
-788738,18830956,settlement,"As Sawāqum","As Sawaqum",variant,23.259125,58.777945,OM-MA,,
-788586,-1136206,settlement,"Ruwaylat Badw","Ruwaylat Badw",variant,24.16023,56.89701,OM-BS,,
-789270,-1137300,hydrographic,‘Uwayfiyah,`Uwayfiyah,variant,22.252356,56.975872,OM-DA,,
-789388,18621598,hydrographic,"وادي ضبعين","وادي ضبعين",unknown,24.639055,56.525635,OM-BS,,
-788755,-1136494,settlement,Sayḩ,Sayh,variant,23.027455,58.011448,OM-DA,,
-788848,-1136637,settlement,Shāţ,Shat,variant,23.11304,58.51645,OM-SS,,
-788846,18686091,hydrographic,"دوحة الشّرية","دوحة الشرية",unknown,25.835997,56.366625,OM-MU,,
-789373,19267436,settlement,يقاء,يقاء,unknown,23.38576,57.18907,OM-DA,,
-788924,18798090,hypsographic,"Ra’s ash Shiṭayfī","Ra's ash Shitayfi",variant,23.636001,58.564262,OM-MA,,
-789036,-1136948,settlement,Şunaybi‘,Sunaybi`,official,23.195556,57.5575,OM-BJ,,
-788899,18708902,settlement,"Ash Shuwaymīyah","Ash Shuwaymiyah",official,17.885002,55.605285,OM-ZU,,
-788834,-1136615,settlement,Shariyah,Shariyah,variant,23.44476,57.321689,OM-BJ,,
-788778,-1136518,hypsographic,"Ra’s Sayyir","Ra's Sayyir",variant,17.511516,56.09507,OM-ZU,,
-788701,18877074,settlement,صومحان,صومحان,unknown,22.983768,58.588486,OM-SS,,
-788851,18688110,hydrographic,"Wādī Ashawq","Wadi Ashawq",variant,16.910313,53.749022,OM-ZU,,
-788808,-1136571,settlement,Shām,Sham,official,23.889329,56.540235,OM-BS,,
-789280,-1137311,hydrographic,‘Uyūn,`Uyun,variant,17.25289,53.880839,OM-ZU,,
-788659,19198839,hydrographic,"وادي السخن","وادي السخن",unknown,24.20383,56.87059,OM-BS,,
-788729,13333508,settlement,"Hayy as Saruj","Hayy as Saruj",variant,23.611504,58.456918,OM-MA,,
-788579,-1135527,park,Musandam,Musandam,variant,26,56.25,OM-MU,,
-788845,18663110,hydrographic,"وادي شري","وادي شري",unknown,24.64272,55.961283,OM-BU,,
-788726,-1136435,hydrographic,"‘Ayn Sarīt","`Ayn Sarit",official,17,53.85,OM-ZU,,
-788714,-1136416,park,"Shi‘b Sāq","Shi`b Saq",variant,19.727149,57.467088,OM-WU,,
-789301,56229,settlement,"Al Wadīyāt","Al Wadiyat",variant,24.778495,56.45487,OM-BS,,
-788620,-1136254,settlement,Şafā’iq,Safa'iq,variant,20.440221,58.7729,OM-SJ,,
-789154,19005985,hydrographic,"وادي ثمريت","وادي ثمريت",unknown,17.8093,54.058879,OM-ZU,,
-788891,-1136658,hydrographic,"Wādī Shazaz","Wadi Shazaz",variant,18.054692,54.462225,OM-ZU,,
-788701,18877086,settlement,Ṣawmaḥān,Sawmahan,variant,22.983768,58.588486,OM-SS,,
-789025,19041856,hypsographic,"Jabal Sumaynah","Jabal Sumaynah",official,20.387914,57.723128,OM-WU,,
-789118,18769785,settlement,"طوي البدو","طوي البدو",unknown,23.526952,57.330798,OM-BJ,,
-789240,-1137214,hydrographic,"Ţawī Um Bak","Tawi Um Bak",variant,24.226871,55.960666,OM-BU,,
-789351,-1137409,hypsographic,"Niqyān Ya‘d","Niqyan Ya`d",official,23.363559,55.618608,OM-ZA,,
-788748,18791729,settlement,صعبة,صعبة,unknown,23.390338,57.837908,OM-BJ,,
-788674,-1136371,hypsographic,"‘Irq al- Ṣallal","`Irq al- Sallal",variant,23.10693,55.6912,OM-ZA,,
-788731,-1136441,hypsographic,"Jabal Sarūr","Jabal Sarur",official,23.35415,58.12597,OM-DA,,
-789188,18149730,hydrographic,طبيق,طبيق,unknown,18.247026,52.402841,S1-000,,
-788930,-1136639,hypsographic,Shauwāmīya,Shauwamiya,variant,17.895546,55.901673,OM-ZU,,
-789316,18851418,settlement,"Al Wāshḥī","Al Washhi",variant,22.722225,57.999552,OM-DA,,
-789230,19172486,settlement,"أم الجعاريف","أم الجعاريف",unknown,24.11247,56.93986,OM-BS,,
-789426,-1137526,settlement,Z̧uwayhir,Zuwayhir,official,24.383333,56.033333,OM-BU,,
-788828,465878,hypsographic,"Ra’s Shiyā’","Ra's Shiya'",official,22.557627,59.651048,OM-SJ,,
-788971,-1136842,hypsographic,"Jazīrat Şīrah","Jazirat Sirah",official,23.585278,58.604444,OM-MA,,
-789397,-1137484,hydrographic,Zākhir,Zakhir,official,24.633333,55.816667,OM-BU,,
-788617,19261025,hydrographic,"وادي الصفا","وادي الصفا",unknown,23.43479,55.74105,OM-ZA,,
-788653,-1137003,settlement,Suwaida,Suwaida,variant,23.688932,56.755178,OM-000,,
-789093,-1132445,hydrographic,"Wādī Attabarran","Wadi Attabarran",variant,17.450119,55.257067,OM-ZU,,
-789377,14531605,hydrographic,"Wādī Yişţaḩ","Wadi Yistah",official,17.74206,53.9,OM-ZU,,
-788652,-1137002,settlement,Suwaida,Suwaida,variant,23.631466,56.805018,OM-ZA,,
-788617,-1136249,hydrographic,"Wādī aş Şafá","Wadi as Safa",variant,23.43479,55.74105,OM-ZA,,
-788820,469609,settlement,Shanīţah,Shanitah,variant,23.34486,57.02803,OM-DA,,
-789019,-1136920,settlement,Sulaymī,Sulaymi,variant,22.763922,57.847115,OM-DA,,
-789152,-1133114,settlement,Dhalqut,Dhalqut,variant,16.704025,53.242194,OM-ZU,,
-789394,-1137475,hydrographic,"Wādī Z̧āhir","Wadi Zahir",variant,19.177558,57.585263,OM-WU,,
-788952,-1136815,hypsographic,"Jabal Sigaret Asheikh","Jabal Sigaret Asheikh",official,17.115556,54.120833,OM-ZU,,
-789103,-1137056,hydrographic,"Wādī Ţanūf","Wadi Tanuf",official,23.052561,57.470019,OM-DA,,
-788693,-1136383,hydrographic,Salūtīyāt,Salutiyat,official,20.240532,57.788944,OM-WU,,
-788951,-1136812,hydrographic,"Wādī Sīfah","Wadi Sifah",official,23.782858,55.760878,OM-BU,,
-789400,18789424,settlement,"Az Zāmah","Az Zamah",official,23.216948,57.403425,OM-DA,,
-789267,-1137295,hydrographic,"Wādī Uthābah","Wadi Uthabah",official,23.883333,57.333333,OM-BS,,
-788890,-1136708,hydrographic,Shirzawt,Shirzawt,official,17.104722,54.005833,OM-ZU,,
-789048,18707892,settlement,"سور العبري","سور العبري",unknown,24.651666,56.504563,OM-BS,,
-789287,18794731,settlement,منال,منال,unknown,23.180699,57.866614,OM-DA,,
-789042,-1136957,settlement,Sunnī,Sunni,variant,23.41175,57.11911,OM-DA,,
-789387,18592112,settlement,ضبعين,ضبعين,unknown,24.514543,56.365353,OM-BS,,
-789009,-1136853,settlement,Sohār,Sohar,variant,24.364297,56.746807,OM-BS,,
-788573,18719580,hypsographic,"Riq‘at ‘Alī","Riq`at `Ali",variant,23.844722,55.573056,OM-BU,,
-789318,18876433,settlement,الواسط,الواسط,unknown,22.449298,58.020877,OM-SS,,
-789008,-1132409,spot,"Aş Şuḩār","As Suhar",variant,24.375126,56.738798,OM-BS,,
-789061,-1136984,settlement,"Sūr Banī Khuzaymāt","Sur Bani Khuzaymat",variant,24.668915,56.50522,OM-BS,,
-788767,-1136507,settlement,Saymā’,Sayma',official,22.78639,59.228258,OM-SJ,,
-788843,-1136631,hydrographic,"Ţawī Sharqīyah","Tawi Sharqiyah",official,23.433333,55.766667,OM-ZA,,
-789047,12422816,settlement,صور,صور,unknown,22.566667,59.528889,OM-SJ,,
-789307,18789509,settlement,Wijmah,Wijmah,variant,23.220532,57.306844,OM-DA,,
-789210,18855540,settlement,"Al Likhayḍur","Al Likhaydur",variant,22.626352,58.006947,OM-DA,,
-789297,13137804,settlement,"وادي الميح","وادي الميح",unknown,23.432132,58.55294,OM-MA,,
-789107,-1137063,settlement,Ţarīf,Tarif,variant,23.74641,57.621603,OM-BS,,
-789194,12905232,hydrographic,"وادي توسنات","وادي توسنات",unknown,17.941086,53.010451,S1-000,,
-789051,19171994,settlement,"سور البلوش","سور البلوش",unknown,24.16809,56.88633,OM-BS,,
-788783,18990376,settlement,Shīhayt,Shihayt,official,17.042682,54.008217,OM-ZU,,
-789080,-1137006,park,Suwaihat,Suwaihat,variant,20.028619,56.148827,OM-WU,,
-788892,-1136719,hydrographic,"Dawḩat ash Shīshah","Dawhat ash Shishah",variant,26.265366,56.438444,OM-MU,,
-789045,18080072,hydrographic,"وادي سوقة","وادي سوقة",unknown,17.712464,52.983773,OM-ZU,,
-788975,18843106,settlement,السّيّاحي,السياحي,unknown,22.78777,57.746611,OM-DA,,
-789073,-1137000,settlement,"Suwādī ‘Alwā","Suwadi `Alwa",variant,23.739428,57.735646,OM-BJ,,
-789419,-1133221,park,Ḑufār,Dufar,variant,17.0425,54.165278,OM-ZU,,
-788649,18794725,settlement,Wuşād,Wusad,official,23.156703,57.853916,OM-DA,,
-788612,19194231,hydrographic,"Wādī aş Şad","Wadi as Sad",variant,24.53752,56.10986,OM-BU,,
-789396,18789459,hydrographic,"وادي ضاعن","وادي ضاعن",unknown,23.088868,57.290994,OM-DA,,
-788634,-1136816,hydrographic,"Ţawī Sighābah","Tawi Sighabah",official,23.995833,55.845833,OM-BU,,
-789366,-1137435,hydrographic,"Ţawī Yasīr","Tawi Yasir",official,22.605237,57.574022,OM-DA,,
-788568,-1136166,settlement,Rumays,Rumays,variant,23.683864,57.995247,OM-BJ,,
-788851,18217721,hydrographic,"وادي الشوق","وادي الشوق",unknown,16.910313,53.749022,OM-ZU,,
-788633,19091037,hypsographic,"رأس الصقلة","رأس الصقلة",unknown,21.513561,59.382161,OM-SJ,,
-788846,-1136619,hydrographic,Sharjah,Sharjah,variant,25.835997,56.366625,OM-MU,,
-788975,-1136851,settlement,Siyyah,Siyyah,variant,22.78777,57.746611,OM-DA,,
-788862,-1136655,hypsographic,"Ra’s Shaykh Mas‘ūd","Ra's Shaykh Mas`ud",variant,26.248858,56.212986,OM-MU,,
-789069,-1132418,hypsographic,"As Suwādi","As Suwadi",variant,23.788896,57.784092,OM-BJ,,
-788801,-1136551,hypsographic,"Ras al Shagar","Ras al Shagar",variant,22.969167,59.185833,OM-MA,,
-788662,-1136333,hydrographic,"Ţawī Şalāḩīyah","Tawi Salahiyah",official,23.801667,55.886111,OM-BU,,
-788790,-1136541,hydrographic,"Wādī Shabon","Wadi Shabon",variant,17.025278,54.646667,OM-ZU,,
-789302,-1137332,settlement,"Wadīyah al Ḩadrīyah","Wadiyah al Hadriyah",variant,23.64482,57.202898,OM-BS,,
-788687,18789511,settlement,Ṣalmā’,Salma',variant,23.196221,57.369706,OM-DA,,
-789338,-1137393,hydrographic,"Wādī Wudayqis","Wadi Wudayqis",official,23.617948,58.476539,OM-MA,,
-788680,-1136367,hydrographic,"Ţawī Sālim","Tawi Salim",official,24.654708,55.862299,OM-BU,,
-788720,19198779,hydrographic,"وادي الصرمي","وادي الصرمي",unknown,24.13518,56.87616,OM-BS,,
-788570,18735159,settlement,"Ar Rumayḩ","Ar Rumayh",official,23.748847,56.222267,OM-ZA,,
-789122,-1137084,spot,"Ţawī Jinnī","Tawi Jinni",official,23.487006,57.811406,OM-BJ,,
-789013,-1136905,hydrographic,"Wādī Suḩaymah","Wadi Suhaymah",variant,24.671565,55.920943,OM-BU,,
-789073,18773927,settlement,"As Sawādī al Ḥakmān","As Sawadi al Hakman",variant,23.739428,57.735646,OM-BJ,,
-789297,18830553,settlement,"Al Mazra‘ al Alwī","Al Mazra` al Alwi",variant,23.432132,58.55294,OM-MA,,
-788629,-1136267,settlement,Şafwān,Safwan,official,24.560366,55.841584,OM-BU,,
-788932,19199499,hydrographic,"وادي الشويهي","وادي الشويهي",unknown,24.66725,56.04888,OM-BU,,
-789074,18877618,hypsographic,"Jabal as Sūdiyyah","Jabal as Sudiyyah",variant,22.656154,58.720502,OM-SS,,
-789315,-1137356,settlement,Wāshiḩī,Washihi,variant,22.573227,58.193808,OM-SS,,
-789100,18639352,hydrographic,"وادي تنعم","وادي تنعم",unknown,23.0705,56.379395,OM-ZA,,
-788956,18125626,hypsographic,"Sayḩ Māl Rakhyūt","Sayh Mal Rakhyut",variant,16.799713,53.387671,OM-ZU,,
-788904,18886712,settlement,شوفي,شوفي,unknown,22.635301,59.296336,OM-SJ,,
-788710,18855668,settlement,سناو,سناو,unknown,22.501139,58.030105,OM-SS,,
-788989,18735112,settlement,الحجاج,الحجاج,unknown,23.879167,56.382222,OM-ZA,,
-789216,-1132201,hydrographic,"Wādī ‘Amairi","Wadi `Amairi",variant,21.558656,56.16628,OM-ZA,,
-789124,-1137086,settlement,"Ţawī Nuşş","Tawi Nuss",variant,22.916019,57.725112,OM-DA,,
-788960,-1136827,hypsographic,"Sayḩ as Silm","Sayh as Silm",official,22.959707,56.483065,OM-ZA,,
-789167,-1137143,settlement,Thumayd,Thumayd,official,23.42679,58.09492,OM-DA,,
-789345,18798088,settlement,"Al Wuṭayyah","Al Wutayyah",variant,23.603819,58.51358,OM-MA,,
-789194,14226450,hydrographic,"Wādī Tawsīnāt","Wadi Tawsinat",variant,17.941086,53.010451,S1-000,,
-789109,-1133123,hydrographic,"Wādī Dharif","Wadi Dharif",variant,18.934214,57.344379,OM-WU,,
-788675,467642,hypsographic,"Ramlat Saylah","Ramlat Saylah",official,23.098889,56.072222,OM-ZA,,
-788652,-1136306,settlement,Sa‘īdah,Sa`idah,official,23.631466,56.805018,OM-ZA,,
-789232,-1137243,hypsographic,"Jazīrat Umm al Kids","Jazirat Umm al Kids",variant,20.351802,58.61339,OM-SJ,,
-789404,-1137498,settlement,Zawājah,Zawajah,variant,23.460372,57.314341,OM-BJ,,
-788994,19267757,settlement,السودي,السودي,unknown,23.4787,57.19355,OM-BJ,,
-788645,-1135827,hypsographic,"Qarn as-Sahama","Qarn as-Sahama",variant,20.553982,55.219727,OM-WU,,
-789046,18747373,hypsographic,"جبل صقور","جبل صقور",unknown,23.421147,56.914416,OM-DA,,
-789234,-1137247,hydrographic,"Umm ar Raşāş","Umm ar Rasas",official,20.441223,58.753312,OM-SJ,,
-789243,-1137261,hypsographic,"Ramlat Umm Dasīs","Ramlat Umm Dasis",variant,19.700241,54.770681,OM-ZU,,
-789032,-1136396,settlement,Samā‘īyah,Sama`iyah,variant,22.909268,58.883262,OM-MA,,
-788785,18884422,hydrographic,"وادي الشاب","وادي الشاب",unknown,22.839216,59.245261,OM-SJ,,
-789099,-1137052,settlement,Tan‘am,Tan`am,official,23.145007,56.471623,OM-ZA,,
-789319,-1137362,settlement,Wāsiţ,Wasit,variant,22.941389,57.592889,OM-DA,,
-788628,-1136265,hypsographic,"Jabal Şafratayn","Jabal Safratayn",variant,24.162437,55.991699,OM-BU,,
-788732,18830932,hypsographic,"Jabal as Sa‘tarī","Jabal as Sa`tari",official,23.300498,58.868466,OM-MA,,
-789244,18735791,hypsographic,"جبل العنضوان","جبل العنضوان",unknown,24.268469,56.001166,OM-BU,,
-789275,19198843,hydrographic,"وادي العوينات","وادي العوينات",unknown,24.27708,56.8121,OM-BS,,
-789284,-1137315,hydrographic,"Wādī ‘Uyūn","Wadi `Uyun",official,17.295766,53.772365,OM-ZU,,
-788948,-1136804,hydrographic,"Wādī Sidarah","Wadi Sidarah",official,23.871389,56.0625,OM-BU,,
-788570,18735162,settlement,"Ar Rumayyaḩ","Ar Rumayyah",variant,23.748847,56.222267,OM-ZA,,
-789125,18843103,settlement,"طوي سعدة","طوي سعدة",unknown,22.9521,57.67224,OM-DA,,
-788569,-1136167,settlement,Rumayyah,Rumayyah,variant,23.755021,56.205188,OM-ZA,,
-788933,-1136779,park,Shuwayhīyīn,Shuwayhiyin,official,24.75,56.183333,OM-000,,
-789344,14598369,hydrographic,"Wādī Wishām","Wadi Wisham",variant,17.283892,53.280271,OM-ZU,,
-788896,18663138,hydrographic,"Wādī ash Shijā’","Wadi ash Shija'",official,24.66221,55.93664,OM-BU,,
-788583,-1136203,hydrographic,"Wādī Ruwaykī","Wadi Ruwayki",variant,23.577413,58.12038,OM-MA,,
-788830,-1136704,hypsographic,"Ra’s ash Shirq","Ra's ash Shirq",variant,21.646172,59.460306,OM-SJ,,
-789179,19027578,hypsographic,تدبور,تدبور,unknown,17.079261,53.982646,OM-ZU,,
-788941,18855486,spot,"Muscat International","Muscat International",official,23.601145,58.287135,OM-MA,,
-788739,18789465,hypsographic,"عقبة سودة","عقبة سودة",unknown,23.232611,57.475974,OM-BJ,,
-788925,12681348,hypsographic,"قرن شتانى","قرن شتانى",unknown,17.553746,53.284013,OM-ZU,,
-788941,13268256,spot,"As Seeb International Airport","As Seeb International Airport",variant,23.601145,58.287135,OM-MA,,
-789404,18787195,settlement,الزواجر,الزواجر,unknown,23.460372,57.314341,OM-BJ,,
-789385,-1137463,hydrographic,"Khawr az̧ Z̧abī","Khawr az Zabi",official,22.167495,56.825359,OM-DA,,
-788777,-1136517,settlement,Şayyah,Sayyah,variant,23.687726,56.551149,OM-ZA,,
-788852,-1136644,hydrographic,"Ţawī Shawqab","Tawi Shawqab",official,22.050083,58.78369,OM-SS,,
-789065,19086855,settlement,"Şūr Muşayrah","Sur Musayrah",official,20.416078,58.734853,OM-SJ,,
-789001,-1136891,hydrographic,"Ţawī Şufīyah","Tawi Sufiyah",official,23.666111,56.139444,OM-ZA,,
-788950,19102031,hypsographic,"جزيرة أم الصيفة","جزيرة أم الصيفة",unknown,20.391372,58.632703,OM-SJ,,
-789356,-1137419,park,"Yāl ‘Abd as Salām","Yal `Abd as Salam",official,24.083333,56.95,OM-BS,,
-788995,18628747,hydrographic,"Wādī Şadam","Wadi Sadam",official,24.015994,56.540686,OM-BS,,
-789213,-1137202,settlement,‘Ulūb,`Ulub,official,17.088332,54.059996,OM-ZU,,
-789085,-1137027,hypsographic,"Jabal Şuwayr","Jabal Suwayr",official,20.183333,58.65,OM-000,,
-788698,-1137122,hydrographic,"Wādi ath Thamail","Wadi ath Thamail",variant,23.522115,58.10765,OM-DA,,
-789390,18630415,settlement,الزّعفران,الزعفران,unknown,24.412321,56.704756,OM-BS,,
-789414,-1137508,hydrographic,"Wādī Zibrá","Wadi Zibra",variant,22.531146,56.5124,OM-DA,,
-789063,-1136987,settlement,"Sūr Khuşaybī","Sur Khusaybi",variant,24.660037,56.512952,OM-BS,,
-789387,-1137466,settlement,Z̧ab‘īn,Zab`in,variant,24.514543,56.365353,OM-BS,,
-789015,14144652,settlement,Sukaykirah,Sukaykirah,official,22.546046,59.507771,OM-SJ,,
-789332,-1137380,hydrographic,"West Khawr","West Khawr",short,16.989537,54.035152,OM-ZU,,
-789419,-1133155,park,Dhufar,Dhufar,variant,17.0425,54.165278,OM-ZU,,
-789068,18876304,hypsographic,"قرن السواد","قرن السواد",unknown,22.064278,57.913388,OM-DA,,
-788715,12791022,hydrographic,صاق,صاق,unknown,17.061225,53.268066,OM-ZU,,
-789204,-1131611,hydrographic,"Wadi Adai","Wadi Adai",variant,23.618066,58.481741,OM-MA,,
-788715,-1136417,hydrographic,Saqā’,Saqa',variant,17.061225,53.268066,OM-ZU,,
-788780,-1136520,hypsographic,"Jabal Scharab","Jabal Scharab",variant,24.920443,56.026202,OM-BU,,
-789131,18798058,settlement,"Ţuwyān Yitī","Tuwyan Yiti",official,23.507152,58.666052,OM-MA,,
-789063,18707888,settlement,"Ḥillat al Khuṣaybī","Hillat al Khusaybi",variant,24.660037,56.512952,OM-BS,,
-789101,18099329,hydrographic,Miḩdaf,Mihdaf,variant,17.301566,52.919334,S1-000,,
-788896,18663081,hydrographic,"Wādī ash Shajā’","Wadi ash Shaja'",variant,24.66221,55.93664,OM-BU,,
-789406,18706237,hypsographic,"Jabal Zalūl","Jabal Zalul",official,17.902263,55.489899,OM-ZU,,
-789010,-1136902,settlement,Suhaylah,Suhaylah,variant,24.267886,56.371056,OM-BU,,
-788791,-1136545,hydrographic,"Ghubbat ash Shābūş","Ghubbat ash Shabus",variant,26.1844,56.45711,OM-MU,,
-788710,18855648,settlement,Sināw,Sinaw,official,22.501139,58.030105,OM-SS,,
-788852,-1136638,hydrographic,"Tawi Shauqab","Tawi Shauqab",variant,22.050083,58.78369,OM-SS,,
-789087,-1137008,hypsographic,"Jabal Suwait","Jabal Suwait",variant,25.661414,56.257821,OM-MU,,
-788597,18776154,hydrographic,"Wādī Si‘āl","Wadi Si`al",official,23.52813,58.20322,OM-MA,,
-788638,19198797,hydrographic,"وادي صحم","وادي صحم",unknown,24.20084,56.86485,OM-BS,,
-788867,18737903,hydrographic,"Shib al Gat","Shib al Gat",variant,24.056018,55.739161,S1-000,,
-789244,18735790,hypsographic,"Jabal al ‘Anḑuwān","Jabal al `Anduwan",official,24.268469,56.001166,OM-BU,,
-788632,-1136272,hydrographic,"Wādī Şafwān","Wadi Safwan",official,24.548033,55.910698,OM-BU,,
-789402,-1133051,hypsographic,"Ras Darri","Ras Darri",variant,20.215968,58.72317,OM-SJ,,
-788806,18703458,settlement,"Shalīm wa Juzur al Ḥallānīyyāt","Shalim wa Juzur al Hallaniyyat",variant,18.102523,55.65333,OM-ZU,,
-788632,18676247,hydrographic,"وادي ضفوان","وادي ضفوان",unknown,24.548033,55.910698,OM-BU,,
-788941,18779482,spot,"مطار مسقط الدّولي","مطار مسقط الدولي",unknown,23.601145,58.287135,OM-MA,,
-789299,18759627,hydrographic,"وادي الودية","وادي الودية",unknown,23.789915,57.285758,OM-BS,,
-788780,18661053,hypsographic,"جبل شغب","جبل شغب",unknown,24.920443,56.026202,OM-BU,,
-788846,18686090,hydrographic,"Dawḩat ash Sharyah","Dawhat ash Sharyah",official,25.835997,56.366625,OM-MU,,
-788611,-1136875,settlement,Şudāmah,Sudamah,variant,23.762744,56.930674,OM-BS,,
-789422,19086591,hypsographic,"Ramlat Umm az Zamāyim","Ramlat Umm az Zamayim",official,20.819323,57.152078,OM-WU,,
-789179,14537782,hypsographic,"Jabal Tadbūr","Jabal Tadbur",official,17.079261,53.982646,OM-ZU,,
-789045,12905341,hydrographic,"وادي سخا","وادي سخا",unknown,17.712464,52.983773,OM-ZU,,
-789281,-1137312,settlement,‘Uyūn,`Uyun,variant,22.370933,58.063542,OM-SS,,
-788656,-1136322,settlement,Sailal,Sailal,official,17.133333,54.45,OM-ZU,,
-789393,-1133099,settlement,Dhahir,Dhahir,variant,19.1,56.966667,OM-WU,,
-788820,19267780,settlement,Shinaytah,Shinaytah,official,23.34486,57.02803,OM-DA,,
-789217,19106019,settlement,"Umm ‘Idaylāt","Umm `Idaylat",official,21.695924,58.641609,OM-SS,,
-789423,-1137523,hypsographic,"Qarn Zumaymah","Qarn Zumaymah",official,22.169483,57.157469,OM-DA,,
-788666,18787187,settlement,"As Salam","As Salam",official,23.471037,57.299152,OM-BJ,,
-788585,19171983,settlement,Ruwaylah,Ruwaylah,variant,24.16773,56.89348,OM-BS,,
-788969,19041864,hydrographic,"Ghubbat Şarāb","Ghubbat Sarab",official,20.171024,57.832579,OM-WU,,
-789305,-1137341,hydrographic,"Wādī Waghlah","Wadi Waghlah",official,17.683333,54.2,OM-ZU,,
-788917,18792543,settlement,"Ash Shirayjah","Ash Shirayjah",variant,23.076686,57.645335,OM-DA,,
-789059,-1136982,settlement,Surayr,Surayr,official,19.833333,57.75,OM-WU,,
-789238,19104635,hypsographic,"رملة مسابيخ أم السميم","رملة مسابيخ أم السميم",unknown,21.655842,55.605139,OM-ZA,,
-789261,19080792,hypsographic,"Ramlat al ‘Urūq","Ramlat al `Uruq",official,20.154544,55.593564,OM-WU,,
-788731,19272422,hypsographic,"جبل سرور","جبل سرور",unknown,23.35415,58.12597,OM-DA,,
-788963,-1136830,hydrographic,"Wādī Sinnawr","Wadi Sinnawr",variant,17.041003,54.52866,OM-ZU,,
-788663,18873415,hypsographic,"Jabal Şalakh","Jabal Salakh",official,22.336082,57.383104,OM-DA,,
-788658,-1136328,hydrographic,"Ḩufayr as Sakan","Hufayr as Sakan",official,22.454909,56.711831,OM-DA,,
-789022,-1135173,hydrographic,"Wādī Marrī","Wadi Marri",variant,23.69901,56.248552,OM-ZA,,
-789254,18723929,hydrographic,"Wādī al Aqbiyyah","Wadi al Aqbiyyah",variant,23.780326,56.179817,OM-ZA,,
-788810,18789464,hypsographic,"جبل شمس","جبل شمس",unknown,23.237536,57.264166,OM-DA,,
-788978,-1136858,hypsographic,"South Cone","South Cone",official,20.183333,58.65,OM-SJ,,
-789017,18792546,settlement,"As Sawjrah","As Sawjrah",variant,23.139031,57.669573,OM-DA,,
-788577,-1136189,settlement,Ru’ūs,Ru'us,variant,23.157517,57.542034,OM-DA,,
-788844,18721192,hydrographic,"Wādī Sharyah","Wadi Sharyah",official,23.751777,55.887898,OM-BU,,
-788983,-1136866,hydrographic,"Subāt al ‘Awd","Subat al `Awd",variant,20.825188,58.104555,OM-WU,,
-789204,13287517,hydrographic,"وادي عدي","وادي عدي",unknown,23.618066,58.481741,OM-MA,,
-788783,14586440,settlement,Shīhaytī,Shihayti,variant,17.042682,54.008217,OM-ZU,,
-789051,-1136971,settlement,"Sūr al Balūsh","Sur al Balush",official,24.16809,56.88633,OM-BS,,
-789402,-1133124,hypsographic,"Ras Dharri","Ras Dharri",variant,20.215968,58.72317,OM-SJ,,
-788846,-1136617,hydrographic,"Dawḩat Shārja","Dawhat Sharja",variant,25.835997,56.366625,OM-MU,,
-788905,-1136740,spot,"Masjid Shughah","Masjid Shughah",official,23.048995,57.567947,OM-DA,,
-789199,-1137182,hypsographic,"Ramlat aţ Ţuwayq","Ramlat at Tuwayq",official,21.399376,56.435635,OM-WU,,
-788869,-1132483,hydrographic,"Wādī al ‘Ayn","Wadi al `Ayn",variant,23.200862,56.534156,OM-DA,,
-789372,-1137448,hydrographic,Yida‘ah,Yida`ah,official,20.203576,57.735215,OM-WU,,
-788766,18796224,hydrographic,"Wādī as Sījānī","Wadi as Sijani",official,23.235126,58.080087,OM-DA,,
-789336,18786903,settlement,"Al Wishayl","Al Wishayl",variant,23.47442,57.440849,OM-BJ,,
-788624,18126048,settlement,"Al Ḥawṭah","Al Hawtah",variant,16.761727,53.488725,OM-ZU,,
-788838,19101534,hydrographic,"Jafr Sharkhūtī","Jafr Sharkhuti",official,21.594795,57.989837,OM-SS,,
-788685,18630423,hypsographic,"رأس صلّان","رأس صلان",unknown,24.409129,56.717182,OM-BS,,
-788723,-1136432,settlement,Sarfānah,Sarfanah,variant,24.13117,56.20065,OM-BU,,
-789015,-1136908,settlement,Sukaykirā’,Sukaykira',variant,22.546046,59.507771,OM-SJ,,
-789174,18688486,settlement,تيبات,تيبات,unknown,26.071111,56.109722,OM-MU,,
-788916,-1136555,settlement,Shāghī,Shaghi,variant,22.578192,59.512467,OM-SJ,,
-789232,19102645,hypsographic,"Jazīrat Umm Kads","Jazirat Umm Kads",official,20.351802,58.61339,OM-SJ,,
-789253,18663077,hypsographic,"Ramlat ‘Unayq","Ramlat `Unayq",official,24.60874,55.902307,OM-BU,,
-788566,18707897,settlement,"Ar Rumaylah","Ar Rumaylah",official,24.572462,56.552841,OM-BS,,
-789335,-1137354,park,Washāḩāt,Washahat,official,24.865,56.3225,OM-000,,
-789324,-1137369,hydrographic,"Wādī Wāsiţ","Wadi Wasit",official,23.111667,58.359167,OM-000,,
-788982,-1136865,settlement,"Aş Şubākh","As Subakh",variant,24.69307,56.16441,OM-BU,,
-789304,19190058,settlement,"Waghlat Awlād Wādī","Waghlat Awlad Wadi",official,23.42961,58.1312,OM-DA,,
-788767,18884396,settlement,سيماء,سيماء,unknown,22.78639,59.228258,OM-SJ,,
-789295,476063,settlement,Layḩ,Layh,official,22.422481,59.253155,OM-SJ,,
-789254,-1137279,hydrographic,"Wādī al ‘Uqaybah","Wadi al `Uqaybah",variant,23.780326,56.179817,OM-ZA,,
-789289,18886698,settlement,Wād,Wad,official,22.568197,59.29178,OM-SJ,,
-789055,-1136976,settlement,"Sūr al Mazārī‘","Sur al Mazari`",official,24.644247,56.506939,OM-BS,,
-788703,18774443,settlement,"Aṣ Ṣawmḥān al Janūbiyyah","As Sawmhan al Janubiyyah",variant,23.653584,57.889358,OM-BJ,,
-789043,18795530,settlement,صنب,صنب,unknown,23.487082,58.347637,OM-MA,,
-788638,-1136284,hydrographic,"Wādī Şaḩam","Wadi Saham",official,24.20084,56.86485,OM-BS,,
-789205,12133923,settlement,"Al ‘Udhaybah ash Shamālīyah","Al `Udhaybah ash Shamaliyah",official,23.60126,58.363857,OM-MA,,
-788677,18639356,hydrographic,"Shi‘bat as Silīl","Shi`bat as Silil",variant,23.13132,56.39593,OM-ZA,,
-788914,-1136751,hydrographic,"Wādī Shumayt","Wadi Shumayt",official,23.417479,56.746983,OM-DA,,
-787852,-1135016,hydrographic,"Wādī Maharub","Wadi Maharub",variant,18.866667,54.333333,OM-ZU,,
-789087,18656935,hypsographic,"جبل شقّار","جبل شقار",unknown,25.661414,56.257821,OM-MU,,
-788657,12905435,hypsographic,"رأس سجر","رأس سجر",unknown,16.749167,53.585893,OM-ZU,,
-788745,18704223,hypsographic,"Ra’s Ṣawqrah","Ra's Sawqrah",variant,18.126981,56.550635,OM-BJ,,
-789419,-1133156,park,"Dhufār Plain","Dhufar Plain",variant,17.0425,54.165278,OM-ZU,,
-789174,-1136676,settlement,Shibat,Shibat,variant,26.071111,56.109722,OM-MU,,
-789219,-1137219,hypsographic,"Ramlat Umm al ‘Āriḑ","Ramlat Umm al `Arid",variant,19.777438,54.477581,OM-ZU,,
-788988,-1136872,hydrographic,"Shi‘b Subaytah","Shi`b Subaytah",official,22.692268,56.160194,OM-ZA,,
-788766,18796244,hydrographic,"وادي السيجاني","وادي السيجاني",unknown,23.235126,58.080087,OM-DA,,
-789083,19223945,settlement,السويقمي,السويقمي,unknown,23.04384,58.65406,OM-SS,,
-789146,19083068,hydrographic,"وادي ثاد","وادي ثاد",unknown,21.215764,57.454449,OM-WU,,
-788612,-1136244,hydrographic,"Wādī Sadd","Wadi Sadd",variant,24.53752,56.10986,OM-BU,,
-788628,18770655,hypsographic,"Jabal aş Şufratayn","Jabal as Sufratayn",official,24.162437,55.991699,OM-BU,,
-788840,18827237,hypsographic,"Jabal Mudaydīb al ‘Ayjah","Jabal Mudaydib al `Ayjah",variant,20.57851,58.90732,OM-SJ,,
-789345,-1137402,settlement,"Al Wuţayyah","Al Wutayyah",official,23.603819,58.51358,OM-MA,,
-788630,-1136269,hypsographic,"Qarn Şafwān","Qarn Safwan",official,24.547206,55.831991,OM-BU,,
-788573,18719578,hypsographic,"Ruq‘at ‘Alī","Ruq`at `Ali",official,23.844722,55.573056,OM-BU,,
-788670,18755207,spot,صلح,صلح,unknown,23.543958,57.244054,OM-BJ,,
-788713,18630418,settlement,"Aş Şanqar","As Sanqar",official,24.433864,56.679302,OM-BS,,
-789171,-1137147,hydrographic,"Wādī Thuqaybah","Wadi Thuqaybah",official,24.992711,55.939317,S1-000,,
-789369,18839153,park,جبال,جبال,unknown,22.156024,56.027756,OM-ZA,,
-788686,18630421,hydrographic,"وادي صلّان","وادي صلان",unknown,24.409857,56.716449,OM-BS,,
-789387,18592129,settlement,Ḍab‘ayn,Dab`ayn,variant,24.514543,56.365353,OM-BS,,
-789186,-1137164,hydrographic,Tobruk,Tobruk,variant,17.10061,54.32605,OM-ZU,,
-789270,-1137298,hydrographic,‘Uwayfī,`Uwayfi,official,22.252356,56.975872,OM-DA,,
-788682,-1136370,hypsographic,"Nuqayy Sallā","Nuqayy Salla",official,23.344265,55.447439,OM-ZA,,
-788801,18884395,hypsographic,"رأس الشجر","رأس الشجر",unknown,22.969167,59.185833,OM-MA,,
-789145,-1137114,hypsographic,"Qarn Thād","Qarn Thad",variant,21.379559,57.565631,OM-DA,,
-788575,-1136184,hydrographic,"Wādī Rusayl","Wadi Rusayl",variant,23.65295,58.22923,OM-MA,,
-789214,19241462,settlement,"Al ‘Ilyā’","Al `Ilya'",official,23.10304,58.56736,OM-SS,,
-789240,18770669,hydrographic,"طوي أم باك","طوي أم باك",unknown,24.226871,55.960666,OM-BU,,
-788987,18742315,hypsographic,"Jabal aş Şubaykhī","Jabal as Subaykhi",official,23.299133,56.406337,OM-ZA,,
-789255,18774417,settlement,"العقدة الغربيّة","العقدة الغربية",unknown,23.708407,57.790465,OM-BJ,,
-789319,18843133,settlement,"Al Wāsuṭ","Al Wasut",variant,22.941389,57.592889,OM-DA,,
-788718,-1136421,hydrographic,"Wādī Saqlah","Wadi Saqlah",official,23.212989,57.67059,OM-BJ,,
-788598,18592132,settlement,"Aṣ Ṣibākh","As Sibakh",variant,24.510366,56.456515,OM-BS,,
-789237,-1137246,hydrographic,"Umm al Samim","Umm al Samim",variant,21.775629,55.766835,OM-ZA,,
-788569,18724005,settlement,الرميح,الرميح,unknown,23.755021,56.205188,OM-ZA,,
-788568,18774444,settlement,"Ar Rimays","Ar Rimays",variant,23.683864,57.995247,OM-BJ,,
-788887,-1132356,settlement,"Ash Shinās","Ash Shinas",variant,24.742599,56.466979,OM-BS,,
-789280,14593675,hydrographic,"Sabkhat ‘Uyūn","Sabkhat `Uyun",official,17.25289,53.880839,OM-ZU,,
-788931,-1136777,settlement,Shuwayhah,Shuwayhah,variant,24.6284,56.07713,OM-BU,,
-788663,-1136336,hypsographic,"Jabal Salakh","Jabal Salakh",variant,22.336082,57.383104,OM-DA,,
-789145,-1137115,hypsographic,"Qurn Thad","Qurn Thad",variant,21.379559,57.565631,OM-DA,,
-789306,18753277,hypsographic,"جبل حورة الوهرة","جبل حورة الوهرة",unknown,23.213974,56.758441,OM-DA,,
-788583,18776113,hydrographic,"Wādī ar Ruwaykī","Wadi ar Ruwayki",official,23.577413,58.12038,OM-MA,,
-788571,17836857,hypsographic,"Khiraymat Al H̱al","Khiraymat Al Hal",variant,23.09319,55.24621,S1-000,,
-789369,-1137443,park,"Ḩaql Yibāl","Haql Yibal",variant,22.156024,56.027756,OM-ZA,,
-788837,-1136703,settlement,Shirkho,Shirkho,variant,21.23467,59.01712,OM-SJ,,
-788892,-1136711,hydrographic,"Duhat Shisah","Duhat Shisah",variant,26.265366,56.438444,OM-MU,,
-789058,-1136981,hydrographic,"Ţawī aş Şuraymīyah","Tawi as Suraymiyah",official,23.404444,57.0525,OM-DA,,
-789210,-1137199,settlement,Ukhayḑir,Ukhaydir,variant,22.626352,58.006947,OM-DA,,
-788650,-1136304,hypsographic,"Naqā Sa‘īd","Naqa Sa`id",official,23.868056,55.6,OM-BU,,
-789066,19171968,settlement,"سور الشيادي","سور الشيادي",unknown,24.18947,56.87802,OM-BS,,
-789235,-1137266,settlement,"Umm Raşāş","Umm Rasas",variant,20.470474,58.789185,OM-SJ,,
-789385,-1132986,hydrographic,"Ḩā’ir aḑ Ḑab‘","Ha'ir ad Dab`",variant,22.167495,56.825359,OM-DA,,
-789052,18759628,settlement,"سور آل هلال","سور آل هلال",unknown,23.842336,57.358907,OM-BS,,
-789299,18759644,hydrographic,"Wādī al Wadyah","Wadi al Wadyah",variant,23.789915,57.285758,OM-BS,,
-788787,-1136539,hydrographic,"Wādī Shabīyah","Wadi Shabiyah",variant,22.04174,57.840194,OM-DA,,
-789396,18789508,hydrographic,"Wādī Ḍā‘in","Wadi Da`in",variant,23.088868,57.290994,OM-DA,,
-788987,18742323,hypsographic,"جبل الصبيخي","جبل الصبيخي",unknown,23.299133,56.406337,OM-ZA,,
-789307,18789460,settlement,وجمة,وجمة,unknown,23.220532,57.306844,OM-DA,,
-789199,18873258,hypsographic,"Ramlat aṭ Ṭuwayq","Ramlat at Tuwayq",variant,21.399376,56.435635,OM-WU,,
-788967,-1136837,settlement,Sirā’,Sira',variant,22.689522,58.544915,OM-SS,,
-788747,18656491,hypsographic,"Ra’s as Sawt","Ra's as Sawt",official,25.681856,56.282927,OM-MU,,
-789235,-1137248,settlement,"Umm ar Raşāş","Umm ar Rasas",variant,20.470474,58.789185,OM-SJ,,
-788571,17828352,hypsographic,"Khiraymat al Ḩāll","Khiraymat al Hall",variant,23.09319,55.24621,S1-000,,
-788925,18675406,hypsographic,"قرن شتانة","قرن شتانة",unknown,17.553746,53.284013,OM-ZU,,
-789423,-1137512,hypsographic,Zimaima,Zimaima,variant,22.169483,57.157469,OM-DA,,
-788887,18592131,settlement,Shināṣ,Shinas,variant,24.742599,56.466979,OM-BS,,
-788925,-1136764,hypsographic,"Qārat Shutaina","Qarat Shutaina",variant,17.553746,53.284013,OM-ZU,,
-789357,-1137422,park,"Yāl Burayk","Yal Burayk",official,23.779722,57.618333,OM-BS,,
-788698,-1136928,hydrographic,"Wādī Sumā’il","Wadi Suma'il",variant,23.522115,58.10765,OM-DA,,
-788862,18688627,hypsographic,"Ra’s ash Shaykh Mas‘ūd","Ra's ash Shaykh Mas`ud",official,26.248858,56.212986,OM-MU,,
-788675,-1136360,hypsographic,"Rumayl Salīl","Rumayl Salil",variant,23.098889,56.072222,OM-ZA,,
-788880,-1136692,settlement,Shi‘inzī,Shi`inzi,variant,20.561696,58.929584,OM-SJ,,
-789336,-1137388,settlement,Wishāl,Wishal,variant,23.47442,57.440849,OM-BJ,,
-789320,19239726,settlement,الواسط,الواسط,unknown,23.15609,58.31181,OM-DA,,
-788649,-1136303,settlement,Sā‘id,Sa`id,variant,23.156703,57.853916,OM-DA,,
-789012,18737614,hypsographic,"Jabal Sihaylah","Jabal Sihaylah",variant,23.714233,56.954436,OM-BS,,
-788598,18592115,settlement,الصّباخ,الصباخ,unknown,24.510366,56.456515,OM-BS,,
-788927,-1136770,hypsographic,"Jabal Shuwā‘ī","Jabal Shuwa`i",official,23.0346,56.617112,OM-DA,,
-789232,-1132213,hypsographic,"Jazīrat Amkads","Jazirat Amkads",variant,20.351802,58.61339,OM-SJ,,
-789102,-1137055,settlement,Ţanūf,Tanuf,variant,23.051133,57.46398,OM-DA,,
-788763,-1136319,park,"Saih Nihayda","Saih Nihayda",variant,21.439875,56.975459,OM-WU,,
-788649,18794727,settlement,Wuṣād,Wusad,variant,23.156703,57.853916,OM-DA,,
-788813,14128626,hydrographic,"Wadi Shamah","Wadi Shamah",variant,22.541638,59.527543,OM-SJ,,
-788985,18775063,settlement,الصّبيخاء,الصبيخاء,unknown,23.382262,57.661124,OM-BJ,,
-788711,-1136413,hydrographic,"Shi‘b Sanfar","Shi`b Sanfar",variant,20.197764,58.58296,OM-SJ,,
-788626,18851412,hypsographic,"Şafrat ad Dawḩ","Safrat ad Dawh",official,22.559937,57.827623,OM-DA,,
-788868,-1136674,hypsographic,"Jabal Shibāmīnah","Jabal Shibaminah",official,23.132146,56.56725,OM-DA,,
-788574,18776131,settlement,الرّسيل,الرسيل,unknown,23.542896,58.191254,OM-MA,,
-788969,-1136425,hydrographic,"Ghubbat as Sarāb","Ghubbat as Sarab",variant,20.171024,57.832579,OM-WU,,
-789313,18663102,hypsographic,"جبل الوسعة","جبل الوسعة",unknown,24.725066,55.864438,OM-BU,,
-788580,19198837,spot,الرويضة,الرويضة,unknown,24.10761,56.77824,OM-BS,,
-788766,-1136506,hydrographic,"Wādī Sayjānī","Wadi Sayjani",variant,23.235126,58.080087,OM-DA,,
-789302,18755196,settlement,"Al Widyah al Ḩadrīyah","Al Widyah al Hadriyah",official,23.64482,57.202898,OM-BS,,
-788607,-1136237,settlement,Sadādib,Sadadib,official,23.405705,56.888943,OM-DA,,
-788989,18735107,settlement,"Şadāmat Banī ‘Īsá","Sadamat Bani `Isa",official,23.879167,56.382222,OM-ZA,,
-788790,-1136543,hydrographic,"Wādī Shabūn","Wadi Shabun",official,17.025278,54.646667,OM-ZU,,
-789419,-1133126,park,Dhaufar,Dhaufar,variant,17.0425,54.165278,OM-ZU,,
-788756,-1136848,hypsographic,"Jabal Siyah","Jabal Siyah",variant,21.85,59.433333,OM-SJ,,
-788920,472860,settlement,"Sharjat Saqabah","Sharjat Saqabah",official,23.144856,57.563207,OM-DA,,
-788616,18629580,settlement,الصفا,الصفا,unknown,23.792372,56.696146,OM-BS,,
-788953,18755239,settlement,"As Sayyāḥ","As Sayyah",variant,23.783707,57.149502,OM-BS,,
-789313,-1137352,hypsographic,"Jabal Wasa‘","Jabal Wasa`",variant,24.725066,55.864438,OM-BU,,
-788589,-1136211,settlement,"Ruwī Gharbī","Ruwi Gharbi",official,23.599346,58.534708,OM-MA,,
-788995,18628748,hydrographic,"وادي صدم","وادي صدم",unknown,24.015994,56.540686,OM-BS,,
-788640,18707893,settlement,Ḩarmūl,Harmul,official,24.527334,56.596528,OM-BS,,
-788706,161699,hypsographic,"Ra’s Zuek","Ra's Zuek",variant,26.02529,56.42735,OM-MU,,
-789243,12907126,hypsographic,"رملة أم ديسيس","رملة أم ديسيس",unknown,19.700241,54.770681,OM-ZU,,
-788795,19084626,hypsographic,"جزيرة مرصيص","جزيرة مرصيص",unknown,20.460146,58.748282,OM-SJ,,
-789349,19194722,hydrographic,"وادي اليابس","وادي اليابس",unknown,24.526,56.03665,OM-BU,,
-788654,-1136308,hydrographic,"Wādī Sa‘īdah","Wadi Sa`idah",official,23.686944,56.753056,OM-ZA,,
-788694,-1132389,settlement,"As Samad","As Samad",variant,22.823799,58.162622,OM-SS,,
-788911,18752143,hydrographic,"Wādī Shalāshil","Wadi Shalashil",official,23.204493,56.5297,OM-DA,,
-789289,-1137320,settlement,Wādd,Wadd,variant,22.568197,59.29178,OM-SJ,,
-789323,18843073,hydrographic,"Wādī al Wāsiţ","Wadi al Wasit",official,22.873097,57.575767,OM-DA,,
-788840,-1136626,hypsographic,"Sharp Peak","Sharp Peak",variant,20.57851,58.90732,OM-SJ,,
-789133,12361107,settlement,Tau,Tau,variant,23.499724,57.961641,OM-BJ,,
-788771,-1136511,settlement,Sayq,Sayq,official,23.074397,57.639649,OM-DA,,
-788930,-1136782,hypsographic,"Ra’s ash Shuwaymīyah","Ra's ash Shuwaymiyah",official,17.895546,55.901673,OM-ZU,,
-788916,-1136756,settlement,Shurayjah,Shurayjah,official,22.578192,59.512467,OM-SJ,,
-789353,19181725,hypsographic,"رأس بنفارا","رأس بنفارا",unknown,26.24719,56.46258,OM-MU,,
-788783,-1136526,settlement,Sehaff,Sehaff,variant,17.042682,54.008217,OM-ZU,,
-788839,-1136625,hydrographic,"Wādī Sharm","Wadi Sharm",official,24.5028,56.02773,OM-BU,,
-788613,-1136239,settlement,Sadah,Sadah,variant,17.05,55.066667,OM-ZU,,
-788681,18610763,hydrographic,"Wādī Sāl","Wadi Sal",official,22.647787,56.51851,OM-DA,,
-788580,19198836,spot,"Ar Ruwayḑah","Ar Ruwaydah",official,24.10761,56.77824,OM-BS,,
-788622,-1133340,hypsographic,Fānūs,Fanus,variant,22.417817,59.805275,OM-SJ,,
-789388,18621597,hydrographic,"Wādī Ḍab‘ayn","Wadi Dab`ayn",variant,24.639055,56.525635,OM-BS,,
-789069,-1136448,hypsographic,"Saudi Islands","Saudi Islands",variant,23.788896,57.784092,OM-BJ,,
-789105,-1137059,settlement,Ţāqah,Taqah,official,17.048258,54.390627,OM-ZU,,
-789107,18773905,settlement,الطّريف,الطريف,unknown,23.74641,57.621603,OM-BS,,
-788867,-1136673,hydrographic,"Shi‘b al Ghāf","Shi`b al Ghaf",official,24.056018,55.739161,S1-000,,
-789054,-1136991,settlement,"Sūr Yāl Bū Rashīd","Sur Yal Bu Rashid",official,23.877019,57.262292,OM-BS,,
-788631,-1136270,hydrographic,"Ţawī Şafwān","Tawi Safwan",official,24.5575,55.843611,OM-BU,,
-788724,477095,hypsographic,"Ramlat Sarha","Ramlat Sarha",variant,23.792778,55.724722,OM-BU,,
-789139,-1137102,hydrographic,"Wādī Ţaymisah","Wadi Taymisah",variant,22.815014,57.534983,OM-DA,,
-789333,18842051,settlement,"Wayhī al Mur","Wayhi al Mur",variant,22.950941,57.267013,OM-DA,,
-789160,14579496,hypsographic,"Aqbat Thifa’","Aqbat Thifa'",variant,17.066098,53.922352,OM-ZU,,
-789387,18592103,settlement,Ḑab‘ayn,Dab`ayn,official,24.514543,56.365353,OM-BS,,
-789263,-1137291,hydrographic,‘Usayy,`Usayy,official,19.666667,57.566667,OM-WU,,
-788914,18743773,hydrographic,"Wādī Shimayt","Wadi Shimayt",variant,23.417479,56.746983,OM-DA,,
-788917,18792542,settlement,الشريجة,الشريجة,unknown,23.076686,57.645335,OM-DA,,
-788626,-1136892,hypsographic,"Şufrat ad Dawḩ","Sufrat ad Dawh",variant,22.559937,57.827623,OM-DA,,
-788903,-1136738,hypsographic,"Jebel Shudhub","Jebel Shudhub",official,17.133333,54,OM-ZU,,
-788582,18742120,hypsographic,"عرق الرويك","عرق الرويك",unknown,23.24904,55.95217,OM-ZA,,
-789402,-1133215,hypsographic,"Ra’s Dtharri","Ra's Dtharri",variant,20.215968,58.72317,OM-SJ,,
-789025,19041857,hypsographic,"جبل سمينة","جبل سمينة",unknown,20.387914,57.723128,OM-WU,,
-789417,-1137513,settlement,Z̧iyān,Ziyan,official,23.883833,57.314256,OM-BS,,
-788772,-1136512,hypsographic,"Jabal Sayq","Jabal Sayq",official,16.736097,53.119435,OM-ZU,,
-789314,18676581,hydrographic,"Wādī al Was‘ah","Wadi al Was`ah",official,24.777633,55.831902,S1-000,,
-789348,-1137406,hypsographic,"Ramlat Ya‘āribah","Ramlat Ya`aribah",official,23.883333,55.533333,OM-BU,,
-789399,18688103,hydrographic,"وادي ظلومة","وادي ظلومة",unknown,16.896092,53.685397,OM-ZU,,
-789160,-1137134,hypsographic,"‘Aqabat Thifah","`Aqabat Thifah",official,17.066098,53.922352,OM-ZU,,
-789315,18855645,settlement,"Wāshiḩī al Lithlī","Washihi al Lithli",official,22.573227,58.193808,OM-SS,,
-789017,-1136913,settlement,Sūkirah,Sukirah,variant,23.139031,57.669573,OM-DA,,
-788620,19104735,settlement,صفايج,صفايج,unknown,20.440221,58.7729,OM-SJ,,
-789259,19086863,settlement,‘Irf,`Irf,official,20.248577,58.733932,OM-SJ,,
-789292,18875491,settlement,"Wādī ‘Indām","Wadi `Indam",official,22.479052,57.980172,OM-DA,,
-789184,-1137105,settlement,Taywah,Taywah,variant,22.826082,59.257958,OM-SJ,,
-788660,-1136331,hypsographic,"Qarn as Salābīkh","Qarn as Salabikh",variant,24.428611,55.821944,S1-000,,
-789175,-1137168,settlement,Ţubbah,Tubbah,official,23.816389,57.471389,OM-BS,,
-788944,-1136797,settlement,Sidāb,Sidab,official,23.601811,58.597738,OM-MA,,
-789371,18944942,hypsographic,"Ramlat Yiblā","Ramlat Yibla",variant,19.60038,54.37098,OM-ZU,,
-788674,19275200,hypsographic,"‘Irq as Salīl","`Irq as Salil",official,23.10693,55.6912,OM-ZA,,
-789192,-1137172,settlement,Ţurayf,Turayf,variant,24.672938,56.478496,OM-BS,,
-789080,-1137020,park,Suwayḩāt,Suwayhat,official,20.028619,56.148827,OM-WU,,
-788744,18704126,hydrographic,"دوحة صوقرة","دوحة صوقرة",unknown,18.330713,56.642931,OM-WU,,
-788983,18793131,hydrographic,"Shi‘bat al ‘Ūd","Shi`bat al `Ud",variant,20.825188,58.104555,OM-WU,,
-788969,19041865,hydrographic,"غبة صراب","غبة صراب",unknown,20.171024,57.832579,OM-WU,,
-789225,-1137236,hydrographic,"Ţawī Umm al Ḩāsī","Tawi Umm al Hasi",variant,23.714784,55.85521,OM-BU,,
-788752,-1136490,settlement,Sayfam,Sayfam,official,23.016667,57.166667,OM-DA,,
-789317,-1137359,settlement,Wāshil,Washil,variant,22.929526,58.079684,OM-DA,,
-789399,-1137488,hydrographic,"Wādī Z̧alūmah","Wadi Zalumah",official,16.896092,53.685397,OM-ZU,,
-788599,-1136227,hydrographic,"Wādī Şa‘bān","Wadi Sa`ban",variant,24.77067,56.05765,OM-BU,,
-788708,18796226,settlement,Şawmarā’,Sawmara',official,23.088587,58.111583,OM-DA,,
-789318,18876424,settlement,"Al Wāsiţ","Al Wasit",official,22.449298,58.020877,OM-SS,,
-789105,-1137039,settlement,Taga,Taga,variant,17.048258,54.390627,OM-ZU,,
-788709,18686166,hypsographic,"Ra’s Sanūt","Ra's Sanut",official,25.922919,56.443432,OM-MU,,
-789027,18663106,hypsographic,"جبل السّميني","جبل السميني",unknown,24.701527,55.918644,OM-BU,,
-789404,18787185,settlement,"Az Zawājir","Az Zawajir",official,23.460372,57.314341,OM-BJ,,
-788608,-1136238,hypsographic,"Jabal Sadādib","Jabal Sadadib",official,23.426325,56.88473,OM-DA,,
-789010,18742551,settlement,"السّهيلة الشّرقيّة","السهيلة الشرقية",unknown,24.267886,56.371056,OM-BU,,
-788735,-1136530,hypsographic,"Jazīrat Setima Muqsī","Jazirat Setima Muqsi",variant,16.948611,54.742222,OM-ZU,,
-789250,-1137272,hypsographic,"Sayḩ Umm Ţarāthīth","Sayh Umm Tarathith",variant,24.839801,55.897526,OM-BU,,
-789264,-1137292,hydrographic,"Ţawī al Ushaykhirah","Tawi al Ushaykhirah",official,24.868056,55.978056,OM-BU,,
-789282,-1137313,settlement,‘Uyūn,`Uyun,official,23.513398,56.922841,OM-DA,,
-788621,19104737,hypsographic,"جبل صفايج","جبل صفايج",unknown,20.432444,58.775109,OM-SJ,,
-788806,-1136663,settlement,Shelim,Shelim,variant,18.102523,55.65333,OM-ZU,,
-789294,-1137326,park,"Wādī Bawshar","Wadi Bawshar",official,23.504167,58.335556,OM-MA,,
-788564,-1136160,hypsographic,"Sayḩ ar Rukayz","Sayh ar Rukayz",official,23.3025,55.915278,OM-ZA,,
-788925,14595371,hypsographic,"Qarn Shitānah","Qarn Shitanah",official,17.553746,53.284013,OM-ZU,,
-788714,19079663,park,"Shi‘bat Şaqar","Shi`bat Saqar",official,19.727149,57.467088,OM-WU,,
-789102,18789425,settlement,Tanūf,Tanuf,official,23.051133,57.46398,OM-DA,,
-789216,19090829,hydrographic,"وادي العميري","وادي العميري",unknown,21.558656,56.16628,OM-ZA,,
-788894,-1136724,hydrographic,"Wadi Shitta","Wadi Shitta",variant,20.219197,57.735196,OM-WU,,
-789284,-1132477,hydrographic,"Wādī Ayān","Wadi Ayan",variant,17.295766,53.772365,OM-ZU,,
-788769,-1136509,settlement,Şaynah,Saynah,variant,23.804917,57.140157,OM-BS,,
-789238,19099323,hypsographic,"Umm as Samīm","Umm as Samim",variant,21.655842,55.605139,OM-ZA,,
-788706,19155717,hypsographic,"رأس سماد","رأس سماد",unknown,26.02529,56.42735,OM-MU,,
-788639,18776348,settlement,Ṣahbān,Sahban,variant,24.190977,56.318139,OM-BU,,
-788710,-1136409,settlement,Sanāw,Sanaw,variant,22.501139,58.030105,OM-SS,,
-789186,18981849,hydrographic,Ţabrūq,Tabruq,official,17.10061,54.32605,OM-ZU,,
-789133,18791727,settlement,الطّو,الطو,unknown,23.499724,57.961641,OM-BJ,,
-789330,-1137376,hypsographic,"Well Rock","Well Rock",official,17.488805,56.32121,OM-000,,
-789153,-1137123,settlement,Thamarīt,Thamarit,official,17.67,54.033333,OM-ZU,,
-789205,18779478,settlement,"العذيبة الشّماليّة","العذيبة الشمالية",unknown,23.60126,58.363857,OM-MA,,
-789302,18755218,settlement,"Al Widyah al Ḥadriyyah","Al Widyah al Hadriyyah",variant,23.64482,57.202898,OM-BS,,
-788666,-1136340,settlement,Salam,Salam,variant,23.471037,57.299152,OM-BJ,,
-789072,18774540,settlement,"As Sawādī as Sāḥil","As Sawadi as Sahil",variant,23.769167,57.765278,OM-BJ,,
-789227,12907123,hypsographic,"Ramlat Umm al Ḩayāh","Ramlat Umm al Hayah",official,18.694038,53.689694,OM-ZU,,
-788611,18736179,settlement,Ṣaddān,Saddan,variant,23.762744,56.930674,OM-BS,,
-789042,19267739,settlement,سني,سني,unknown,23.41175,57.11911,OM-DA,,
-788984,18788788,settlement,السبيب,السبيب,unknown,23.216478,57.14838,OM-DA,,
-787693,-1134729,settlement,"Khawr Rawrī","Khawr Rawri",official,17.033333,54.45,OM-ZU,,
-788705,-1136401,hypsographic,"Ra’s Samḩān","Ra's Samhan",official,17.300318,55.263755,OM-ZU,,
-788793,-1136547,settlement,Shāfa‘,Shafa`,variant,22.761965,57.760377,OM-DA,,
-788830,-1136608,hypsographic,"Ras al Sharik","Ras al Sharik",variant,21.646172,59.460306,OM-SJ,,
-789216,19112121,hydrographic,"Wādī al ‘Umayri","Wadi al `Umayri",variant,21.558656,56.16628,OM-ZA,,
-789036,-1136407,settlement,Sanaiba,Sanaiba,variant,23.195556,57.5575,OM-BJ,,
-789027,13518925,hypsographic,"Jabal Sumeini","Jabal Sumeini",variant,24.701527,55.918644,OM-BU,,
-789119,-1137081,settlement,"Ţawī al Ḩayl","Tawi al Hayl",variant,24.383893,56.311855,OM-BS,,
-788892,-1136710,hydrographic,"Dawḩat Shīşah","Dawhat Shisah",official,26.265366,56.438444,OM-MU,,
-788778,-1136325,hypsographic,"Ras Saiyir","Ras Saiyir",variant,17.511516,56.09507,OM-ZU,,
-788586,19172016,settlement,"Ruwaylat al Badū","Ruwaylat al Badu",official,24.16023,56.89701,OM-BS,,
-789310,-1137349,hydrographic,"Wādī Wa‘qah","Wadi Wa`qah",official,23.901586,56.047042,OM-BU,,
-788708,18796246,settlement,صومراء,صومراء,unknown,23.088587,58.111583,OM-DA,,
-788624,18126047,settlement,الحوطة,الحوطة,unknown,16.761727,53.488725,OM-ZU,,
-789403,-1137258,hypsographic,"Umm Barr","Umm Barr",variant,24.202094,55.968587,S1-000,,
-789108,-1137064,hypsographic,"‘Irq at Tarif","`Irq at Tarif",short,22.687647,55.688697,OM-ZA,,
-789323,-1137368,hydrographic,"Wādī Wāsiţ","Wadi Wasit",variant,22.873097,57.575767,OM-DA,,
-788794,-1136550,settlement,Shafia,Shafia,variant,17.328141,52.786846,OM-ZU,,
-789224,-1137232,spot,"Umm al Ghawārif","Umm al Ghawarif",official,17.031111,54.127222,OM-ZU,,
-788683,161735,hydrographic,"Wādī Sallala","Wadi Sallala",variant,26.089536,56.261171,OM-MU,,
-788743,-1136476,settlement,Şawqirah,Sawqirah,variant,18.157824,56.538585,OM-WU,,
-789139,18843075,hydrographic,"Wādī Ţaymasā’","Wadi Taymasa'",official,22.815014,57.534983,OM-DA,,
-789227,-1137233,hypsographic,"Ramlat Umm al Hait","Ramlat Umm al Hait",variant,18.694038,53.689694,OM-ZU,,
-788684,-1136373,settlement,Şallān,Sallan,official,24.393701,56.727208,OM-BS,,
-788597,-1136221,hydrographic,"Wādī Sa‘āl","Wadi Sa`al",variant,23.52813,58.20322,OM-MA,,
-788774,14579411,hydrographic,"Wādī Sīqa","Wadi Siqa",variant,16.989388,53.964707,OM-ZU,,
-788919,-1136759,settlement,Shurayjāt,Shurayjat,variant,22.973795,57.554059,OM-DA,,
-788585,19171985,settlement,"رويلة الزعاب","رويلة الزعاب",unknown,24.16773,56.89348,OM-BS,,
-789196,-1137179,hypsographic,"Jabal Ţuwām","Jabal Tuwam",official,24.655328,56.320958,OM-BS,,
-789247,-1137268,hydrographic,"Wādī Umm Rawdah","Wadi Umm Rawdah",variant,22.787321,56.191363,OM-ZA,,
-788774,-1136324,hydrographic,"Wādī Saiqa","Wadi Saiqa",variant,16.989388,53.964707,OM-ZU,,
-788956,18221756,hypsographic,"Sayḩ Ma‘āl Rakhyūt","Sayh Ma`al Rakhyut",variant,16.799713,53.387671,OM-ZU,,
-788713,18630420,settlement,"Aṣ Ṣanqar","As Sanqar",variant,24.433864,56.679302,OM-BS,,
-789361,18753490,hydrographic,"وادي يال هرش","وادي يال هرش",unknown,24.453037,56.131562,OM-BU,,
-789215,-1135727,park,Oman,Oman,variant,22.666667,57.5,OM-DA,,
-788660,18718819,hypsographic,"Qarn aṣ Ṣalābīkh","Qarn as Salabikh",variant,24.428611,55.821944,S1-000,,
-788851,12906876,hydrographic,"وادي اشوق","وادي اشوق",unknown,16.910313,53.749022,OM-ZU,,
-788786,18786241,hypsographic,"جبل الشبة","جبل الشبة",unknown,20.52469,58.903727,OM-SJ,,
-788813,18887748,hydrographic,"Wādī Salmīyah","Wadi Salmiyah",variant,22.541638,59.527543,OM-SJ,,
-788645,-1136293,hypsographic,Sahma,Sahma,variant,20.553982,55.219727,OM-WU,,
-789287,18794730,settlement,Manāl,Manal,official,23.180699,57.866614,OM-DA,,
-788783,14583779,settlement,Sehab,Sehab,variant,17.042682,54.008217,OM-ZU,,
-789385,-1133153,hydrographic,"Khaur al Dhuba","Khaur al Dhuba",variant,22.167495,56.825359,OM-DA,,
-789028,18663078,hypsographic,"Sayḩ as Sumaynī","Sayh as Sumayni",official,24.674617,55.882013,OM-BU,,
-788962,-1136829,hydrographic,Simah,Simah,official,22.257412,56.962272,OM-DA,,
-788616,18629581,settlement,"Aṣ Ṣafā","As Safa",variant,23.792372,56.696146,OM-BS,,
-788833,19146655,hypsographic,"Ra’s Sharātī","Ra's Sharati",official,26.38855,56.37869,OM-MU,,
-788851,18688104,hydrographic,"وادي عشوق","وادي عشوق",unknown,16.910313,53.749022,OM-ZU,,
-788677,18639355,hydrographic,"شعبة السليل","شعبة السليل",unknown,23.13132,56.39593,OM-ZA,,
-789205,13331913,settlement,"Al Udhaybah ash Shamaliyah","Al Udhaybah ash Shamaliyah",variant,23.60126,58.363857,OM-MA,,
-789195,-1133270,hypsographic,"Jabal Ettoot","Jabal Ettoot",variant,17.143056,54.175556,OM-ZU,,
-788816,-1136584,hydrographic,"Khor ash Shamm","Khor ash Shamm",variant,26.21633,56.34212,OM-MU,,
-788744,-1136451,hydrographic,Sauqara,Sauqara,variant,18.330713,56.642931,OM-WU,,
-789219,18688911,hypsographic,"Ramlat al ‘Āriḍ","Ramlat al `Arid",variant,19.777438,54.477581,OM-ZU,,
-789045,14226507,hydrographic,"Wādī Sūqah","Wadi Suqah",official,17.712464,52.983773,OM-ZU,,
-789413,-1137507,settlement,Zibārah,Zibarah,official,21.414324,58.397626,OM-SS,,
-789137,-1137100,hydrographic,"Wādī Ţāyīn","Wadi Tayin",variant,23.01996,58.72887,OM-000,,
-789182,18786969,settlement,"Aţ Ţīkhah","At Tikhah",official,23.27157,57.446741,OM-BJ,,
-789414,18610762,hydrographic,"وادي الزبرة","وادي الزبرة",unknown,22.531146,56.5124,OM-DA,,
-789410,18742540,settlement,الزّهيمي,الزهيمي,unknown,24.449719,56.294418,OM-BS,,
-788591,-1136215,hydrographic,"Ţawī Sa‘ādah","Tawi Sa`adah",official,22.236944,59.217778,OM-SJ,,
-789136,18795529,hypsographic,"جبل الطّائيين","جبل الطائيين",unknown,23.388871,58.316004,OM-MA,,
-789403,18770653,hypsographic,"Jabal az Zurūb","Jabal az Zurub",official,24.202094,55.968587,S1-000,,
-788748,18791708,settlement,Şa‘bah,Sa`bah,official,23.390338,57.837908,OM-BJ,,
-788948,-1136805,hydrographic,"Wādī Sidarat","Wadi Sidarat",variant,23.871389,56.0625,OM-BU,,
-788880,418603,settlement,"Qaryat Shi‘īnzī","Qaryat Shi`inzi",variant,20.561696,58.929584,OM-SJ,,
-788694,18851670,settlement,"سمد الشّأن","سمد الشأن",unknown,22.823799,58.162622,OM-SS,,
-789188,17945137,hydrographic,"Sayḩ Ţubayq","Sayh Tubayq",official,18.247026,52.402841,S1-000,,
-789135,-1137098,hydrographic,"Wādī Ţaww","Wadi Taww",official,23.683333,58,OM-BJ,,
-788668,-1136343,hydrographic,"Ţawī Sālamah","Tawi Salamah",official,23.809729,56.3965,OM-ZA,,
-788909,-1136746,hypsographic,"Jabal Shujūm","Jabal Shujum",official,23.113762,58.426034,OM-SS,,
-788683,161737,hydrographic,"Wādī Salal A‘lā","Wadi Salal A`la",variant,26.089536,56.261171,OM-MU,,
-789012,-1136904,hypsographic,"Jabal Suhaylah","Jabal Suhaylah",official,23.714233,56.954436,OM-BS,,
-789168,-1137144,hydrographic,"Wādī Thumayd","Wadi Thumayd",official,22.234991,55.764834,OM-ZA,,
-788745,-1136475,hypsographic,"Ra’s Şawqarah","Ra's Sawqarah",official,18.126981,56.550635,OM-BJ,,
-788736,-1136457,hydrographic,"Wādī Sauw’ab","Wadi Sauw'ab",variant,19.566667,57.616667,OM-WU,,
-789037,-1136949,hydrographic,Sunayk,Sunayk,official,17.583333,55.183333,OM-ZU,,
-789408,-1137502,hypsographic,"Ramlat az Zawlīyah","Ramlat az Zawliyah",official,20.770007,55.304764,OM-WU,,
-788813,14128620,hydrographic,"وادي شامة","وادي شامة",unknown,22.541638,59.527543,OM-SJ,,
-788616,-1136248,settlement,Şafā’,Safa',variant,23.792372,56.696146,OM-BS,,
-789119,18742549,settlement,"Aṭ Ṭawī","At Tawi",variant,24.383893,56.311855,OM-BS,,
-788827,19069490,hypsographic,"رأس شربثات","رأس شربثات",unknown,17.928073,56.28022,OM-ZU,,
-789070,-1136997,hydrographic,"Khawr Suwādī","Khawr Suwadi",variant,23.766593,57.791587,OM-BJ,,
-789402,19083726,hypsographic,"Ra’s az̧ Z̧arī","Ra's az Zari",official,20.215968,58.72317,OM-SJ,,
-788683,161734,hydrographic,"Wādī Sal al A‘lā","Wadi Sal al A`la",variant,26.089536,56.261171,OM-MU,,
-788731,19272421,hypsographic,"Jabal Surūr","Jabal Surur",variant,23.35415,58.12597,OM-DA,,
-788891,19079790,hydrographic,"وادي شصاص","وادي شصاص",unknown,18.054692,54.462225,OM-ZU,,
-788800,12906571,hydrographic,"وادي شعث","وادي شعث",unknown,16.958039,53.883071,OM-ZU,,
-789157,-1137129,settlement,Tharmad,Tharmad,variant,23.78854,57.522738,OM-BS,,
-788830,19091034,hypsographic,"Ra’s Sāriq","Ra's Sariq",official,21.646172,59.460306,OM-SJ,,
-788897,-1136729,hydrographic,"Shi‘b Shtanauti","Shi`b Shtanauti",official,19.9,57.466667,OM-WU,,
-789198,-1137181,hydrographic,"Wādī Ţuwaylah","Wadi Tuwaylah",official,23.334597,55.641412,OM-ZA,,
-788955,-1136820,settlement,Sihlāt,Sihlat,official,24.33173,56.515497,OM-BS,,
-789219,18688745,hypsographic,"رملة العارض","رملة العارض",unknown,19.777438,54.477581,OM-ZU,,
-789350,-1137408,hydrographic,"Ţawī Yabīyah","Tawi Yabiyah",official,22.10068,57.773364,OM-DA,,
-788744,-1136480,hydrographic,"Şawqirah Bay","Sawqirah Bay",variant,18.330713,56.642931,OM-WU,,
-789114,476068,hydrographic,"Wādī Ţahwah","Wadi Tahwah",official,22.382304,59.318252,OM-SJ,,
-788813,14128622,hydrographic,"Wādī Shāmah","Wadi Shamah",official,22.541638,59.527543,OM-SJ,,
-788906,-1136743,hypsographic,"Jabal Shūh","Jabal Shuh",official,22.979431,56.922706,OM-DA,,
-788929,-1136772,hydrographic,"Wādī Shuwā‘ī","Wadi Shuwa`i",official,23.055006,56.609816,OM-000,,
-789197,-1137180,settlement,Tuwaybah,Tuwaybah,variant,24.152461,56.455106,OM-BS,,
-788677,18639354,hydrographic,"Shu‘bat as Salīl","Shu`bat as Salil",official,23.13132,56.39593,OM-ZA,,
-789398,18663134,hydrographic,"Ṭawī Zākhir","Tawi Zakhir",variant,24.584167,55.858611,OM-BU,,
-789216,-1137213,hydrographic,"Wādī al ‘Umayrī","Wadi al `Umayri",official,21.558656,56.16628,OM-ZA,,
-789210,8006022,settlement,Ukhayz̧ir,Ukhayzir,variant,22.626352,58.006947,OM-DA,,
-788623,18788789,settlement,"الوادي السافل","الوادي السافل",unknown,23.0585,57.125743,OM-DA,,
-788736,-1136458,hydrographic,"Wādī Saw’ab","Wadi Saw'ab",official,19.566667,57.616667,OM-WU,,
-789403,18770654,hypsographic,"جبل الزّروب","جبل الزروب",unknown,24.202094,55.968587,S1-000,,
-789385,-1137464,hydrographic,"Khayr az̧ Z̧abī","Khayr az Zabi",variant,22.167495,56.825359,OM-DA,,
-789296,18842374,settlement,الوديم,الوديم,unknown,22.668023,57.348632,OM-DA,,
-788565,19267778,settlement,الرميلة,الرميلة,unknown,23.38347,57.01224,OM-DA,,
-788640,18707895,settlement,Ḥarmūl,Harmul,variant,24.527334,56.596528,OM-BS,,
-788661,18630428,hydrographic,"Wādī aṣ Ṣalāḥī","Wadi as Salahi",variant,24.308615,56.700191,OM-BS,,
-788803,-1136566,settlement,Shakhākhīţ,Shakhakhit,variant,23.698634,58.040014,OM-BJ,,
-788701,18877066,settlement,Şawmaḩān,Sawmahan,official,22.983768,58.588486,OM-SS,,
-788792,19198864,hydrographic,"وادي شافان","وادي شافان",unknown,24.04575,56.97965,OM-BS,,
-788950,-1136811,hypsographic,"Jazīrat Şīfah","Jazirat Sifah",variant,20.391372,58.632703,OM-SJ,,
-789336,18786968,settlement,"Al Wushayl","Al Wushayl",official,23.47442,57.440849,OM-BJ,,
-788660,18718777,hypsographic,"Qarn Aş Şalābīkh","Qarn As Salabikh",official,24.428611,55.821944,S1-000,,
-788769,18755240,settlement,"Ṣan‘ā’ Banī Ghāfir","San`a' Bani Ghafir",variant,23.804917,57.140157,OM-BS,,
-788880,18786262,settlement,Sha‘nazī,Sha`nazi,official,20.561696,58.929584,OM-SJ,,
-789133,-1137096,settlement,Ţaww,Taww,variant,23.499724,57.961641,OM-BJ,,
-788740,19006336,hydrographic,"Khawr Şawlī","Khawr Sawli",official,17.037764,54.330649,OM-ZU,,
-788569,18724006,settlement,"Ar Rimayḥ","Ar Rimayh",variant,23.755021,56.205188,OM-ZA,,
-788733,18830942,hydrographic,"وادي السعتري","وادي السعتري",unknown,23.275119,58.911996,OM-MA,,
-788950,19101982,hypsographic,"Jazīrat Um aş Şīfah","Jazirat Um as Sifah",variant,20.391372,58.632703,OM-SJ,,
-788730,-1132391,settlement,"Aş Şarūr","As Sarur",variant,23.35238,58.10751,OM-DA,,
-788575,18776130,hydrographic,"وادي الرسيل","وادي الرسيل",unknown,23.65295,58.22923,OM-MA,,
-788603,18875024,settlement,سبت,سبت,unknown,22.477304,59.124522,OM-SS,,
-789401,-1137491,hypsographic,Zanatiyāt,Zanatiyat,variant,20.30608,58.590039,OM-SJ,,
-788709,-1136406,hypsographic,"Ra’s Samūt","Ra's Samut",variant,25.922919,56.443432,OM-MU,,
-789081,-1137005,settlement,Suwaihara,Suwaihara,variant,24.31642,56.78289,OM-BS,,
-789305,-1137339,hydrographic,"Wadi Waghala","Wadi Waghala",variant,17.683333,54.2,OM-ZU,,
-788800,-1136563,hydrographic,"Wādī Sha‘ith","Wadi Sha`ith",variant,16.958039,53.883071,OM-ZU,,
-789026,-1136935,settlement,Sumaynī,Sumayni,variant,24.676148,55.910027,OM-BU,,
-789181,-1137159,hypsographic,"Ra’s Tiḩrār","Ra's Tihrar",official,17.449375,55.271019,OM-ZU,,
-788740,19006337,hydrographic,"خور صولي","خور صولي",unknown,17.037764,54.330649,OM-ZU,,
-789232,19102646,hypsographic,"جزيرة أم كدس","جزيرة أم كدس",unknown,20.351802,58.61339,OM-SJ,,
-789317,-1137203,settlement,‘Ulyā,`Ulya,variant,22.929526,58.079684,OM-DA,,
-789381,-1137458,park,Za‘āb,Za`ab,official,24.197778,56.8675,OM-BS,,
-788799,19190382,hypsographic,"Jabal ash Shāyib","Jabal ash Shayib",official,23.2841,58.03489,OM-DA,,
-789063,18707887,settlement,"حلّة الخصيبي","حلة الخصيبي",unknown,24.660037,56.512952,OM-BS,,
-789317,18851669,settlement,الوشل,الوشل,unknown,22.929526,58.079684,OM-DA,,
-789259,19086864,settlement,عرف,عرف,unknown,20.248577,58.733932,OM-SJ,,
-788745,18704188,hypsographic,"رأس صوقرة","رأس صوقرة",unknown,18.126981,56.550635,OM-BJ,,
-789156,-1137127,settlement,Thaqub,Thaqub,variant,23.184822,57.490308,OM-DA,,
-788620,-1136252,settlement,Safaij,Safaij,variant,20.440221,58.7729,OM-SJ,,
-789286,18742314,hypsographic,"Jabal Wa‘bā’","Jabal Wa`ba'",official,23.455607,56.430794,OM-ZA,,
-789146,-1137110,hydrographic,"Wādī Thā’ad","Wadi Tha'ad",variant,21.215764,57.454449,OM-WU,,
-788837,-1136666,settlement,Sherkh,Sherkh,variant,21.23467,59.01712,OM-SJ,,
-789416,18886443,settlement,"Al ‘Uwaynah","Al `Uwaynah",official,22.591435,59.089526,OM-SS,,
-788964,-1136832,settlement,Sint,Sint,official,23.139078,57.087679,OM-DA,,
-789133,-1131719,settlement,"Al Ājāl","Al Ajal",variant,23.499724,57.961641,OM-BJ,,
-789192,18592104,settlement,"Ţurayf Ḩajjī","Turayf Hajji",official,24.672938,56.478496,OM-BS,,
-789062,-1136985,settlement,Sūrī,Suri,official,23.606414,56.969047,OM-BS,,
-788740,-1136469,hydrographic,"Khawr Sawlī","Khawr Sawli",variant,17.037764,54.330649,OM-ZU,,
-789322,-1137367,hypsographic,"Najd Wāsiţ","Najd Wasit",official,23.174444,58.312778,OM-DA,,
-788720,19198778,hydrographic,"Wādī aş Şarmī","Wadi as Sarmi",official,24.13518,56.87616,OM-BS,,
-788828,-1136667,hypsographic,"Ras Shern","Ras Shern",variant,22.557627,59.651048,OM-SJ,,
-789123,-1137085,hydrographic,"Ţawī Kuraysh","Tawi Kuraysh",official,21.007637,58.037137,OM-WU,,
-788617,476516,hydrographic,"Wādī Şafá","Wadi Safa",variant,23.43479,55.74105,OM-ZA,,
-789298,-1137330,settlement,"Wādī Shirş","Wadi Shirs",official,23.774393,57.617514,OM-BS,,
-787622,-1134613,settlement,Khafā’,Khafa',variant,23.40186,57.30034,OM-BJ,,
-788648,-1136419,hydrographic,"Wādī as Sāqinah","Wadi as Saqinah",variant,23.462817,57.445685,OM-000,,
-788787,18876338,hydrographic,"وادي الشبة","وادي الشبة",unknown,22.04174,57.840194,OM-DA,,
-787850,-1135312,settlement,M‘hal,M`hal,variant,17.1,55.116667,OM-ZU,,
-789251,18674638,hydrographic,"Um aṭ Ṭarāthīth","Um at Tarathith",variant,24.848624,55.906044,OM-BU,,
-788666,18787197,settlement,السلم,السلم,unknown,23.471037,57.299152,OM-BJ,,
-789064,18761416,settlement,"Khabbat al Ma‘āwil","Khabbat al Ma`awil",official,23.838651,57.48104,OM-BS,,
-788639,18776347,settlement,صهبان,صهبان,unknown,24.190977,56.318139,OM-BU,,
-788601,-1136230,hydrographic,"Bi’r as Sabkhah","Bi'r as Sabkhah",official,19.733333,54.716667,OM-ZU,,
-788813,-1136579,hydrographic,"Wādī Shamā’","Wadi Shama'",variant,22.541638,59.527543,OM-SJ,,
-789150,18656490,settlement,زغي,زغي,unknown,25.705836,56.272112,OM-MU,,
-788773,12892454,hydrographic,"وادي سيق","وادي سيق",unknown,16.730079,53.336553,S1-000,,
-789044,18630417,hydrographic,"وادي سوق","وادي سوق",unknown,24.439865,56.646189,OM-BS,,
-789268,19195226,hydrographic,"طوي الأثيمد","طوي الأثيمد",unknown,24.555391,56.047449,OM-BU,,
-788831,-1136610,settlement,Shāriq,Shariq,variant,22.520341,58.130637,OM-SS,,
-789197,18776343,settlement,الثّويب,الثويب,unknown,24.152461,56.455106,OM-BS,,
-788594,-1136218,hypsographic,"Jabal Sā‘ah","Jabal Sa`ah",variant,24.07369,56.04423,OM-BU,,
-788684,18630424,settlement,صلّان,صلان,unknown,24.393701,56.727208,OM-BS,,
-788628,18770657,hypsographic,"Jabal aṣ Ṣifratīn","Jabal as Sifratin",variant,24.162437,55.991699,OM-BU,,
-788664,-1131994,settlement,"Āl Kathīr","Al Kathir",variant,17.015046,54.09237,OM-ZU,,
-789073,18773926,settlement,"السّوادي الحكمان","السوادي الحكمان",unknown,23.739428,57.735646,OM-BJ,,
-788987,-1136868,hypsographic,"Jabal Şubayḩī","Jabal Subayhi",variant,23.299133,56.406337,OM-ZA,,
-789060,-1136983,hypsographic,Surayr,Surayr,official,19.807913,57.740598,OM-WU,,
-789382,-1137459,settlement,Zāb,Zab,official,24.55,55.983333,OM-BU,,
-788744,18704125,hydrographic,"Dawḩat Şawqarah","Dawhat Sawqarah",official,18.330713,56.642931,OM-WU,,
-789222,-1137228,hydrographic,"Ţawī Umm al Faqḩah","Tawi Umm al Faqhah",official,23.440362,55.719765,OM-ZA,,
-788617,19261030,hydrographic,"Wādī aş Şafā’","Wadi as Safa'",official,23.43479,55.74105,OM-ZA,,
-789114,-1137072,hydrographic,"Wādī Ţāwā","Wadi Tawa",variant,22.382304,59.318252,OM-SJ,,
-789317,18851648,settlement,"Al Washal","Al Washal",official,22.929526,58.079684,OM-DA,,
-788570,18735161,settlement,"Ţawī Rumayih","Tawi Rumayih",variant,23.748847,56.222267,OM-ZA,,
-788940,-1136789,hypsographic,"Qārat ash Shuyūkh","Qarat ash Shuyukh",variant,17.56366,53.221234,OM-ZU,,
-789020,18775062,settlement,الصليّة,الصلية,unknown,23.444928,57.700659,OM-DA,,
-788575,18776114,hydrographic,"Wādī ar Rusayl","Wadi ar Rusayl",official,23.65295,58.22923,OM-MA,,
-788577,18792531,settlement,"Ar Rūs","Ar Rus",official,23.157517,57.542034,OM-DA,,
-789094,14610748,hydrographic,تدهو,تدهو,unknown,17.730142,53.042867,OM-ZU,,
-788937,-1136786,hydrographic,"Wādī Shuwayrī","Wadi Shuwayri",variant,21.827664,56.419182,OM-ZA,,
-789106,-1137061,hydrographic,"Wādī Tarbān","Wadi Tarban",official,21.9565,57.5819,OM-000,,
-788797,19117887,settlement,شاحك,شاحك,unknown,22.43089,58.77181,OM-SS,,
-788899,-1136734,settlement,Shu‘aymīyah,Shu`aymiyah,variant,17.885002,55.605285,OM-ZU,,
-789162,14595620,settlement,Tudhū,Tudhu,official,17.718742,53.063893,OM-ZU,,
-788937,19110159,hydrographic,"Wādī ash Shuwayqī","Wadi ash Shuwayqi",official,21.827664,56.419182,OM-ZA,,
-788821,-1136591,settlement,Shanuţ,Shanut,variant,23.115331,57.658169,OM-DA,,
-788896,19199524,hydrographic,"وادي الشجاء","وادي الشجاء",unknown,24.66221,55.93664,OM-BU,,
-788661,18630426,hydrographic,"Wādī aş Şalāḩī","Wadi as Salahi",official,24.308615,56.700191,OM-BS,,
-788713,-1136415,settlement,Şanqar,Sanqar,variant,24.433864,56.679302,OM-BS,,
-788874,18629577,settlement,شيدة,شيدة,unknown,23.983021,56.644388,OM-BS,,
-789096,18787729,settlement,"Aţ Ţīkhah","At Tikhah",official,23.428807,57.440914,OM-BJ,,
-789321,18774416,settlement,الواسط,الواسط,unknown,23.517157,57.84928,OM-BJ,,
-789204,-1131628,hydrographic,"Wadi Adey","Wadi Adey",variant,23.618066,58.481741,OM-MA,,
-788989,18735110,settlement,"Ṣadāmat Banī ‘Īsá","Sadamat Bani `Isa",variant,23.879167,56.382222,OM-ZA,,
-789309,18877471,settlement,"Al Waljah","Al Waljah",official,22.989558,58.789737,OM-MA,,
-788606,13325568,settlement,صاد,صاد,unknown,23.546108,58.407694,OM-MA,,
-789400,18789507,settlement,"Az Zāmmah","Az Zammah",variant,23.216948,57.403425,OM-DA,,
-789086,460687,hydrographic,"Wādī Suwayḩ","Wadi Suwayh",variant,23.03289,58.99037,OM-MA,,
-789106,-1137174,hydrographic,"Wādī Turban","Wadi Turban",variant,21.9565,57.5819,OM-000,,
-788754,18842375,hydrographic,"وادي سيفم","وادي سيفم",unknown,22.660425,57.303952,OM-DA,,
-788810,-1137389,hypsographic,Wishām,Wisham,variant,23.237536,57.264166,OM-DA,,
-789032,18877000,settlement,Ismā‘iyyah,Isma`iyyah,variant,22.909268,58.883262,OM-MA,,
-788816,19151117,hydrographic,"Khawr Shamm","Khawr Shamm",official,26.21633,56.34212,OM-MU,,
-788727,-1136436,hypsographic,"Ra’s Sarkān","Ra's Sarkan",official,26.084722,56.470556,OM-MU,,
-789415,18789423,settlement,"Az Zikt","Az Zikt",official,23.093832,57.430136,OM-DA,,
-789076,-1137010,hydrographic,"Wādī Suwār","Wadi Suwar",official,23.946667,56.143889,OM-BU,,
-788912,-1136749,hydrographic,"Khawr Shumayr","Khawr Shumayr",official,18.569198,56.63785,OM-WU,,
-788982,19199520,settlement,"Al Khalw","Al Khalw",variant,24.69307,56.16441,OM-BU,,
-789028,18663136,hypsographic,"Sayḥ as Sumaynī","Sayh as Sumayni",variant,24.674617,55.882013,OM-BU,,
-788896,-1132348,hydrographic,"Wādī Ashīyah","Wadi Ashiyah",variant,24.66221,55.93664,OM-BU,,
-788833,-1136613,hypsographic,"Rās Sharita","Ras Sharita",variant,26.38855,56.37869,OM-MU,,
-788908,14162045,settlement,Shīḩayt,Shihayt,official,17.117197,54.418055,OM-ZU,,
-789090,-1137033,settlement,Ţabāqah,Tabaqah,variant,23.387728,57.313576,OM-BJ,,
-789243,18690981,hypsographic,"رملة مديسيس","رملة مديسيس",unknown,19.700241,54.770681,OM-ZU,,
-788987,18742334,hypsographic,"Jabal aṣ Ṣubaykhī","Jabal as Subaykhi",variant,23.299133,56.406337,OM-ZA,,
-789109,19070016,hydrographic,"Wādī Dhurf","Wadi Dhurf",official,18.934214,57.344379,OM-WU,,
-789036,-1134146,settlement,"Hijar Sajr Sanaiba","Hijar Sajr Sanaiba",variant,23.195556,57.5575,OM-BJ,,
-788956,-1136821,hypsographic,Sih-Mall-Rakhyūt,Sih-Mall-Rakhyut,variant,16.799713,53.387671,OM-ZU,,
-788973,13131988,settlement,صياء,صياء,unknown,23.21114,58.68329,OM-MA,,
-788645,18955452,hypsographic,"Ramlat as Saḥmah","Ramlat as Sahmah",variant,20.553982,55.219727,OM-WU,,
-789172,18742545,hydrographic,"وادي الثّقبة","وادي الثقبة",unknown,24.26015,56.358671,OM-BU,,
-788803,18776126,settlement,الشّخاخيط,الشخاخيط,unknown,23.698634,58.040014,OM-BJ,,
-789236,18850026,hydrographic,"وادي أم الصخة","وادي أم الصخة",unknown,21.170924,57.504136,OM-WU,,
-788751,-1136489,settlement,Sayfam,Sayfam,official,22.971997,57.132707,OM-DA,,
-789366,-1137441,hydrographic,"Tawi Yasir","Tawi Yasir",variant,22.605237,57.574022,OM-DA,,
-789334,-1137385,hydrographic,"Wādī Wirak","Wadi Wirak",official,22.837151,56.596554,OM-DA,,
-788612,19194305,hydrographic,"Wādī aş Şadd","Wadi as Sadd",official,24.53752,56.10986,OM-BU,,
-788976,-1136856,hydrographic,"Wādī Soq Thkhaaf","Wadi Soq Thkhaaf",official,17.133333,54,OM-ZU,,
-789060,-1136967,hypsographic,Surair,Surair,variant,19.807913,57.740598,OM-WU,,
-788967,18877619,settlement,"As Sirīrah","As Sirirah",variant,22.689522,58.544915,OM-SS,,
-789402,19083689,hypsographic,"Ra’s adh Dharī","Ra's adh Dhari",variant,20.215968,58.72317,OM-SJ,,
-789392,-1137477,park,Z̧āhirīyah,Zahiriyah,variant,20.366667,58.8,OM-SJ,,
-788779,18676237,hydrographic,"وادي شغب","وادي شغب",unknown,24.897775,55.952064,OM-BU,,
-788889,18771102,settlement,"Shirs Āl Birayk","Shirs Al Birayk",variant,23.792147,57.599119,OM-BS,,
-788930,18710647,hypsographic,"Ra’s ash Shuwaymiyyah","Ra's ash Shuwaymiyyah",variant,17.895546,55.901673,OM-ZU,,
-789052,-1136992,settlement,"Sūr Yāl Hillāl","Sur Yal Hillal",variant,23.842336,57.358907,OM-BS,,
-789343,-1137399,settlement,Wukābah,Wukabah,variant,23.449121,57.569645,OM-BJ,,
-789027,-1136936,hypsographic,"Jabal Sumaynī","Jabal Sumayni",variant,24.701527,55.918644,OM-BU,,
-788708,472197,settlement,Şumrah,Sumrah,variant,23.088587,58.111583,OM-DA,,
-789204,18779480,hydrographic,"Wādī ‘Iday","Wadi `Iday",variant,23.618066,58.481741,OM-MA,,
-788985,-1136869,settlement,Şubaykhah,Subaykhah,variant,23.382262,57.661124,OM-BJ,,
-788583,18776129,hydrographic,"وادي الرّويكي","وادي الرويكي",unknown,23.577413,58.12038,OM-MA,,
-788925,-1136768,hypsographic,"Qurūn Shuţaynah","Qurun Shutaynah",variant,17.553746,53.284013,OM-ZU,,
-788937,-1136785,hydrographic,"Wādī Shuwayqī","Wadi Shuwayqi",variant,21.827664,56.419182,OM-ZA,,
-789047,-1136965,settlement,Şūr,Sur,official,22.566667,59.528889,OM-SJ,,
-789388,18621596,hydrographic,"Wādī Ḑab‘ayn","Wadi Dab`ayn",official,24.639055,56.525635,OM-BS,,
-788791,-1136544,hydrographic,"Ghubbat Shābūş","Ghubbat Shabus",official,26.1844,56.45711,OM-MU,,
-789401,19103913,hypsographic,Zanātīyāt,Zanatiyat,official,20.30608,58.590039,OM-SJ,,
-789425,18757989,settlement,"Az̧ Z̧uwayhir","Az Zuwayhir",official,23.554167,57.230556,OM-DA,,
-788694,-1136386,settlement,"Samad Town","Samad Town",variant,22.823799,58.162622,OM-SS,,
-789263,-1137290,hydrographic,‘Usay,`Usay,variant,19.666667,57.566667,OM-WU,,
-789349,-1137407,hydrographic,"Wādī al Yābis","Wadi al Yabis",official,24.526,56.03665,OM-BU,,
-788653,-1136307,settlement,Sa‘īdah,Sa`idah,variant,23.688932,56.755178,OM-000,,
-788602,-1136231,hydrographic,"Wādī Sabkhar","Wadi Sabkhar",variant,17.032532,54.462822,OM-ZU,,
-788839,18676241,hydrographic,"وادي شرم","وادي شرم",unknown,24.5028,56.02773,OM-BU,,
-788970,19041720,hypsographic,"رأس صراب","رأس صراب",unknown,20.189077,57.820943,OM-WU,,
-789161,-1137135,hydrographic,"Wādī Thimrīn","Wadi Thimrin",official,17.001944,54.066944,OM-ZU,,
-788954,-1136818,hydrographic,"Wādī Sihah","Wadi Sihah",official,22.750409,56.598327,OM-DA,,
-789192,18592113,settlement,"طريف حجّي","طريف حجي",unknown,24.672938,56.478496,OM-BS,,
-789010,-1136277,settlement,Sahaiah,Sahaiah,variant,24.267886,56.371056,OM-BU,,
-788783,18990377,settlement,شيهيت,شيهيت,unknown,17.042682,54.008217,OM-ZU,,
-789284,18683449,hydrographic,"وادي عيون","وادي عيون",unknown,17.295766,53.772365,OM-ZU,,
-789191,-1137171,settlement,Ţūnus,Tunus,variant,23.375484,58.515837,OM-MA,,
-788645,-1136298,hypsographic,"Ramlat as Saḩmah","Ramlat as Sahmah",official,20.553982,55.219727,OM-WU,,
-789353,-1137412,hypsographic,"Ra’s Yafnara","Ra's Yafnara",variant,26.24719,56.46258,OM-MU,,
-789354,-1137415,settlement,"Yaḩī Risākh","Yahi Risakh",official,17.483333,54.55,OM-ZU,,
-789131,-1137094,settlement,"Ţawiyān Yiţī","Tawiyan Yiti",variant,23.507152,58.666052,OM-MA,,
-788811,18688640,hypsographic,"رأس شعم","رأس شعم",unknown,26.067237,56.090712,OM-MU,,
-789096,18787730,settlement,الطيخة,الطيخة,unknown,23.428807,57.440914,OM-BJ,,
-789388,18707883,hydrographic,"Wādī Ḑab‘īn","Wadi Dab`in",variant,24.639055,56.525635,OM-BS,,
-788925,12906882,hypsographic,"Qarn Shutānah","Qarn Shutanah",variant,17.553746,53.284013,OM-ZU,,
-789189,19223692,settlement,تول,تول,unknown,23.02406,58.74327,OM-MA,,
-789151,-1137119,hydrographic,"Wādī Thajah","Wadi Thajah",official,24.175539,56.156081,OM-BU,,
-788744,-1136473,hydrographic,Sawqarah,Sawqarah,variant,18.330713,56.642931,OM-WU,,
-789072,18774538,settlement,"As Sawādī as Sāḩil","As Sawadi as Sahil",official,23.769167,57.765278,OM-BJ,,
-789220,-1137220,hypsographic,"Kharimat Umm al Aush","Kharimat Umm al Aush",variant,23.433333,55.416667,S1-000,,
-788986,-1136870,settlement,Şubaykhah,Subaykhah,variant,23.841971,57.383938,OM-BS,,
-789360,18719575,hypsographic,"Sayḥ Yaḥlā","Sayh Yahla",variant,23.928292,55.586705,OM-BU,,
-788815,-1136752,hypsographic,"Jabal Shumm","Jabal Shumm",variant,26.23305,56.33715,OM-MU,,
-789188,-1137166,hydrographic,Ţubayq,Tubayq,variant,18.247026,52.402841,S1-000,,
-788894,19080500,hydrographic,"وادي شتال","وادي شتال",unknown,20.219197,57.735196,OM-WU,,
-789093,-1137036,hydrographic,"Wādī at Tabarran","Wadi at Tabarran",official,17.450119,55.257067,OM-ZU,,
-789123,18844739,hydrographic,"Ṭawī Karaysh","Tawi Karaysh",variant,21.007637,58.037137,OM-WU,,
-788760,-1136499,spot,"Sayḩ an Na‘ama","Sayh an Na`ama",variant,18.716667,53.983333,OM-ZU,,
-789112,-1137070,settlement,Ţāwā,Tawa,variant,22.402831,59.243811,OM-SJ,,
-788568,-1132327,settlement,"Ar Rumaidh","Ar Rumaidh",variant,23.683864,57.995247,OM-BJ,,
-789250,18674634,hypsographic,"سيح أم الطّراثيث","سيح أم الطراثيث",unknown,24.839801,55.897526,OM-BU,,
-788635,-1136280,settlement,Şahalnawt,Sahalnawt,official,17.136194,54.183614,OM-ZU,,
-788957,-1136822,settlement,"Sikun Shikfainot","Sikun Shikfainot",official,17.133056,54.158889,OM-ZU,,
-789321,-1137365,settlement,Wāsiţ,Wasit,variant,23.517157,57.84928,OM-BJ,,
-789313,18663075,hypsographic,"Jabal al Was‘ah","Jabal al Was`ah",official,24.725066,55.864438,OM-BU,,
-788689,-1136379,settlement,Salūt,Salut,variant,23.053177,57.658726,OM-DA,,
-789328,18629573,settlement,ويت,ويت,unknown,23.903741,56.523512,OM-BS,,
-789162,18079830,settlement,تدهو,تدهو,unknown,17.718742,53.063893,OM-ZU,,
-789056,18843190,settlement,"Aş Şuraymah","As Suraymah",official,21.062396,58.357893,OM-WU,,
-789409,-1132985,settlement,Ḑab‘,Dab`,variant,23.45012,57.11427,OM-DA,,
-789136,18795546,hypsographic,"Jabal aṭ Ṭā’iyyin","Jabal at Ta'iyyin",variant,23.388871,58.316004,OM-MA,,
-789089,-1137032,hydrographic,Tabah,Tabah,official,17.133611,54.041944,OM-ZU,,
-789090,18786905,settlement,"Aṭ Ṭabāqah","At Tabaqah",variant,23.387728,57.313576,OM-BJ,,
-789227,12907124,hypsographic,"رملة أم الحياة","رملة أم الحياة",unknown,18.694038,53.689694,OM-ZU,,
-789157,-1137131,settlement,Thermod,Thermod,variant,23.78854,57.522738,OM-BS,,
-788567,-1136165,hypsographic,Rumaylī,Rumayli,official,20.35,57.783333,OM-WU,,
-788816,-1134672,hydrographic,"Khawr Khasaibi","Khawr Khasaibi",variant,26.21633,56.34212,OM-MU,,
-788851,-1136643,hydrographic,"Wādī ash Shawq","Wadi ash Shawq",variant,16.910313,53.749022,OM-ZU,,
-788816,-1136576,hydrographic,Khor-ash-Sham,Khor-ash-Sham,variant,26.21633,56.34212,OM-MU,,
-789171,18674632,hydrographic,"وادي ثقيبة","وادي ثقيبة",unknown,24.992711,55.939317,S1-000,,
-789320,-1137363,settlement,Wāsiţ,Wasit,variant,23.15609,58.31181,OM-DA,,
-789188,17945138,hydrographic,"سيح طبيق","سيح طبيق",unknown,18.247026,52.402841,S1-000,,
-788898,-1136732,hydrographic,"Wādī Shu‘ayb","Wadi Shu`ayb",official,24.780556,55.830833,S1-000,,
-789396,-1137481,hydrographic,"Wādī Z̧ā‘in","Wadi Za`in",variant,23.088868,57.290994,OM-DA,,
-789109,19070017,hydrographic,"وادي ذرف","وادي ذرف",unknown,18.934214,57.344379,OM-WU,,
-788704,-1136400,hypsographic,"Jabal Samḩān","Jabal Samhan",official,17.146638,54.793421,OM-ZU,,
-789041,18792550,settlement,صنعاء,صنعاء,unknown,23.19303,57.628676,OM-BJ,,
-789159,-1137132,hydrographic,"Wādī Thet","Wadi Thet",official,16.992564,54.008986,OM-ZU,,
-788694,18851649,settlement,"Samad ash Sha’n","Samad ash Sha'n",official,22.823799,58.162622,OM-SS,,
-788624,-1136260,settlement,Safqot,Safqot,variant,16.761727,53.488725,OM-ZU,,
-789185,18886520,hydrographic,"Wādī Ṭīwī","Wadi Tiwi",variant,22.822118,59.257901,OM-MA,,
-788656,-1132314,settlement,Arkabait,Arkabait,variant,17.133333,54.45,OM-ZU,,
-789223,-1137230,hypsographic,"Jazīrat Umm al Fayyārīn","Jazirat Umm al Fayyarin",official,26.17893,56.54651,OM-MU,,
-788571,-1136173,hypsographic,"Ruq‘at al Hall","Ruq`at al Hall",variant,23.09319,55.24621,S1-000,,
-788838,19101535,hydrographic,"جفر شرخوتي","جفر شرخوتي",unknown,21.594795,57.989837,OM-SS,,
-788838,19101536,hydrographic,"Jifr Sharkhūtī","Jifr Sharkhuti",variant,21.594795,57.989837,OM-SS,,
-788800,-1136534,hydrographic,"Wādī Sha‘ath","Wadi Sha`ath",official,16.958039,53.883071,OM-ZU,,
-788941,18779483,spot,"Muscat International Airport","Muscat International Airport",variant,23.601145,58.287135,OM-MA,,
-788696,-1136933,settlement,Sumayil,Sumayil,variant,23.298383,57.953103,OM-DA,,
-788657,12905436,hypsographic,"Ra’s Sajir","Ra's Sajir",variant,16.749167,53.585893,OM-ZU,,
-789389,-1137469,settlement,Z̧abyat,Zabyat,variant,24.358579,56.361999,OM-BS,,
-788764,-1136320,park,"Saih Rawl","Saih Rawl",variant,21.25,56.116667,OM-WU,,
-789150,-1137118,settlement,Thagi,Thagi,variant,25.705836,56.272112,OM-MU,,
-788922,19080404,hydrographic,"وادي الشوورم","وادي الشوورم",unknown,20.140607,57.694985,OM-WU,,
-788999,18703695,hydrographic,"وادي صقيدة","وادي صقيدة",unknown,24.774219,56.294914,OM-BS,,
-788723,19176535,settlement,"Aş Şarfānah","As Sarfanah",official,24.13117,56.20065,OM-BU,,
-788747,-1136482,hypsographic,"Ra’s Sawţ","Ra's Sawt",variant,25.681856,56.282927,OM-MU,,
-789065,-1136989,settlement,"Şūr Maşīrah","Sur Masirah",variant,20.416078,58.734853,OM-SJ,,
-788637,-1136286,settlement,"Saham Town","Saham Town",variant,24.172222,56.888611,OM-BS,,
-789080,19090076,park,سويحات,سويحات,unknown,20.028619,56.148827,OM-WU,,
-789096,18787731,settlement,"Aṭ Ṭīkhah","At Tikhah",variant,23.428807,57.440914,OM-BJ,,
-789032,18877476,settlement,إسماعيّة,إسماعية,unknown,22.909268,58.883262,OM-MA,,
-788643,19086878,hypsographic,"قرن السحمة","قرن السحمة",unknown,20.607091,56.588662,OM-WU,,
-789115,-1137075,hypsographic,"Ţawf al Wāţ","Tawf al Wat",official,19.75,57.533333,OM-WU,,
-789238,19104636,hypsographic,"Ramlat Masābīkh Um as Samīm","Ramlat Masabikh Um as Samim",variant,21.655842,55.605139,OM-ZA,,
-789075,-1137009,settlement,Suwār,Suwar,official,24.016667,56.466667,OM-BS,,
-789065,19086856,settlement,"صور مصيرة","صور مصيرة",unknown,20.416078,58.734853,OM-SJ,,
-788815,-1136582,hypsographic,"Jabal Shamm","Jabal Shamm",official,26.23305,56.33715,OM-MU,,
-789101,-1137054,hydrographic,"Wādī Tanfarawt","Wadi Tanfarawt",variant,17.301566,52.919334,S1-000,,
-788592,13132030,settlement,"As Sa‘ādī","As Sa`adi",official,23.312191,58.565074,OM-MA,,
-788648,18787271,hydrographic,"Wādī as Saḩtan","Wadi as Sahtan",official,23.462817,57.445685,OM-000,,
-789209,18905962,hydrographic,عُكَيرِشَة,عكيرشة,unknown,22.550045,55.757186,OM-ZA,,
-788902,18769786,hypsographic,"جبل الشبيكة","جبل الشبيكة",unknown,23.533105,57.481716,OM-BJ,,
-789199,18873257,hypsographic,"رملة الطويق","رملة الطويق",unknown,21.399376,56.435635,OM-WU,,
-788602,19069245,hydrographic,"وادي سابقر","وادي سابقر",unknown,17.032532,54.462822,OM-ZU,,
-788874,-1136684,settlement,Shīdah,Shidah,official,23.983021,56.644388,OM-BS,,
-789053,18771085,settlement,"برج آل خميس","برج آل خميس",unknown,23.75577,57.639885,OM-BS,,
-789252,19006241,hydrographic,"‘Ayn Ḩamrān","`Ayn Hamran",official,17.098783,54.281443,OM-ZU,,
-788826,54298,settlement,Sharbithāt,Sharbithat,variant,17.938612,56.274357,OM-ZU,,
-788884,-1136697,hydrographic,"Shi‘b Shikl","Shi`b Shikl",official,22.757355,56.597373,OM-DA,,
-789210,18855646,settlement,"Al Likhayḑir","Al Likhaydir",official,22.626352,58.006947,OM-DA,,
-789250,18674635,hypsographic,"Sayḥ Um aṭ Ṭarāthīth","Sayh Um at Tarathith",variant,24.839801,55.897526,OM-BU,,
-788979,-1136859,hypsographic,"South Peak","South Peak",official,20.183333,58.65,OM-SJ,,
-788837,-1136622,settlement,Sharkh,Sharkh,official,21.23467,59.01712,OM-SJ,,
-789226,-1132208,spot,Amilḩayt,Amilhayt,variant,18.633333,53.8,OM-ZU,,
-788633,19091036,hypsographic,"Ra’s aş Şaqlah","Ra's as Saqlah",official,21.513561,59.382161,OM-SJ,,
-789191,13137745,settlement,تونس,تونس,unknown,23.375484,58.515837,OM-MA,,
-789395,-1137480,settlement,"Z̧ahr Sidrah","Zahr Sidrah",official,23.25,58.583333,OM-MA,,
-788707,-1136524,hydrographic,"Wādī Seemer","Wadi Seemer",variant,17.759305,52.822821,OM-ZU,,
-789301,18706963,settlement,الوديّات,الوديات,unknown,24.778495,56.45487,OM-BS,,
-789109,-1137128,hydrographic,"Wādī Tharif","Wadi Tharif",variant,18.934214,57.344379,OM-WU,,
-788725,19265340,hydrographic,"Wādī as Sirrīn","Wadi as Sirrin",official,23.24336,58.53433,OM-MA,,
-788747,-1137013,hypsographic,"Ra’s Suwat","Ra's Suwat",variant,25.681856,56.282927,OM-MU,,
-788621,-1136253,hypsographic,"Jabal Safaij","Jabal Safaij",variant,20.432444,58.775109,OM-SJ,,
-788871,-1136679,park,Shibith,Shibith,official,17.325746,52.77012,OM-ZU,,
-789126,18775044,settlement,"Ţawī as Sayḩ","Tawi as Sayh",official,23.302778,57.55,OM-BJ,,
-788566,18707898,settlement,الرّميلة,الرميلة,unknown,24.572462,56.552841,OM-BS,,
-788990,18770664,hypsographic,"سيح سديرة","سيح سديرة",unknown,24.030959,55.962973,OM-BU,,
-789136,18795517,hypsographic,"Jabal aţ Ţā’īyīn","Jabal at Ta'iyin",official,23.388871,58.316004,OM-MA,,
-789296,18842366,settlement,"Al Wadīm","Al Wadim",official,22.668023,57.348632,OM-DA,,
-788597,18776128,hydrographic,"وادي سعال","وادي سعال",unknown,23.52813,58.20322,OM-MA,,
-788610,-1136242,hydrographic,"Wādī Sadam","Wadi Sadam",official,23.703611,56.750556,OM-BS,,
-789084,-1137025,hydrographic,"Wādī Suwayqimah","Wadi Suwayqimah",official,23.310659,57.639751,OM-BJ,,
-788744,-1136477,hydrographic,"Dawḩat Şawqirah","Dawhat Sawqirah",variant,18.330713,56.642931,OM-WU,,
-788755,18796225,settlement,"As Sayḩ","As Sayh",official,23.027455,58.011448,OM-DA,,
-788946,-1136806,hypsographic,"Ras Sidarra","Ras Sidarra",variant,19.884137,57.770868,OM-WU,,
-789087,171122,hypsographic,"Jabal Sawţ","Jabal Sawt",variant,25.661414,56.257821,OM-MU,,
-789231,-1137242,hypsographic,"Umm al Jarād","Umm al Jarad",official,20.566667,57.516667,OM-WU,,
-789457,-1136427,hydrographic,"Wadi Sarab","Wadi Sarab",variant,20.179592,57.817301,OM-WU,,
-789265,18875591,hydrographic,"Wādī al ‘Ushaysh","Wadi al `Ushaysh",official,22.228397,57.622563,OM-DA,,
-788603,-1136232,settlement,Sabt,Sabt,official,22.477304,59.124522,OM-SS,,
-788892,19181851,hydrographic,"دوحة شيصة","دوحة شيصة",unknown,26.265366,56.438444,OM-MU,,
-789301,18735003,settlement,Wadīyāt,Wadiyat,variant,24.778495,56.45487,OM-BS,,
-789309,18877472,settlement,الولجة,الولجة,unknown,22.989558,58.789737,OM-MA,,
-789336,18787219,settlement,الوشيل,الوشيل,unknown,23.47442,57.440849,OM-BJ,,
-788744,-1136916,hydrographic,"Sukra Bay","Sukra Bay",variant,18.330713,56.642931,OM-WU,,
-789424,-1137524,settlement,Z̧uwayhir,Zuwayhir,variant,23.42088,57.15038,OM-DA,,
-788926,472193,settlement,Shuway‘ī,Shuway`i,variant,23.239327,58.114115,OM-DA,,
-788746,-1136481,settlement,Şawţ,Sawt,variant,23.04752,58.68834,OM-MA,,
-788573,-1136176,hypsographic,"Ruq‘at Sallah","Ruq`at Sallah",variant,23.844722,55.573056,OM-BU,,
-788867,18737904,hydrographic,"Shi‘āb al Ghāf","Shi`ab al Ghaf",official,24.056018,55.739161,S1-000,,
-789219,-1137218,hypsographic,"Ramlat Umm al Aradh","Ramlat Umm al Aradh",variant,19.777438,54.477581,OM-ZU,,
-789251,-1137273,hydrographic,"Ţawī Umm Ţarāthīth","Tawi Umm Tarathith",variant,24.848624,55.906044,OM-BU,,
-789034,14188513,hydrographic,"Wadi Sumr","Wadi Sumr",variant,17.001944,54.066389,OM-ZU,,
-788648,-1136302,hydrographic,"Wādī Saḩtan","Wadi Sahtan",variant,23.462817,57.445685,OM-000,,
-789131,18798067,settlement,"طويان يتي","طويان يتي",unknown,23.507152,58.666052,OM-MA,,
-788901,18769778,settlement,"Ash Shubaykah","Ash Shubaykah",official,23.537521,57.471104,OM-BJ,,
-789309,-1137347,settlement,Waljah,Waljah,variant,22.989558,58.789737,OM-MA,,
-789416,18886444,settlement,العوينة,العوينة,unknown,22.591435,59.089526,OM-SS,,
-788571,-1136172,hypsographic,"Ruq‘at al Hal","Ruq`at al Hal",variant,23.09319,55.24621,S1-000,,
-789150,482039,settlement,Zaghī,Zaghi,official,25.705836,56.272112,OM-MU,,
-788833,-1136599,hypsographic,"Ra’s Sharaytah","Ra's Sharaytah",variant,26.38855,56.37869,OM-MU,,
-789092,-1132444,hypsographic,"Ra’s Attabarran","Ra's Attabarran",variant,17.583333,55.25,OM-ZU,,
-789214,-1137204,settlement,‘Ulyah,`Ulyah,variant,23.10304,58.56736,OM-SS,,
-788640,18707894,settlement,حرمول,حرمول,unknown,24.527334,56.596528,OM-BS,,
