wgdPlaceId,wgdId,type,name,fullName,nameType,latitude,longitude,administrationGroup,isHistorical,isCapital
14192430,18302167,settlement,Marly,Marly,official,16.281649,-61.340082,GP-000,,
-3750740,-4988025,hypsographic,Antillen,Antillen,variant,18.733333,-69.15,S1-000,,
-3750740,-4988024,hypsographic,Antillas,Antillas,variant,18.733333,-69.15,S1-000,,
-3750740,-4988026,hypsographic,Antilles,Antilles,colloquial,18.733333,-69.15,S1-000,,
-1544444,-2196990,hypsographic,Antillas,Antillas,variant,19.383333,-71.216667,S1-000,,
-1544444,-2196991,hypsographic,Antilles,Antilles,variant,19.383333,-71.216667,S1-000,,
-1544444,-2199262,hypsographic,West-Indië,West-Indie,variant,19.383333,-71.216667,S1-000,,
-1544444,-2199263,hypsographic,"West Indies","West Indies",colloquial,19.383333,-71.216667,S1-000,,
-1203803,-1769290,hydrographic,"Passe du Sud-Est","Passe du Sud-Est",variant,15.851629,-61.608144,GP-000,,
-1203807,-1767723,settlement,"De Surgy","De Surgy",variant,16.262779,-61.34041,GP-000,,
-1203780,-1769236,settlement,Sèze,Seze,official,16.249116,-61.287939,GP-000,,
-1203838,-1769350,hydrographic,"Ravine Trianon","Ravine Trianon",variant,15.899078,-61.314781,GP-000,,
-1203860,-1769381,hydrographic,"Anse du Vanovre","Anse du Vanovre",variant,15.857848,-61.588042,GP-000,,
-1203799,-1769279,settlement,Subercazeaux,Subercazeaux,official,16.295272,-61.659339,GP-000,,
-1203794,-1769269,hydrographic,"Passe du Souffleur","Passe du Souffleur",official,15.837913,-61.614533,GP-000,,
-1203866,18292739,settlement,"La Rose Verger","La Rose Verger",official,15.940946,-61.261846,GP-000,,
-1203811,-1769302,hypsographic,"Pointe Tarare","Pointe Tarare",official,16.25757,-61.198917,GP-000,,
-1203888,-1769421,hydrographic,"Vieux-Fort Rivière","Vieux-Fort Riviere",variant,16.354424,-61.74901,GP-000,,
-1203783,18227677,hypsographic,"Pointe Fillon","Pointe Fillon",official,16.198798,-61.78662,GP-000,,
-1203814,-1769318,hypsographic,"Terre du Bas","Terre du Bas",variant,15.85,-61.616667,GP-000,,
-1203791,18316583,hydrographic,"Accul du Souffleur","Accul du Souffleur",official,16.475444,-61.422133,GP-000,,
-1203852,-1769370,hypsographic,"Pointe à Vache","Pointe a Vache",official,15.87075,-61.635604,GP-000,,
-1203848,-1769363,hydrographic,"Rivière du Trou aux Chiens","Riviere du Trou aux Chiens",official,15.986227,-61.61473,GP-000,,
-1203858,-1769378,settlement,"Vallon Vrimouth","Vallon Vrimouth",official,15.941283,-61.269969,GP-000,,
-1203810,-1769301,hydrographic,"Anse Tarare","Anse Tarare",official,16.256076,-61.204462,GP-000,,
-1203776,-1769230,hydrographic,"Havre à Seines","Havre a Seines",official,15.858667,-61.618775,GP-000,,
-1203818,-1769369,hypsographic,"Upper Saint Island","Upper Saint Island",variant,15.866667,-61.583333,GP-000,,
-1203886,-1768745,hypsographic,"Old Fort Point","Old Fort Point",variant,16.355475,-61.759922,GP-000,,
-1203825,-1769325,hypsographic,"Tête Rouge","Tete Rouge",variant,15.86512,-61.589714,GP-000,,
-1203862,-1769386,hypsographic,"Pointe du Vent","Pointe du Vent",official,15.879469,-61.568946,GP-000,,
-1203814,-1768500,hypsographic,"Lower Saint Island","Lower Saint Island",variant,15.85,-61.616667,GP-000,,
-1203849,-1769366,hydrographic,"Anse Turlet","Anse Turlet",official,15.973768,-61.711313,GP-000,,
-1203885,-1769412,hypsographic,"Pointe du Vieux-Fort","Pointe du Vieux-Fort",variant,15.948772,-61.707302,GP-000,,
-1203910,-1769452,hydrographic,"Étang Zombie","Etang Zombie",variant,16.032945,-61.623817,GP-000,,
-1203869,-1769393,settlement,Versailles,Versailles,official,16.221551,-61.601621,GP-000,,
-1203860,-1769380,hydrographic,"Anse Vanovre","Anse Vanovre",variant,15.857848,-61.588042,GP-000,,
-1203827,-1769328,hypsographic,Ti-Charlie,Ti-Charlie,official,15.878878,-61.59953,GP-000,,
-1203882,-1769408,hydrographic,"Anse du Vieux-Fort","Anse du Vieux-Fort",variant,16.35539,-61.752822,GP-000,,
-1203890,-1768033,hydrographic,"Grande Rivière","Grande Riviere",variant,16.060746,-61.770079,GP-000,,
-1203838,18292756,hydrographic,"Ravine de Trianon","Ravine de Trianon",official,15.899078,-61.314781,GP-000,,
-1203888,-1769418,hydrographic,"Rivière du Vieux-Fort","Riviere du Vieux-Fort",variant,16.354424,-61.74901,GP-000,,
-1203912,-1769456,hypsographic,"Pointe Zozio","Pointe Zozio",official,15.882772,-61.570903,GP-000,,
-1203798,-1769273,hydrographic,"Anse à la Source","Anse a la Source",official,15.967515,-61.636997,GP-000,,
-1203864,-1769388,settlement,Verdier,Verdier,official,16.2,-61.6,GP-000,,
-1203905,-1769444,hydrographic,"Îlet Yonka","Ilet Yonka",official,16.160081,-61.57428,GP-000,,
-1203866,-1769390,settlement,Vergé,Verge,variant,15.940946,-61.261846,GP-000,,
-1203819,-1769312,hypsographic,"Terre de Haut","Terre de Haut",official,16.177333,-61.107752,GP-000,,
-1203846,18227673,hypsographic,"Pointe à Roche","Pointe a Roche",variant,16.344702,-61.716296,GP-000,,
-1203790,18317633,hypsographic,"Pointe du Souffleur","Pointe du Souffleur",official,16.475905,-61.420661,GP-000,,
-1203812,-1769303,hypsographic,"Pointe à la Taste","Pointe a la Taste",variant,15.972196,-61.619391,GP-000,,
-1203859,-1769379,settlement,Vanniers,Vanniers,official,15.921145,-61.279989,GP-000,,
-1203892,-1769425,settlement,Village,Village,official,16.130125,-61.768639,GP-000,,
-1203814,-1769193,hypsographic,"Île Saint-Paul","Ile Saint-Paul",variant,15.85,-61.616667,GP-000,,
-1203784,-1769242,hypsographic,"Plaine de la Simonière","Plaine de la Simoniere",official,16.26342,-61.321814,GP-000,,
-1203897,-1769430,hypsographic,"Pointe Violon","Pointe Violon",official,15.950859,-61.680462,GP-000,,
-1203875,-1769400,settlement,Vidon,Vidon,official,15.90174,-61.250126,GP-000,,
-1203780,-1769237,settlement,"Sèze Favreau","Seze Favreau",variant,16.249116,-61.287939,GP-000,,
-1203910,-1769453,hydrographic,"Zombie Pond","Zombie Pond",variant,16.032945,-61.623817,GP-000,,
-1203845,-1769360,hypsographic,"Pointe des Trois Vaches","Pointe des Trois Vaches",variant,16.492863,-61.485345,GP-000,,
-1203889,-1769422,settlement,Vieux-Habitants,Vieux-Habitants,official,16.058662,-61.766671,GP-000,,
-1203851,18275433,spot,"Fort l’Union","Fort l'Union",official,16.21615,-61.525915,GP-000,,
-1203872,-1769397,hypsographic,"Plage de Viard","Plage de Viard",official,16.165947,-61.584932,GP-000,,
-1203911,-1769451,hypsographic,"Pointe à Zombi","Pointe a Zombi",official,16.18596,-61.783584,GP-000,,
-1203819,-1769317,hypsographic,"Terre d’en Haut","Terre d'en Haut",variant,16.177333,-61.107752,GP-000,,
-1203909,-1769455,hydrographic,"Anse à Zomby","Anse a Zomby",variant,16.184432,-61.783643,GP-000,,
-1203818,-1769198,hypsographic,"Île Saint-Pierre","Ile Saint-Pierre",variant,15.866667,-61.583333,GP-000,,
-1203816,18316450,settlement,Petites-Anses,Petites-Anses,variant,15.849933,-61.644565,GP-000,,
-1203894,-1769427,hydrographic,"Anse Vinaigri","Anse Vinaigri",official,16.198484,-61.469054,GP-000,,
-1203770,-1769222,hypsographic,"Pointe de la Savane","Pointe de la Savane",official,16.5,-61.45,GP-000,,
-1203887,-1769416,hydrographic,"Rivière de Vieux-Fort","Riviere de Vieux-Fort",variant,15.987507,-61.300838,GP-000,,
-1203889,-1768437,settlement,"Les Habitants","Les Habitants",variant,16.058662,-61.766671,GP-000,,
-1203834,18316582,hydrographic,"Accul à Tortue","Accul a Tortue",official,16.478465,-61.426384,GP-000,,
-1203850,-1769367,hypsographic,"Pointe Turlet","Pointe Turlet",official,15.970454,-61.709867,GP-000,,
-1203852,-1768788,hypsographic,"Pointe du Pâté","Pointe du Pate",variant,15.87075,-61.635604,GP-000,,
-1203818,-1769195,hypsographic,"Saint Peter Island","Saint Peter Island",variant,15.866667,-61.583333,GP-000,,
-1203847,-1769362,hypsographic,"Montagne du Trou aux Chiens","Montagne du Trou aux Chiens",official,16,-61.633333,GP-000,,
-1203933,-1768030,hydrographic,"Grande Ravine","Grande Ravine",official,15.843351,-61.639851,GP-000,,
-1203803,-1769287,hydrographic,"Passe du Sud","Passe du Sud",official,15.851629,-61.608144,GP-000,,
-1203853,-1769371,hydrographic,"Banc des Vaisseaux","Banc des Vaisseaux",official,16.133333,-61.283333,GP-000,,
-1203879,-1769405,settlement,Vieux-Fort,Vieux-Fort,official,15.949593,-61.699281,GP-000,,
-1203907,-1769446,settlement,Zévallos,Zevallos,official,16.30542,-61.30299,GP-000,,
-1203887,-1769417,hydrographic,"Rivière du Vieux Fort","Riviere du Vieux Fort",official,15.987507,-61.300838,GP-000,,
-1203873,-1769398,hypsographic,"Pointe Viard","Pointe Viard",official,16.498521,-61.451005,GP-000,,
-1203886,-1769414,hypsographic,"Pointe du Vieux-Fort","Pointe du Vieux-Fort",variant,16.355475,-61.759922,GP-000,,
-1203816,-1768374,settlement,"Le Bourg","Le Bourg",variant,15.849933,-61.644565,GP-000,,
-1203841,-1769356,hydrographic,"Troisième Bras","Troisieme Bras",official,16.25,-61.683333,GP-000,,
-1203933,-2150086,hydrographic,"La Grande Ravine","La Grande Ravine",variant,15.843351,-61.639851,GP-000,,
-1203877,-1769402,hypsographic,"Pointe de la Vieille Anse","Pointe de la Vieille Anse",official,15.883333,-61.583333,GP-000,,
-1203800,-1769283,hydrographic,"Baleine du Sud","Baleine du Sud",official,16.164532,-61.111615,GP-000,,
-1203768,-1769220,hypsographic,"Caye à Sauté","Caye a Saute",official,16.1,-61.566667,GP-000,,
-1203843,-1769358,settlement,Trois-Rivières,Trois-Rivieres,official,15.975947,-61.644919,GP-000,,
-1203891,-1769424,hypsographic,"Morne Vigie","Morne Vigie",official,15.851907,-61.64583,GP-000,,
-1203895,-1769428,settlement,Vince,Vince,official,16.233333,-61.6,GP-000,,
-1203813,-1769305,spot,"Terre de Bas","Terre de Bas",short,15.85,-61.633333,GP-000,,
-1203887,-1769415,hydrographic,"Ravine de Vieux Fort","Ravine de Vieux Fort",variant,15.987507,-61.300838,GP-000,,
-1203856,-1769376,settlement,Valeau,Valeau,official,16.036067,-61.719001,GP-000,,
-1203874,-1768366,hydrographic,"Ravine La Viard","Ravine La Viard",variant,16.324855,-61.683769,GP-000,,
-1203905,-1769443,hydrographic,"Îlet Yanka","Ilet Yanka",variant,16.160081,-61.57428,GP-000,,
-1203778,-1769233,hydrographic,"Rivière Sence","Riviere Sence",variant,15.984488,-61.718893,GP-000,,
-1203809,-1769300,hypsographic,"Pointe de Tali","Pointe de Tali",official,15.930319,-61.195168,GP-000,,
-1203812,18245182,hypsographic,"Grande Pointe","Grande Pointe",official,15.972196,-61.619391,GP-000,,
-1203804,-1769286,hypsographic,"La Point Sud","La Point Sud",variant,15.840076,-61.6337,GP-000,,
-1203909,-1769449,hydrographic,"Anse à Zombi","Anse a Zombi",official,16.184432,-61.783643,GP-000,,
-1203799,-1769278,settlement,Subercazeau,Subercazeau,variant,16.295272,-61.659339,GP-000,,
-1203766,-1769217,hypsographic,"Pointe Saragot","Pointe Saragot",official,15.967881,-61.224084,GP-000,,
-1203892,-1767409,settlement,Bouillante-Village,Bouillante-Village,variant,16.130125,-61.768639,GP-000,,
-1203769,-1769221,settlement,Savane,Savane,official,15.979602,-61.632209,GP-000,,
-1203842,18292625,settlement,"Trois Îlets","Trois Ilets",official,15.930943,-61.331509,GP-000,,
-1203823,-1769323,hypsographic,"Tête à l’Anglais","Tete a l'Anglais",official,16.381404,-61.764654,GP-000,,
-1203868,-1769392,settlement,Vernou,Vernou,official,16.181672,-61.656265,GP-000,,
-1203807,-1769295,settlement,Surgy,Surgy,official,16.262779,-61.34041,GP-000,,
-1203867,-1769391,settlement,Vermont,Vermont,official,16.399478,-61.464075,GP-000,,
-1203837,-1769348,hypsographic,"Pointe la Trembleuse","Pointe la Trembleuse",official,16.319259,-61.033067,GP-000,,
-1203854,-1769374,hydrographic,"Anse du Val de l’Orge","Anse du Val de l'Orge",official,16.039757,-61.755081,GP-000,,
-1203822,18316586,hypsographic,"Tête à Bœuf","Tete a Boeuf",official,16.471139,-61.415748,GP-000,,
-1203878,-1769403,settlement,"Vieux Bourg","Vieux Bourg",official,16.341871,-61.511134,GP-000,,
-1203817,18316516,administrative_region,Terre-de-Bas,Terre-de-Bas,official,15.854168,-61.633482,GP-000,,
-1203910,-1769450,hydrographic,"Étang Zombi","Etang Zombi",variant,16.032945,-61.623817,GP-000,,
-1203824,-1769324,hypsographic,"Tête Allègre","Tete Allegre",official,16.269253,-61.744344,GP-000,,
-1203826,-1769326,settlement,Thibault,Thibault,official,15.879295,-61.264877,GP-000,,
-1203833,-1769340,hydrographic,"Îlet Tome","Ilet Tome",official,16.151386,-61.570371,GP-000,,
-1203853,-1769372,hydrographic,"Vaisseaux Bank","Vaisseaux Bank",variant,16.133333,-61.283333,GP-000,,
-1203835,-1769345,hypsographic,"Pointe à Tortue","Pointe a Tortue",official,16.479204,-61.426903,GP-000,,
-1203910,18245206,hydrographic,"Étang Zombis","Etang Zombis",official,16.032945,-61.623817,GP-000,,
-1203797,-1768296,hypsographic,"La Grande Soufrière","La Grande Soufriere",variant,16.044557,-61.663408,GP-000,,
-1203782,18227645,hydrographic,"Anse Fillon","Anse Fillon",official,16.200098,-61.786155,GP-000,,
-1203890,-1768164,hydrographic,"Rivière des Habitants","Riviere des Habitants",variant,16.060746,-61.770079,GP-000,,
-1203812,18245183,hypsographic,"Pointe de la Taste","Pointe de la Taste",variant,15.972196,-61.619391,GP-000,,
-1203783,-1769241,hypsographic,"Pointe Sillon","Pointe Sillon",variant,16.198798,-61.78662,GP-000,,
-1203846,-1769361,hypsographic,"Pointe du Trou à Meynal","Pointe du Trou a Meynal",official,16.344702,-61.716296,GP-000,,
-1203861,-1769384,hydrographic,"Cascade du Vauchelet","Cascade du Vauchelet",variant,16.031733,-61.690076,GP-000,,
-1203817,-1769309,administrative_region,"Commune de Terre-de-Bas","Commune de Terre-de-Bas",official,15.854168,-61.633482,GP-000,,
-1203792,-1769267,hydrographic,"Anse du Souffleur","Anse du Souffleur",official,16.424183,-61.5337,GP-000,,
-1203881,-1769407,hydrographic,"Anse du Vieux Fort","Anse du Vieux Fort",official,15.988509,-61.301517,GP-000,,
-1203886,18227674,hypsographic,"Pointe du Vieux Fort","Pointe du Vieux Fort",official,16.355475,-61.759922,GP-000,,
-1203788,-1769261,hypsographic,"Morne Soldat","Morne Soldat",official,16.096136,-61.726153,GP-000,,
-1203880,18292740,settlement,"Vieux Fort","Vieux Fort",official,15.990936,-61.299503,GP-000,,
-1203806,-1769291,hydrographic,"Passe du Sud-Ouest","Passe du Sud-Ouest",official,15.839071,-61.624424,GP-000,,
-1203781,-1769239,settlement,Siblet,Siblet,official,15.932868,-61.312734,GP-000,,
-1203893,-1769426,hypsographic,"Pointe Villers","Pointe Villers",official,16.25,-61.8,GP-000,,
-1203884,-1769419,hypsographic,"Vieux Fort Islet","Vieux Fort Islet",variant,15.99645,-61.305436,GP-000,,
-1203796,-1769271,hydrographic,"Trou du Souffleur","Trou du Souffleur",official,16.483333,-61.416667,GP-000,,
-1203791,-1769266,hydrographic,"Acul du Souffleur","Acul du Souffleur",variant,16.475444,-61.422133,GP-000,,
-1203816,18316451,settlement,"Petites Anses","Petites Anses",official,15.849933,-61.644565,GP-000,,
-1203767,-1769219,settlement,Satgé,Satge,official,16.016667,-61.616667,GP-000,,
-1203884,18292393,hypsographic,"Îlet du Vieux Fort","Ilet du Vieux Fort",official,15.99645,-61.305436,GP-000,,
-1203876,-1769401,hydrographic,"Vieille Anse","Vieille Anse",official,15.876747,-61.579554,GP-000,,
-1203797,-1768047,hypsographic,"Grande Soufrière","Grande Soufriere",variant,16.044557,-61.663408,GP-000,,
-1203863,-1769387,hypsographic,"Pointe du Vent","Pointe du Vent",official,16.240373,-61.317248,GP-000,,
-1203797,-1769272,hypsographic,Soufrière,Soufriere,variant,16.044557,-61.663408,GP-000,,
-1203782,-1769240,hydrographic,"Anse Sillon","Anse Sillon",variant,16.200098,-61.786155,GP-000,,
-1203842,-1769357,settlement,Trois-Îlets,Trois-Ilets,variant,15.930943,-61.331509,GP-000,,
-1203771,-1769223,hydrographic,"Anse de la Savane Brûlée","Anse de la Savane Brulee",official,16.4058,-61.403968,GP-000,,
-1203841,-1769355,hydrographic,"Troisieme Branch","Troisieme Branch",variant,16.25,-61.683333,GP-000,,
-1203902,-1769436,hypsographic,"Îlets à la Voûte","Ilets a la Voute",official,16.35,-61.516667,GP-000,,
-1203898,-1769432,settlement,Vipart,Vipart,official,16.333333,-61.4,GP-000,,
-1203855,-1769375,settlement,Valeau,Valeau,official,16.016667,-61.7,GP-000,,
-1203786,-1769259,settlement,Sofaïa,Sofaia,official,16.299892,-61.722613,GP-000,,
-1203896,-1769429,hypsographic,Violon,Violon,official,15.95,-61.683333,GP-000,,
-1203839,-1769351,hydrographic,"Rivière de la Trinité","Riviere de la Trinite",official,16.216667,-61.6,GP-000,,
-1203773,-1769226,hypsographic,"Morne Savon","Morne Savon",official,16.037264,-61.707552,GP-000,,
-1203815,-1769307,hypsographic,"Terre de Bas","Terre de Bas",official,16.170013,-61.118881,GP-000,,
-1203906,-1769445,hypsographic,"Morne Zambi","Morne Zambi",official,16.251189,-61.191287,GP-000,,
-1203871,-1769032,settlement,Réunion,Reunion,variant,16.29478,-61.276473,GP-000,,
-1203880,-1769406,settlement,Vieux-Fort,Vieux-Fort,variant,15.990936,-61.299503,GP-000,,
-1203778,-1769234,hydrographic,"Rivière Sens","Riviere Sens",official,15.984488,-61.718893,GP-000,,
-1203901,-1769435,hydrographic,"Canal de la Voûte","Canal de la Voute",official,16.35,-61.5,GP-000,,
-1203857,-1769377,settlement,"Vallée d’Or","Vallee d'Or",official,16.266667,-61.25,GP-000,,
-1203892,-1767400,settlement,Bouillante,Bouillante,variant,16.130125,-61.768639,GP-000,,
-1203840,-1769353,settlement,Trionzelle,Trionzelle,variant,16.261814,-61.585691,GP-000,,
-1203903,-1769437,hydrographic,"Trou de la Voûte","Trou de la Voute",official,16.35,-61.5,GP-000,,
-1203874,-1769399,hydrographic,"Ravine Viard","Ravine Viard",variant,16.324855,-61.683769,GP-000,,
-1203885,-1769411,hypsographic,"Pointe de Vieux Fort","Pointe de Vieux Fort",variant,15.948772,-61.707302,GP-000,,
-1203883,-1769409,hydrographic,"Étang du Vieux Fort","Etang du Vieux Fort",official,16.351224,-61.755431,GP-000,,
-1203779,-1769235,settlement,Sevray,Sevray,official,16.05,-61.75,GP-000,,
-1203774,-1769228,hypsographic,"Morne Sec","Morne Sec",official,15.859609,-61.633766,GP-000,,
-1203820,-1767419,settlement,"Bourg des Saintes","Bourg des Saintes",variant,15.866558,-61.582601,GP-000,,
-1203822,-1769322,hypsographic,"Tête à Boeuf","Tete a Boeuf",variant,16.471139,-61.415748,GP-000,,
-1203814,-1769314,hypsographic,"Terre d’en Bas","Terre d'en Bas",variant,15.85,-61.616667,GP-000,,
-1203820,-1768375,settlement,"Le Bourg des Saintes","Le Bourg des Saintes",variant,15.866558,-61.582601,GP-000,,
-1203871,-1769396,settlement,Vezoux,Vezoux,official,16.29478,-61.276473,GP-000,,
-1203793,-1769268,hypsographic,"Morne Souffleur","Morne Souffleur",official,16.318172,-61.049607,GP-000,,
-1203825,18316478,hypsographic,"Tête Rouge la Batterie","Tete Rouge la Batterie",official,15.86512,-61.589714,GP-000,,
-1203890,-1769423,hydrographic,"Rivière des Vieux Habitants","Riviere des Vieux Habitants",variant,16.060746,-61.770079,GP-000,,
-1203910,-1769454,hydrographic,"Etang Zombis","Etang Zombis",variant,16.032945,-61.623817,GP-000,,
-1203840,-1769352,settlement,Trioncelle,Trioncelle,official,16.261814,-61.585691,GP-000,,
-1203816,-1769308,settlement,Terre-de-Bas,Terre-de-Bas,variant,15.849933,-61.644565,GP-000,,
-1203860,-1767821,hydrographic,"Anse du Figuier","Anse du Figuier",official,15.857848,-61.588042,GP-000,,
-1203845,18317630,hypsographic,"Les Trois Vaches","Les Trois Vaches",official,16.492863,-61.485345,GP-000,,
-1203804,-1769288,hypsographic,"Pointe Sud","Pointe Sud",official,15.840076,-61.6337,GP-000,,
-1203795,-1769270,hypsographic,"Pointe du Souffleur","Pointe du Souffleur",official,16.093148,-61.773091,GP-000,,
-1203888,18228130,hydrographic,"Rivière du Vieux Fort","Riviere du Vieux Fort",official,16.354424,-61.74901,GP-000,,
-1203836,-1769346,hypsographic,"Sommet à la Touffe","Sommet a la Touffe",official,16.183333,-61.75,GP-000,,
-1203871,-1769395,settlement,Vezou,Vezou,variant,16.29478,-61.276473,GP-000,,
-1203907,-1769447,settlement,Zévalos,Zevalos,variant,16.30542,-61.30299,GP-000,,
-1203834,-1769341,hydrographic,"Acul à Tortue","Acul a Tortue",variant,16.478465,-61.426384,GP-000,,
-1203885,18245275,hypsographic,"Pointe du Vieux Fort","Pointe du Vieux Fort",official,15.948772,-61.707302,GP-000,,
-1203908,-1769448,hypsographic,"Plateau Zimbimbe","Plateau Zimbimbe",official,16.040047,-61.642328,GP-000,,
-1203845,-1769327,hypsographic,"The Three Cows","The Three Cows",variant,16.492863,-61.485345,GP-000,,
-1203844,-1769359,hypsographic,"Pointe des Trois Rivières","Pointe des Trois Rivieres",official,15.966966,-61.644669,GP-000,,
-1203777,-1769232,hydrographic,"Acul de Sel","Acul de Sel",variant,16.426509,-61.399155,GP-000,,
-1203861,-1769383,hydrographic,"Cascade Vauchelet","Cascade Vauchelet",official,16.031733,-61.690076,GP-000,,
-1203815,-1769315,hypsographic,"Terre d’en Bas","Terre d'en Bas",variant,16.170013,-61.118881,GP-000,,
-1203777,-1769231,hydrographic,"Accul de Sel","Accul de Sel",official,16.426509,-61.399155,GP-000,,
-1203772,-1769224,hypsographic,"Pointe de la Savane Brûlée","Pointe de la Savane Brulee",official,16.4,-61.416667,GP-000,,
-1203820,-1769313,settlement,Terre-de-Haut,Terre-de-Haut,official,15.866558,-61.582601,GP-000,,
-1203818,-1769311,hypsographic,Terre-de-Haut,Terre-de-Haut,official,15.866667,-61.583333,GP-000,,
-1203814,-1769194,hypsographic,"Saint Paul Island","Saint Paul Island",variant,15.85,-61.616667,GP-000,,
-1203843,-1768458,settlement,"Les Trois Rivières","Les Trois Rivieres",variant,15.975947,-61.644919,GP-000,,
-1203844,-1769044,hypsographic,"Pointe des Rivières","Pointe des Rivieres",variant,15.966966,-61.644669,GP-000,,
-1203790,-1769263,hypsographic,"Pointe du Souffieur","Pointe du Souffieur",variant,16.475905,-61.420661,GP-000,,
-1203801,18228121,hydrographic,"Rivière Caillou Bras du Sud","Riviere Caillou Bras du Sud",official,16.239065,-61.779784,GP-000,,
-1203851,-1769368,spot,"Fort de l’Union","Fort de l'Union",variant,16.21615,-61.525915,GP-000,,
-1203890,18241227,hydrographic,"Grande Rivière des Vieux Habitants","Grande Riviere des Vieux Habitants",official,16.060746,-61.770079,GP-000,,
-1203899,-1769433,settlement,Vital,Vital,official,15.914963,-61.219127,GP-000,,
-1203801,-1769284,hydrographic,"Bras du Sud","Bras du Sud",variant,16.239065,-61.779784,GP-000,,
-1203818,-1769316,hypsographic,"Terre d’en Haut","Terre d'en Haut",variant,15.866667,-61.583333,GP-000,,
-1203775,-1769229,settlement,Seforge,Seforge,official,16.266667,-61.366667,GP-000,,
-1203788,-1767311,hypsographic,"Morne Bel Air","Morne Bel Air",variant,16.096136,-61.726153,GP-000,,
-1203789,-1769262,hypsographic,"Pointe Soldat","Pointe Soldat",official,16.30084,-61.802035,GP-000,,
-1203882,18227640,hydrographic,"Anse du Vieux Port","Anse du Vieux Port",official,16.35539,-61.752822,GP-000,,
-1203885,-1769420,hypsographic,"Vieux Fort Point","Vieux Fort Point",variant,15.948772,-61.707302,GP-000,,
-1203874,18228125,hydrographic,"Rivière Viard","Riviere Viard",official,16.324855,-61.683769,GP-000,,
-1203897,-1769431,hypsographic,"Pointe du Violon","Pointe du Violon",variant,15.950859,-61.680462,GP-000,,
-1203814,-1769306,hypsographic,Terre-de-Bas,Terre-de-Bas,official,15.85,-61.616667,GP-000,,
-1203797,-1768353,hypsographic,"La Soufrière","La Soufriere",official,16.044557,-61.663408,GP-000,,
-1203780,-1769238,settlement,"Seze Favreux","Seze Favreux",variant,16.249116,-61.287939,GP-000,,
-1203884,-1769410,hypsographic,"Îlet du Vieux-Fort","Ilet du Vieux-Fort",variant,15.99645,-61.305436,GP-000,,
-1203865,-1769389,hypsographic,"Pointe de la Verdure","Pointe de la Verdure",official,16.206468,-61.50751,GP-000,,
-1203847,-1769364,hypsographic,"Trou aux Chiens Mountain","Trou aux Chiens Mountain",variant,16,-61.633333,GP-000,,
-1203371,-1768659,settlement,Montalègre,Montalegre,official,16.250098,-61.665232,GP-000,,
-1203338,-1768620,hypsographic,Matéliane,Mateliane,official,16.09459,-61.663651,GP-000,,
-1203220,-1768428,hypsographic,"Les Deux Mamelles","Les Deux Mamelles",variant,16.173045,-61.732865,GP-000,,
-1203208,-1768422,hypsographic,"Les Augustins","Les Augustins",official,15.840232,-61.614914,GP-000,,
-1202483,-1767351,hydrographic,"Bassin Bleu","Bassin Bleu",variant,16.017909,-61.665898,GP-000,,
-1203546,-1768900,hypsographic,"Morne Piment","Morne Piment",official,16.218628,-61.745788,GP-000,,
-1203398,-1768690,settlement,Moustique,Moustique,official,16.304442,-61.672028,GP-000,,
-1203624,-1769013,hypsographic,"Plage la Ramée","Plage la Ramee",official,16.336409,-61.71008,GP-000,,
-1202996,-1768101,settlement,"Gros Cap","Gros Cap",official,16.405973,-61.418121,GP-000,,
-1202724,-1767680,hydrographic,"Rivière Dauriac","Riviere Dauriac",official,16.05,-61.616667,GP-000,,
-1202735,-1767698,hypsographic,"Pointe du Désert","Pointe du Desert",official,16.306917,-61.051029,GP-000,,
-1203415,-1768714,settlement,Nesmond,Nesmond,official,15.931172,-61.227264,GP-000,,
-1203571,-1769007,settlement,"Raie Point","Raie Point",variant,16.35,-61.483333,GP-000,,
-1202836,-1767847,settlement,"Fonds d’Or","Fonds d'Or",official,16.3,-61.35,GP-000,,
-1203533,-1768883,hypsographic,"Petits Islets","Petits Islets",variant,16.333333,-61.7,GP-000,,
-1203305,-1768568,settlement,"Marc Gaillard","Marc Gaillard",variant,16.215295,-61.439297,GP-000,,
-1203484,-1768818,settlement,Petit-Bourg,Petit-Bourg,official,16.191634,-61.591403,GP-000,,
-1202709,-1767656,settlement,Courcelles,Courcelles,official,16.256021,-61.330345,GP-000,,
-1203317,-1768589,hydrographic,"Anse du Marigot","Anse du Marigot",official,16.033333,-61.566667,GP-000,,
-1203185,-1768388,hydrographic,"Le Galion Rivière","Le Galion Riviere",variant,15.985829,-61.722821,GP-000,,
-1203615,-1769002,hypsographic,"Pointe du Quesy","Pointe du Quesy",official,16.103399,-61.774562,GP-000,,
-1203731,-1769163,settlement,Saint-Jacques,Saint-Jacques,official,16.483822,-61.467084,GP-000,,
-1203525,-1768874,hypsographic,"Petit Moyen","Petit Moyen",official,16.1,-61.7,GP-000,,
-1202943,-1767685,hypsographic,"Decouverte Garde","Decouverte Garde",variant,16.059157,-61.671496,GP-000,,
-1203336,-1768618,settlement,Massol,Massol,official,16.083333,-61.75,GP-000,,
-1203545,-1768898,hypsographic,"Pointe Pigeon","Pointe Pigeon",official,16.15,-61.783333,GP-000,,
-1202394,-1767232,hypsographic,"Pointe à Bacchus","Pointe a Bacchus",official,16.204619,-61.583247,GP-000,,
-1203233,-1767220,hypsographic,"Antilles Menores","Antilles Menores",variant,14.666667,-61.016667,S1-000,,
-1202974,-1768067,hypsographic,"Pointe du Grand Marigot","Pointe du Grand Marigot",official,16.03419,-61.564863,GP-000,,
-1202854,18305041,hypsographic,"Morne Frégule","Morne Fregule",official,16.303286,-61.09653,GP-000,,
-1202432,-1767285,settlement,Basse-Terre,Basse-Terre,official,16,-61.716667,GP-000,,
-1203102,-1768253,settlement,"La Boucan","La Boucan",official,16.282545,-61.669829,GP-000,,
-1202804,-1767793,settlement,Faup,Faup,official,15.915054,-61.308955,GP-000,,
-1203018,-1768132,hypsographic,"Grosse Pointe","Grosse Pointe",official,15.991109,-61.242067,GP-000,,
-1202662,-1767592,settlement,Cocoyer,Cocoyer,official,16.237185,-61.482538,GP-000,,
-1202779,18227546,hydrographic,"Cercelle Bay","Cercelle Bay",variant,16.270915,-61.610022,GP-000,,
-1203022,17731383,administrative_region,"Region of Guadeloupe","Region of Guadeloupe",colloquial,16.25,-61.583333,GP-000,,
-1203622,-1769010,hypsographic,"Plage des Raisins Clairs","Plage des Raisins Clairs",official,16.248918,-61.283445,GP-000,,
-1202946,-1768024,settlement,"Grande Plaine","Grande Plaine",official,16.207252,-61.776332,GP-000,,
-1203432,-1768746,hydrographic,"Rivière de Onze Heures","Riviere de Onze Heures",variant,16.192107,-61.590507,GP-000,,
-1203285,-1768540,hydrographic,"Anse Mahaut","Anse Mahaut",official,16.19679,-61.787003,GP-000,,
-1203562,-1768920,hydrographic,"Rivière au Plessis","Riviere au Plessis",variant,16.034072,-61.751264,GP-000,,
-1202508,-1767380,settlement,Bonneval,Bonneval,official,15.892896,-61.319163,GP-000,,
-1202938,18228124,hydrographic,"Ravine Grand Boucan","Ravine Grand Boucan",official,16.28227,-61.66666,GP-000,,
-1203109,-1768262,hypsographic,"La Coche","La Coche",official,15.83626,-61.609497,GP-000,,
-1203333,-1768614,hypsographic,"Pointe Massicot","Pointe Massicot",official,15.983333,-61.316667,GP-000,,
-1202533,-1767416,hydrographic,"Rivière Bourceau","Riviere Bourceau",official,16.15424,-61.776196,GP-000,,
-1203636,-1769031,hypsographic,"Pointe à Retz","Pointe a Retz",official,16.364652,-61.501037,GP-000,,
-1202391,-1767229,settlement,Ausset,Ausset,official,16.066667,-61.766667,GP-000,,
-1203136,-1768306,hydrographic,"La Lézarde","La Lezarde",official,16.214114,-61.586039,GP-000,,
-1203699,-1769121,hydrographic,"Baie de Saint-Christophe","Baie de Saint-Christophe",variant,16.281676,-61.575424,GP-000,,
-1202500,-1767369,settlement,Boivin,Boivin,official,16.266667,-61.366667,GP-000,,
-1203326,-1768603,hypsographic,"Pointe du Marquis","Pointe du Marquis",official,16.116955,-61.774156,GP-000,,
-1203213,-1768427,hypsographic,"Les Caraïbes","Les Caraibes",official,16.483333,-61.5,GP-000,,
-1203720,-1769150,settlement,Sainte-Rose,Sainte-Rose,official,16.332636,-61.6969,GP-000,,
-1202707,-1767653,hypsographic,"Pointe du Courant","Pointe du Courant",official,16.246668,-61.285679,GP-000,,
-1202832,-1767838,hydrographic,"Mangles de Folle Anse","Mangles de Folle Anse",official,15.936045,-61.328893,GP-000,,
-1202901,18300934,hypsographic,L’Îlet,L'Ilet,official,16.258426,-61.205958,GP-000,,
-1203455,-1768781,settlement,Partarieux,Partarieux,official,15.883333,-61.316667,GP-000,,
-1202834,-1767845,hydrographic,"Anse du Fond Curé","Anse du Fond Cure",official,15.864718,-61.585135,GP-000,,
-1202952,-1768034,hypsographic,"Pointe de la Grande Rivière","Pointe de la Grande Riviere",official,16.302915,-61.601993,GP-000,,
-1203121,-1768278,hypsographic,"Pointe du Lagon","Pointe du Lagon",official,16.490356,-61.439306,GP-000,,
-1202420,-1767277,hydrographic,"The Barrel of Beef","The Barrel of Beef",variant,16.333333,-61.35,GP-000,,
-1203198,-1768405,settlement,"Le Moule","Le Moule",official,16.331643,-61.34656,GP-000,,
-1203332,-1768611,hypsographic,"Morne du Massacre","Morne du Massacre",official,15.971892,-61.315783,GP-000,,
-1202462,-1767324,settlement,Bellevue,Bellevue,official,15.927362,-61.241495,GP-000,,
-1203628,-1769018,settlement,"Ravine Chaude","Ravine Chaude",official,16.226856,-61.668268,GP-000,,
-1203184,-1768384,hypsographic,"Groupe de Leeward","Groupe de Leeward",variant,17.35,-62.783333,S1-000,,
-1202395,-1767233,settlement,Bagatelle,Bagatelle,official,15.955099,-61.30318,GP-000,,
-1202890,-1767936,hypsographic,"Morne Giraumon","Morne Giraumon",official,16.016667,-61.666667,GP-000,,
-1202875,-1767920,settlement,Gardel,Gardel,official,16.306233,-61.326583,GP-000,,
-1203084,18240069,hydrographic,"Ravine Géry","Ravine Gery",official,16.067722,-61.769404,GP-000,,
-1203249,-1768482,settlement,Longmont,Longmont,official,16.016667,-61.6,GP-000,,
-1202422,-1767269,hydrographic,"Anse à la Barque","Anse a la Barque",official,16.242595,-61.323655,GP-000,,
-1203618,-1769005,hypsographic,"Crête à Racoon","Crete a Racoon",official,16.013742,-61.628664,GP-000,,
-1203653,-1769054,hypsographic,"Pointe Rodrigues","Pointe Rodrigues",variant,15.857659,-61.576316,GP-000,,
-1203093,-1768234,hypsographic,"Pointe Kicali","Pointe Kicali",official,16.320133,-61.072677,GP-000,,
-1203174,-1768361,hypsographic,"La Tortue","La Tortue",official,16.116667,-61.783333,GP-000,,
-1203404,18292624,settlement,"Habitation Murat","Habitation Murat",official,15.880224,-61.302201,GP-000,,
-1203335,-1768613,settlement,Massiau,Massiau,variant,16.462687,-61.463188,GP-000,,
-1203550,-1767395,hypsographic,"Pointe Bottereau","Pointe Bottereau",variant,15.984745,-61.233181,GP-000,,
-1203242,-1768473,hypsographic,"Lézard Point","Lezard Point",variant,16.13966,-61.779825,GP-000,,
-1203654,-1769055,hydrographic,"Anse Rodriguet","Anse Rodriguet",variant,15.857333,-61.579863,GP-000,,
-1203738,-1769173,hydrographic,"Saint-Jean Baptiste Branch","Saint-Jean Baptiste Branch",variant,16.204011,-61.698141,GP-000,,
-1203541,-1768892,hypsographic,"Pointe Pierre Chêne","Pointe Pierre Chene",official,15.847288,-61.649978,GP-000,,
-1202870,-1767906,hydrographic,"Mouillage du Galet","Mouillage du Galet",variant,16.299584,-61.096804,GP-000,,
-1202786,18249315,hydrographic,"La Manche à Eau","La Manche a Eau",official,16.277317,-61.557516,GP-000,,
-1202753,-1767730,hydrographic,"Trou à Diable","Trou a Diable",official,15.883333,-61.6,GP-000,,
-1203056,-1768187,hypsographic,"Piton l’Herminier","Piton l'Herminier",official,16.014635,-61.642756,GP-000,,
-1203563,-1768719,settlement,Nogent,Nogent,variant,16.354348,-61.735375,GP-000,,
-1203708,-1769136,settlement,Sainte-Marguerite,Sainte-Marguerite,official,16.385789,-61.416584,GP-000,,
-1202686,-1767647,settlement,Couchon,Couchon,variant,16.333333,-61.316667,GP-000,,
-1203266,-1768508,hypsographic,"Macodi Point","Macodi Point",variant,16.266375,-61.230219,GP-000,,
-1203637,-1769033,settlement,Ribourgeon,Ribourgeon,official,15.976268,-61.267096,GP-000,,
-1202672,-1767607,hypsographic,"Colas Island","Colas Island",variant,16.34647,-61.57428,GP-000,,
-1203131,-1768298,settlement,"La Grivellière","La Grivelliere",variant,16.071574,-61.728835,GP-000,,
-1202453,-1768638,hypsographic,"Morne Merwart","Morne Merwart",variant,16.120671,-61.700443,GP-000,,
-1203490,-1768827,hydrographic,"Rivière Petit David","Riviere Petit David",variant,16.161588,-61.714661,GP-000,,
-1202961,-1768049,hydrographic,"Grand Étang","Grand Etang",official,16.027544,-61.62887,GP-000,,
-1203196,-1768400,settlement,"Le Marguis","Le Marguis",variant,16.116667,-61.783333,GP-000,,
-1203312,-1768584,settlement,Marigot,Marigot,official,16.082821,-61.767065,GP-000,,
-1203387,18227671,hypsographic,"Pointe du Morne aux Fous","Pointe du Morne aux Fous",official,16.29493,-61.803139,GP-000,,
-1202745,-1767715,settlement,Desmarais,Desmarais,official,15.956014,-61.307965,GP-000,,
-1203038,-1768165,hydrographic,"Îlet à la Hache","Ilet a la Hache",official,16.191848,-61.564399,GP-000,,
-1203702,-1769128,hydrographic,"Mouillage de Sainte Anne","Mouillage de Sainte Anne",variant,16.222034,-61.3892,GP-000,,
-1203425,-1768726,hydrographic,"Bras du Nord","Bras du Nord",variant,16.239535,-61.780033,GP-000,,
-1203149,-1768326,hypsographic,"Pointe à Lanneau","Pointe a Lanneau",official,16.00937,-61.588408,GP-000,,
-1203348,-1768299,hypsographic,"La Grosse-Montagne","La Grosse-Montagne",variant,16.288695,-61.765499,GP-000,,
-1203257,-1768494,hydrographic,"Rivière Lostan","Riviere Lostan",variant,16.161474,-61.776569,GP-000,,
-1203354,-1768637,hypsographic,"Col Merwart","Col Merwart",official,16.1,-61.716667,GP-000,,
-1202510,18292682,settlement,"Bontemps Rameau","Bontemps Rameau",official,15.923904,-61.211123,GP-000,,
-1202953,-1768039,hydrographic,"Grande Rivière Goyaves","Grande Riviere Goyaves",variant,16.298045,-61.605824,GP-000,,
-1202937,-1768007,hydrographic,"Grande Anse à la Duché","Grande Anse a la Duche",official,16.1,-61.783333,GP-000,,
-1202872,-1767899,settlement,Galard,Galard,variant,16.009677,-61.693968,GP-000,,
-1203384,-1767387,settlement,Bordeaux-Bourg,Bordeaux-Bourg,variant,16.333388,-61.458796,GP-000,,
-1202748,-1767721,settlement,Destréland,Destreland,variant,16.255754,-61.581118,GP-000,,
-1203712,-1769140,settlement,Sainte-Marie,Sainte-Marie,official,16.10131,-61.562651,GP-000,,
-1202693,-1767635,hypsographic,"Pointe Coq-Souris","Pointe Coq-Souris",official,15.982228,-61.614672,GP-000,,
-1202408,-1767250,hydrographic,"Anse Ballet","Anse Ballet",official,15.986672,-61.238689,GP-000,,
-1202939,18244977,hydrographic,"Grande Chute du Galion","Grande Chute du Galion",official,16.031533,-61.662831,GP-000,,
-1202590,-1767495,hypsographic,"Montagne de Caranguais","Montagne de Caranguais",official,16.083333,-61.583333,GP-000,,
-1202701,-1767643,hypsographic,"Pointe du Corps de Garde","Pointe du Corps de Garde",official,16.2,-61.466667,GP-000,,
-1202900,-1768280,hydrographic,"Anse de La Gourde","Anse de La Gourde",variant,16.259933,-61.214561,GP-000,,
-1202964,-1768731,hypsographic,"Pointe du Nord","Pointe du Nord",variant,16.513871,-61.46457,GP-000,,
-1203365,-1768653,settlement,Monroc,Monroc,official,16.443181,-61.498098,GP-000,,
-1202677,-1767612,hypsographic,"Pointe des Colibris","Pointe des Colibris",official,16.246232,-61.172278,GP-000,,
-1203617,-1769004,hydrographic,"Anse Rabin","Anse Rabin",variant,16.342207,-61.525283,GP-000,,
-1203736,-1769174,hydrographic,"Saint-Jean Branch","Saint-Jean Branch",variant,16.2,-61.666667,GP-000,,
-1202649,-1768259,hypsographic,"La Christophe","La Christophe",variant,16.294548,-61.569806,GP-000,,
-1203231,-1769153,hypsographic,"Îles des Saintes","Iles des Saintes",variant,15.858496,-61.594968,GP-000,,
-1203704,-1769129,hypsographic,"Pointe de Sainte-Anne","Pointe de Sainte-Anne",official,16.216667,-61.383333,GP-000,,
-1203596,-1768966,settlement,Pouzzole,Pouzzole,official,16.425712,-61.52005,GP-000,,
-1203113,-1768267,settlement,Lacroix,Lacroix,official,16.4,-61.433333,GP-000,,
-1202788,-1767771,hydrographic,"Anse à Eblain","Anse a Eblain",variant,16.216264,-61.405172,GP-000,,
-1203055,-1768186,hydrographic,"Herbes River","Herbes River",variant,15.993329,-61.730698,GP-000,,
-1203389,-1768679,settlement,"Morne Bourg","Morne Bourg",official,16.188,-61.595749,GP-000,,
-1203532,-1768881,hydrographic,"Petit Saut d’Eau","Petit Saut d'Eau",official,16.079221,-61.669997,GP-000,,
-1203717,-1769146,hydrographic,"Rivière de Sainte-Marie","Riviere de Sainte-Marie",official,16.100884,-61.560912,GP-000,,
-1203676,-1769089,hydrographic,"Ravine Roussel","Ravine Roussel",official,16.25,-61.683333,GP-000,,
-1203115,-1767711,hypsographic,"Île Désirade","Ile Desirade",variant,16.318383,-61.051937,GP-000,,
-1202814,-1767809,hydrographic,"Ferry River","Ferry River",variant,16.280479,-61.802948,GP-000,,
-1203716,-1769145,hydrographic,"Port de Sainte-Marie","Port de Sainte-Marie",official,16.1,-61.566667,GP-000,,
-1202543,-1767430,hydrographic,"Banc des Bricks","Banc des Bricks",official,16.233333,-61.55,GP-000,,
-1203252,-1768486,hydrographic,"Anse Loquet","Anse Loquet",official,16.254704,-61.243715,GP-000,,
-1203683,-1769097,hypsographic,"L’Îlot de Sable","L'Ilot de Sable",variant,16.2,-61.45,GP-000,,
-1203756,-1769206,hypsographic,"Pointe Saint Vast","Pointe Saint Vast",variant,16.281618,-61.598023,GP-000,,
-1203387,-1768677,hypsographic,"Pointe du Morne-aux-Fous","Pointe du Morne-aux-Fous",variant,16.29493,-61.803139,GP-000,,
-1203563,-1768922,settlement,Plessis-Nogent,Plessis-Nogent,official,16.354348,-61.735375,GP-000,,
-1203562,-1768921,hydrographic,"Rivière du Plessis","Riviere du Plessis",official,16.034072,-61.751264,GP-000,,
-1202740,-1767701,hydrographic,"Anse Deshaies","Anse Deshaies",official,16.306953,-61.796434,GP-000,,
-1202679,-1767615,hydrographic,"Banc Colombie","Banc Colombie",official,15.966667,-61.466667,GP-000,,
-1202839,-1767851,hydrographic,"Anse à la Fontaine","Anse a la Fontaine",official,16.01797,-61.579629,GP-000,,
-1202426,-1767278,hydrographic,"Mouton de Bas","Mouton de Bas",official,16.333333,-61.35,GP-000,,
-1202639,-1767562,hydrographic,"Anse à Chaux","Anse a Chaux",official,15.868613,-61.634175,GP-000,,
-1203147,-1768323,hydrographic,"La Moustique Rivière","La Moustique Riviere",variant,16.170344,-61.584703,GP-000,,
-1202886,-1767932,hydrographic,"Ravine Gil","Ravine Gil",official,16.25,-61.7,GP-000,,
-1203401,-1768695,hydrographic,"Rivière à Moustique","Riviere a Moustique",variant,16.323101,-61.673209,GP-000,,
-1202546,-1767434,settlement,Broue,Broue,variant,16.083333,-61.766667,GP-000,,
-1203324,-1768601,hypsographic,"Pointe Marine","Pointe Marine",official,16.269637,-61.80881,GP-000,,
-1203758,18275451,hydrographic,"La Rivière Salée","La Riviere Salee",official,16.251942,-61.550259,GP-000,,
-1202993,-1768098,hypsographic,"Pointe Gros Bœuf","Pointe Gros Boeuf",official,16.243749,-61.294328,GP-000,,
-1202837,-1767849,settlement,Fontaine,Fontaine,official,16.316667,-61.4,GP-000,,
-1202914,-1767975,settlement,"Grand Bois","Grand Bois",official,16.243956,-61.461947,GP-000,,
-1203281,-1768535,hydrographic,"Baie Mahault","Baie Mahault",official,16.269493,-61.594867,GP-000,,
-1203283,-1768537,hydrographic,"Rivière Mahault","Riviere Mahault",official,16.257008,-61.603555,GP-000,,
-1202933,-1768284,settlement,"La Grande Anse","La Grande Anse",variant,16.304134,-61.073746,GP-000,,
-1202472,-1767336,settlement,Besnard,Besnard,official,16.383546,-61.438915,GP-000,,
-1203680,-1769093,hydrographic,"Anse de Sable","Anse de Sable",official,16.115872,-61.567973,GP-000,,
-1202552,-1767444,hypsographic,"Pointe à Cabrit","Pointe a Cabrit",variant,16.262825,-61.218367,GP-000,,
-1202731,-1767693,settlement,Desbonnes,Desbonnes,official,16.330505,-61.751925,GP-000,,
-1202803,-1767977,hydrographic,"Grand Canal","Grand Canal",variant,16.4,-61.516667,GP-000,,
-1202877,-1767922,settlement,Garel,Garel,official,15.945936,-61.25223,GP-000,,
-1202740,-1767709,hydrographic,"Anse Deshays","Anse Deshays",variant,16.306953,-61.796434,GP-000,,
-1203126,-1768289,hypsographic,"La Grande Falaise","La Grande Falaise",official,16.476082,-61.424629,GP-000,,
-1202915,-1767976,settlement,Grand-Bourg,Grand-Bourg,official,15.884023,-61.314802,GP-000,,
-1202361,-1767187,hypsographic,"Pointe à l’Aiguille","Pointe a l'Aiguille",official,16.205297,-61.784264,GP-000,,
-1203765,-1769216,hypsographic,"Mont Sans Toucher","Mont Sans Toucher",official,16.1,-61.683333,GP-000,,
-1202520,18227663,hypsographic,"Pointe Botrel","Pointe Botrel",official,16.217767,-61.78464,GP-000,,
-1202930,-1767999,settlement,"Grande Anse","Grande Anse",official,15.857652,-61.623536,GP-000,,
-1202450,-1767306,settlement,Beausoleil,Beausoleil,official,16.259562,-61.792235,GP-000,,
-1202703,-1767649,hydrographic,"Ravine des Coudes","Ravine des Coudes",official,16.33321,-61.452091,GP-000,,
-1203514,-1768858,hypsographic,"Îles de la Petite Terre","Iles de la Petite Terre",official,16.17192,-61.11165,GP-000,,
-1203212,-1768426,settlement,"Les Basses","Les Basses",official,15.871753,-61.284255,GP-000,,
-1203497,-1768834,hydrographic,"Petite Anse Pain de Sucre","Petite Anse Pain de Sucre",official,15.86351,-61.599155,GP-000,,
-1202852,18227641,hydrographic,"Anse Francœur","Anse Francoeur",official,16.25587,-61.805536,GP-000,,
-1202868,-1767910,hydrographic,"Anse Galets","Anse Galets",official,16.342856,-61.005853,GP-000,,
-1203164,-1768348,settlement,"La Rosière","La Rosiere",official,16.24048,-61.654402,GP-000,,
-1203519,-1768866,hydrographic,"Mouillage du Petit Havre","Mouillage du Petit Havre",variant,16.208095,-61.43361,GP-000,,
-1202623,-1767543,hypsographic,"Pointe Chapeau","Pointe Chapeau",official,16.467679,-61.41045,GP-000,,
-1202766,-1767744,settlement,Dubédou,Dubedou,official,16.296852,-61.28711,GP-000,,
-1203204,-1768416,hydrographic,"Le Ravinot","Le Ravinot",official,16.25,-61.3,GP-000,,
-1202728,-1767690,settlement,"De Poyen","De Poyen",official,16.183333,-61.616667,GP-000,,
-1203125,-1768286,hypsographic,"La Grande Barre","La Grande Barre",official,15.95,-61.25,GP-000,,
-1203581,-1768944,hydrographic,"Ravine Pompière","Ravine Pompiere",official,15.924783,-61.201745,GP-000,,
-1203728,-1769160,hypsographic,Saint-Germain,Saint-Germain,official,15.97481,-61.253813,GP-000,,
-1203385,18318135,hydrographic,"Anse du Vieux Bourg","Anse du Vieux Bourg",official,16.344063,-61.514633,GP-000,,
-1203296,-1768560,hydrographic,"Anse du Manceniller","Anse du Manceniller",variant,16.25515,-61.255018,GP-000,,
-1203351,-1768634,settlement,Ménard,Menard,official,16.002526,-61.286472,GP-000,,
-1203040,-1768167,hydrographic,"Anse Hallard","Anse Hallard",official,16.275943,-61.805686,GP-000,,
-1203588,-1768952,settlement,Portel,Portel,variant,15.91188,-61.30279,GP-000,,
-1203722,-1769152,hydrographic,"Canal des Saintes","Canal des Saintes",official,15.916667,-61.666667,GP-000,,
-1203393,-1768683,settlement,"Morne Rouge","Morne Rouge",official,16.305971,-61.655608,GP-000,,
-1202939,-1768011,hydrographic,"Grande Cascade","Grande Cascade",variant,16.031533,-61.662831,GP-000,,
-1202830,-1767835,hydrographic,"Rivière Flore","Riviere Flore",official,16.066667,-61.716667,GP-000,,
-1202553,-1767447,hypsographic,"Pointe Cachiman","Pointe Cachiman",official,16.516667,-61.466667,GP-000,,
-1203363,-1768650,hypsographic,"Pointe à Mombin","Pointe a Mombin",official,16.348483,-61.016713,GP-000,,
-1203566,-1768926,hypsographic,"Pointe à Plumes","Pointe a Plumes",variant,16.254584,-61.18967,GP-000,,
-1202818,-1767971,hydrographic,"Grand Baie","Grand Baie",variant,15.853963,-61.620561,GP-000,,
-1202794,-1767778,settlement,Émilien,Emilien,official,16.316667,-61.433333,GP-000,,
-1203189,-1768392,hypsographic,"Le Gouffre","Le Gouffre",official,16.316633,-61.800666,GP-000,,
-1203653,-1769058,hypsographic,"Pointe Rodriguez","Pointe Rodriguez",variant,15.857659,-61.576316,GP-000,,
-1203403,-1768697,hydrographic,"Anse à Mulets","Anse a Mulets",official,16.316377,-61.036449,GP-000,,
-1203208,-1768421,hypsographic,"Les Augustin","Les Augustin",variant,15.840232,-61.614914,GP-000,,
-1202486,-1767354,settlement,Blondin,Blondin,official,16.033333,-61.75,GP-000,,
-1203048,-1768467,settlement,Lézarde,Lezarde,variant,16.197622,-61.630032,GP-000,,
-1203134,-1768304,hypsographic,"Morne Lalane","Morne Lalane",official,15.874698,-61.278999,GP-000,,
-1202362,-1767188,hydrographic,"Anse Allègre","Anse Allegre",official,16.366667,-61.733333,GP-000,,
-1203662,-1769071,hydrographic,"Canal des Rotours","Canal des Rotours",official,16.353753,-61.493174,GP-000,,
-1202475,-1767341,settlement,Bichemin,Bichemin,official,16.077211,-61.74406,GP-000,,
-1203504,-1768846,hypsographic,"Morne Petite Saline","Morne Petite Saline",official,16.248104,-61.176916,GP-000,,
-1203381,-1767556,hydrographic,"Ravine Chaude","Ravine Chaude",variant,16.109219,-61.609419,GP-000,,
-1202829,18292745,hypsographic,"Pointe Fleur d’Épée","Pointe Fleur d'Epee",official,15.986841,-61.305437,GP-000,,
-1203695,-1769117,settlement,Saint-Charles,Saint-Charles,official,15.995215,-61.701852,GP-000,,
-1203117,-1767883,hypsographic,"Rocher Frégate","Rocher Fregate",variant,15.969952,-61.227097,GP-000,,
-1203176,-1768365,settlement,Lauréal,Laureal,official,16.319868,-61.34468,GP-000,,
-1203227,-1768448,settlement,"Les Plaines","Les Plaines",official,16.225123,-61.764209,GP-000,,
-1203682,18228119,hydrographic,"Rivière Bras de Sable","Riviere Bras de Sable",official,16.231579,-61.670184,GP-000,,
-1202423,-1767270,hydrographic,"Anse à la Barque","Anse a la Barque",official,16.447327,-61.406103,GP-000,,
-1203143,-1768315,hydrographic,"Baie du Lamentin","Baie du Lamentin",official,16.279492,-61.622597,GP-000,,
-1203332,-1768612,hypsographic,"Massacre Hill","Massacre Hill",variant,15.971892,-61.315783,GP-000,,
-1203651,-1769050,hydrographic,"Anse à Rocroy","Anse a Rocroy",official,16.033333,-61.766667,GP-000,,
-1202908,-1767966,hydrographic,"Rivière à Goyaves","Riviere a Goyaves",variant,16.130164,-61.561024,GP-000,,
-1202654,-1768261,hydrographic,"La Class","La Class",variant,16.084981,-61.643122,GP-000,,
-1202960,-1768048,park,"Grandes Salines","Grandes Salines",variant,16.25238,-61.187725,GP-000,,
-1202826,-1767830,hydrographic,"Banc Flandre","Banc Flandre",official,16.4,-60.9,GP-000,,
-1203091,-1768232,hydrographic,"Petite Anse Kahouanne","Petite Anse Kahouanne",official,16.249714,-61.193664,GP-000,,
-1202816,-1767813,hypsographic,"Pointe la Feuillère","Pointe la Feuillere",official,15.888677,-61.221945,GP-000,,
-1202387,-1767225,hypsographic,"Pointe Archange Neau","Pointe Archange Neau",official,16.364439,-61.394313,GP-000,,
-1203069,-1768207,hydrographic,"Inconnue River","Inconnue River",variant,16.3,-61.683333,GP-000,,
-1203518,-1768863,hydrographic,"Rivière du Petit Garbet","Riviere du Petit Garbet",variant,15.978683,-61.634423,GP-000,,
-1203585,-1768956,hydrographic,"Portland Bay","Portland Bay",variant,16.489324,-61.441485,GP-000,,
-1202518,-1767392,settlement,Bosrédon,Bosredon,official,16.312916,-61.484074,GP-000,,
-1202908,-1767965,hydrographic,"La Petite Rivière à Goyaves","La Petite Riviere a Goyaves",variant,16.130164,-61.561024,GP-000,,
-1202375,-1767206,settlement,Anse-Bertrand,Anse-Bertrand,official,16.472391,-61.507394,GP-000,,
-1202833,-1767790,hypsographic,"Falle Bay Point","Falle Bay Point",variant,15.941682,-61.336829,GP-000,,
-1202808,-1768386,hydrographic,"Le Fer à Cheval","Le Fer a Cheval",variant,16.383333,-61.516667,GP-000,,
-1202982,-1768077,settlement,"Grands Fonds","Grands Fonds",official,16.263088,-61.423958,GP-000,,
-1202700,-1767642,hypsographic,"Pointe du Corps de Garde","Pointe du Corps de Garde",official,16.049173,-61.764754,GP-000,,
-1203011,-1768123,hydrographic,"Gros Mouton de Caret","Gros Mouton de Caret",official,16.35468,-61.624484,GP-000,,
-1203486,-1768821,settlement,"Petit Carbet","Petit Carbet",official,15.966667,-61.633333,GP-000,,
-1202445,-1767301,settlement,Beauregard,Beauregard,official,16.122409,-61.615661,GP-000,,
-1203155,-1768336,settlement,"La Ramée","La Ramee",official,16.332933,-61.710003,GP-000,,
-1203122,-1767991,hydrographic,"Grande Anse","Grande Anse",official,16.323591,-61.791345,GP-000,,
-1203142,-1768398,settlement,"Le Lamentin","Le Lamentin",variant,16.270468,-61.631659,GP-000,,
-1203743,-1769183,hydrographic,"Rivière de Saint-Louis","Riviere de Saint-Louis",official,15.950268,-61.32122,GP-000,,
-1203336,-1768606,settlement,Marsol,Marsol,variant,16.083333,-61.75,GP-000,,
-1203554,-1768910,hypsographic,"Pointe du Piton","Pointe du Piton",official,16.500132,-61.443759,GP-000,,
-1202567,-1767463,hydrographic,"Anse du Canal","Anse du Canal",official,16.377872,-61.497561,GP-000,,
-1202532,18292618,settlement,Bouquincant,Bouquincant,official,15.888548,-61.276987,GP-000,,
-1202458,-1767318,hypsographic,"Belle Hôtesse","Belle Hotesse",official,16.258519,-61.767947,GP-000,,
-1203124,-1768285,hydrographic,"La Grande Baie","La Grande Baie",variant,16.213711,-61.510734,GP-000,,
-1202800,-1767796,hypsographic,"Ilet à Fayou","Ilet a Fayou",variant,16.349792,-61.586324,GP-000,,
-1202481,-1767347,settlement,Blanchet,Blanchet,official,15.990562,-61.710905,GP-000,,
-1203186,-1768389,hypsographic,"Morne Léger","Morne Leger",official,16.18927,-61.726095,GP-000,,
-1202941,-1768017,hydrographic,"Passe de la Grande-Coulée","Passe de la Grande-Coulee",official,16.333333,-61.633333,GP-000,,
-1202545,-1767433,hydrographic,"Ravine de la Briqueterie","Ravine de la Briqueterie",official,16.11075,-61.569238,GP-000,,
-1203139,-1768526,hypsographic,"Madeleine Knoll","Madeleine Knoll",variant,16.011694,-61.640821,GP-000,,
-1203441,-1768762,settlement,Pagesy,Pagesy,official,16.116667,-61.766667,GP-000,,
-1203724,-1769310,spot,"Terre de Haut","Terre de Haut",variant,15.866667,-61.566667,GP-000,,
-1202509,-1767382,hypsographic,"Morne Bontemps","Morne Bontemps",official,16.085085,-61.680326,GP-000,,
-1202932,-1768001,settlement,"Grande Anse","Grande Anse",variant,15.965107,-61.666053,GP-000,,
-1203286,-1768543,hypsographic,"Pointe Mahaut","Pointe Mahaut",official,16.195227,-61.787444,GP-000,,
-1203013,-1768125,hypsographic,"Pointe Gros Nez","Pointe Gros Nez",official,15.980654,-61.230747,GP-000,,
-1203108,-1767580,hypsographic,Citerne,Citerne,variant,16.034048,-61.65581,GP-000,,
-1203115,18304797,hypsographic,"Île de la Désirade","Ile de la Desirade",variant,16.318383,-61.051937,GP-000,,
-1203644,18227666,hypsographic,"Pointe Rifflet","Pointe Rifflet",official,16.337728,-61.785003,GP-000,,
-1203026,-1768146,hydrographic,"Anse de la Guérite","Anse de la Guerite",official,16.409483,-61.530753,GP-000,,
-1202415,-1767255,hypsographic,"Banana Point","Banana Point",variant,16.001423,-61.598668,GP-000,,
-1203350,-1768632,hypsographic,"Pointe à Meise","Pointe a Meise",official,16.216667,-61.4,GP-000,,
-1202524,-1767402,hydrographic,"Anse de Bouillante","Anse de Bouillante",official,16.129379,-61.770741,GP-000,,
-1203100,-1768250,hypsographic,"La Biche","La Biche",official,16.336655,-61.651287,GP-000,,
-1202862,-1767895,hydrographic,"Banc Frotte-ton-Cul","Banc Frotte-ton-Cul",official,16.290525,-61.577666,GP-000,,
-1202490,-1767358,settlement,"Bois Debout","Bois Debout",variant,16.024504,-61.586932,GP-000,,
-1203679,-1769092,settlement,Ruillier,Ruillier,official,16.266667,-61.65,GP-000,,
-1202365,-1767193,hypsographic,"Dos d’Âne","Dos d'Ane",variant,16.309951,-61.76101,GP-000,,
-1203339,-1768621,settlement,"Mathurin Noël","Mathurin Noel",official,16.1,-61.766667,GP-000,,
-1203738,18228122,hydrographic,"Bras Jean","Bras Jean",official,16.204011,-61.698141,GP-000,,
-1203407,-1768701,spot,"Fort Napoléon","Fort Napoleon",official,15.875279,-61.582157,GP-000,,
-1203764,18236536,hydrographic,"Ravine sans Nom","Ravine sans Nom",official,16.272595,-61.626437,GP-000,,
-1203711,-1769139,hypsographic,"Pointe Sainte-Marguerite","Pointe Sainte-Marguerite",official,16.379799,-61.403014,GP-000,,
-1202833,-1767842,hypsographic,"Pointe de Folle Arise","Pointe de Folle Arise",variant,15.941682,-61.336829,GP-000,,
-1203188,-1768391,hydrographic,"Le Gouffre","Le Gouffre",official,16.443434,-61.402361,GP-000,,
-1203597,-1768967,settlement,Poyen,Poyen,official,16.283333,-61.666667,GP-000,,
-1203163,-1768347,settlement,"La Rosette","La Rosette",official,16.336435,-61.375481,GP-000,,
-1203517,-1767872,hypsographic,"Francois Point","Francois Point",variant,16.434497,-61.400321,GP-000,,
-1202480,-1767346,hypsographic,"La Falaise Blanche","La Falaise Blanche",official,16.507738,-61.474897,GP-000,,
-1203459,-1768785,hydrographic,"Anse Patate","Anse Patate",official,16.351659,-61.38517,GP-000,,
-1203266,-1768509,hypsographic,"Pointe Macoli","Pointe Macoli",variant,16.266375,-61.230219,GP-000,,
-1202740,-1767706,hydrographic,"Anse Deshayes","Anse Deshayes",variant,16.306953,-61.796434,GP-000,,
-1202975,18304796,hypsographic,Grand-Montagne,Grand-Montagne,official,16.313136,-61.060868,GP-000,,
-1202921,-1767985,settlement,"Grand Croix","Grand Croix",variant,16.050237,-61.748855,GP-000,,
-1202484,-1767352,hypsographic,"Morne Blin","Morne Blin",official,16.333333,-61.533333,GP-000,,
-1203081,-1768219,hydrographic,"Ravine Jean Bourgeois","Ravine Jean Bourgeois",official,16.080244,-61.560742,GP-000,,
-1203234,-1768456,settlement,"Les Sources","Les Sources",official,15.935239,-61.297975,GP-000,,
-1202988,-1768090,hypsographic,"Grigne au Vent","Grigne au Vent",official,15.983333,-61.25,GP-000,,
-1202552,-1767446,hypsographic,"Cabrits Point","Cabrits Point",variant,16.262825,-61.218367,GP-000,,
-1203047,-1768175,settlement,"Haut de la Montagne","Haut de la Montagne",official,16.438979,-61.474611,GP-000,,
-1203287,-1768548,settlement,Maisoncelle,Maisoncelle,official,16.375755,-61.470481,GP-000,,
-1203763,-1769214,hydrographic,"Anse Salmon","Anse Salmon",official,16.329273,-61.308787,GP-000,,
-1202700,-1768143,hypsographic,"Guard du Corps Point","Guard du Corps Point",variant,16.049173,-61.764754,GP-000,,
-1202775,-1767756,settlement,Dupré,Dupre,official,16.226118,-61.390898,GP-000,,
-1203719,-1768791,settlement,Pauvert,Pauvert,variant,16.265043,-61.272465,GP-000,,
-1203086,-1768226,settlement,Joubert,Joubert,official,15.889876,-61.277723,GP-000,,
-1202640,-1767564,settlement,Chazeaux,Chazeaux,variant,16.29556,-61.459278,GP-000,,
-1203295,18276686,settlement,Matignon,Matignon,official,16.293883,-61.428401,GP-000,,
-1203305,-1768575,settlement,"Mare Gaillard","Mare Gaillard",official,16.215295,-61.439297,GP-000,,
-1203661,-1768346,hydrographic,"La Rose River","La Rose River",variant,16.146122,-61.5762,GP-000,,
-1202604,-1767517,hypsographic,"Morne Carmichaël","Morne Carmichael",variant,16.054769,-61.662618,GP-000,,
-1203249,-1768362,settlement,Laugmont,Laugmont,variant,16.016667,-61.6,GP-000,,
-1202599,-1767512,hypsographic,"Carénage Islets","Carenage Islets",variant,16.344526,-61.676692,GP-000,,
-1202594,-1767501,hydrographic,"Deuxième Chute du Carbet","Deuxieme Chute du Carbet",official,16.044048,-61.645306,GP-000,,
-1202655,-1767585,hypsographic,"Pointe à Claude","Pointe a Claude",official,16.50515,-61.477827,GP-000,,
-1203519,-1768865,hydrographic,"Anse du Petit Havre","Anse du Petit Havre",variant,16.208095,-61.43361,GP-000,,
-1202691,-1767633,hypsographic,"Pointe Constant","Pointe Constant",official,16.078125,-61.559212,GP-000,,
-1202761,-1767739,hydrographic,"Anse à Dos","Anse a Dos",official,15.854196,-61.647202,GP-000,,
-1203664,-1769076,hypsographic,"Morne Rouge","Morne Rouge",official,15.887337,-61.296081,GP-000,,
-1203681,18227357,hydrographic,"Anse à Sable","Anse a Sable",official,16.148589,-61.77565,GP-000,,
-1202621,-1767541,hydrographic,"Passe Champagne","Passe Champagne",official,16.248735,-61.260451,GP-000,,
-1203359,18315195,hydrographic,"Anse Mire","Anse Mire",official,15.872682,-61.58371,GP-000,,
-1203054,-1768183,hydrographic,"Rivière Hemin","Riviere Hemin",official,16.116667,-61.6,GP-000,,
-1203017,-1768131,hypsographic,"Grosse Pointe","Grosse Pointe",official,15.871654,-61.567007,GP-000,,
-1203689,-1769104,hydrographic,"Anse à Saint","Anse a Saint",official,16.210797,-61.417411,GP-000,,
-1202876,-1767921,hydrographic,"Ravine Gardel","Ravine Gardel",official,16.313359,-61.324176,GP-000,,
-1203027,-1768148,hypsographic,"Guerite Point","Guerite Point",variant,16.406978,-61.529459,GP-000,,
-1203538,-1768889,settlement,Pichon,Pichon,official,16.42523,-61.468744,GP-000,,
-1202673,-1767609,hydrographic,"Colas Passage","Colas Passage",variant,16.337703,-61.572315,GP-000,,
-1203276,-1768525,hypsographic,"Pointe de la Madeleine","Pointe de la Madeleine",official,16.025733,-61.748506,GP-000,,
-1202526,-1767407,hypsographic,"Sauts de Bouillante","Sauts de Bouillante",variant,16.135092,-61.724158,GP-000,,
-1203271,-1768520,hydrographic,"Madame River","Madame River",variant,16.34744,-61.72208,GP-000,,
-1202924,-1768068,hydrographic,"Grand Marin Cove","Grand Marin Cove",variant,16.310011,-61.576408,GP-000,,
-1202677,-1767610,hypsographic,"Pointe à Colibris","Pointe a Colibris",variant,16.246232,-61.172278,GP-000,,
-1202523,-1767401,settlement,Bouillante,Bouillante,official,16.130427,-61.768951,GP-000,,
-1202992,-1768097,hypsographic,"Gris-Gris Point","Gris-Gris Point",variant,16.400865,-61.528649,GP-000,,
-1202478,-1767344,settlement,Bisdary,Bisdary,official,15.988736,-61.709243,GP-000,,
-1202795,-1767779,hydrographic,"Porte d’Enfer","Porte d'Enfer",official,16.313829,-61.078573,GP-000,,
-1203445,-1769294,hydrographic,"Sugarloaf Passage","Sugarloaf Passage",variant,15.871576,-61.604899,GP-000,,
-1203433,-1768747,hypsographic,"Mont d’Or","Mont d'Or",official,16.058448,-61.714416,GP-000,,
-1202859,-1768420,hypsographic,"Les Antilles Françaises","Les Antilles Francaises",variant,16.183333,-61.666667,S1-000,,
-1203591,-1768957,settlement,"Port Louis","Port Louis",official,15.913169,-61.287755,GP-000,,
-1203501,-1768841,hydrographic,"Petite Porte","Petite Porte",official,16.316667,-61.283333,GP-000,,
-1202371,-1767201,hypsographic,"Pointe de l’Anse à la Barque","Pointe de l'Anse a la Barque",official,16.451617,-61.406852,GP-000,,
-1202381,-1767213,hydrographic,"Ravine de l’Anse Patate","Ravine de l'Anse Patate",official,16.351069,-61.385959,GP-000,,
-1202778,-1767760,hydrographic,"Anse Dupuy","Anse Dupuy",official,16.3,-61.65,GP-000,,
-1202994,-1768759,hypsographic,"Pointe de l’Ouest","Pointe de l'Ouest",variant,15.848086,-61.64977,GP-000,,
-1203139,-1768527,hypsographic,"Madeleine Mountain","Madeleine Mountain",variant,16.011694,-61.640821,GP-000,,
-1203084,-1768222,hydrographic,"Rivière Jerry","Riviere Jerry",variant,16.067722,-61.769404,GP-000,,
-1202828,-1767833,hydrographic,"Mouillage de Fleur d’Épée","Mouillage de Fleur d'Epee",official,16.2,-61.533333,GP-000,,
-1202576,-1767483,hypsographic,"Capesterre Mountain","Capesterre Mountain",variant,16.073898,-61.65031,GP-000,,
-1202813,-1767811,hypsographic,"Pointe Fèry","Pointe Fery",variant,16.272677,-61.809544,GP-000,,
-1202547,-1767437,settlement,Bruman,Bruman,variant,16.415657,-61.505681,GP-000,,
-1202559,-1767453,hypsographic,"Morne Cafetière","Morne Cafetiere",official,16.333333,-61.783333,GP-000,,
-1202763,-1767741,settlement,Douville,Douville,official,16.14784,-61.593932,GP-000,,
-1202910,-1768739,hypsographic,"North Point","North Point",variant,16.349038,-61.010658,GP-000,,
-1202998,-1768104,hypsographic,"Gros Capes Point","Gros Capes Point",variant,16.470422,-61.412607,GP-000,,
-1202630,18249263,hypsographic,"Îlet Chasse","Ilet Chasse",official,16.223947,-61.557536,GP-000,,
-1202383,-1767215,hypsographic,"Pointe d’Antigues","Pointe d'Antigues",official,16.438008,-61.540704,GP-000,,
-1203140,-1768311,settlement,"La Martinière","La Martiniere",official,16.316667,-61.366667,GP-000,,
-1203054,-1768184,hydrographic,"Hemin River","Hemin River",variant,16.116667,-61.6,GP-000,,
-1203588,18292696,settlement,"Quatrième Portel","Quatrieme Portel",official,15.91188,-61.30279,GP-000,,
-1202734,-1767696,settlement,Descostiers,Descostiers,official,16.283333,-61.65,GP-000,,
-1203645,-1769042,hypsographic,"Pointe de la Rivière à Goyaves","Pointe de la Riviere a Goyaves",variant,16.129889,-61.560662,GP-000,,
-1203628,-1769043,settlement,"Rivière Chaude","Riviere Chaude",variant,16.226856,-61.668268,GP-000,,
-1203207,-1768419,park,"Le Salut","Le Salut",official,15.891189,-61.244572,GP-000,,
-1203233,-1768235,hypsographic,"Kleine Antillen","Kleine Antillen",variant,14.666667,-61.016667,S1-000,,
-1202897,-1767949,hypsographic,"Îlet du Gosier","Ilet du Gosier",official,16.198991,-61.491335,GP-000,,
-1203670,-1769083,hypsographic,"Pointe de Roujol","Pointe de Roujol",official,16.178685,-61.580346,GP-000,,
-1202380,18317625,hypsographic,"Pointe de la Fontaine","Pointe de la Fontaine",official,16.461013,-61.528806,GP-000,,
-1203683,-1769096,hypsographic,"Île de Sable","Ile de Sable",official,16.2,-61.45,GP-000,,
-1202716,-1767667,hypsographic,"Pointe Criquet","Pointe Criquet",official,16.2,-61.483333,GP-000,,
-1202739,-1767704,settlement,Deshauteurs,Deshauteurs,official,16.250976,-61.431318,GP-000,,
-1203193,18292691,settlement,"Le Haut du Morne des Pères","Le Haut du Morne des Peres",official,15.901885,-61.226544,GP-000,,
-1202542,-1767429,hypsographic,"Pointe le Breton","Pointe le Breton",official,16.332407,-61.78901,GP-000,,
-1203723,-1768454,hydrographic,"Les Saintes Anchorage","Les Saintes Anchorage",variant,15.866667,-61.583333,GP-000,,
-1203635,-1769030,settlement,Retz,Retz,official,15.916667,-61.333333,GP-000,,
-1202591,-1767496,hydrographic,"Rivière Caranguais","Riviere Caranguais",official,16.068114,-61.560809,GP-000,,
-1202779,-1767761,hydrographic,"Baie Dupuy","Baie Dupuy",official,16.270915,-61.610022,GP-000,,
-1203206,-1767176,settlement,Abeymes,Abeymes,variant,16.273,-61.505075,GP-000,,
-1202414,-1767259,hydrographic,"Rivière de Bananier","Riviere de Bananier",variant,16.003285,-61.599097,GP-000,,
-1203719,-1769148,settlement,Sainte-Marthe,Sainte-Marthe,official,16.265043,-61.272465,GP-000,,
-1203505,18316244,hydrographic,"Petite Anse","Petite Anse",official,15.850524,-61.648608,GP-000,,
-1203175,-1767688,hypsographic,"Pointe à Delaunay","Pointe a Delaunay",variant,15.946925,-61.696881,GP-000,,
-1203334,-1768615,hydrographic,"Ravine Massicot","Ravine Massicot",official,15.866667,-61.266667,GP-000,,
-1203574,-1768936,hydrographic,"Anse de la Pointe Nord","Anse de la Pointe Nord",official,16.507238,-61.465831,GP-000,,
-1202697,18228127,hydrographic,"Bras Saint-Jean","Bras Saint-Jean",variant,16.178259,-61.681881,GP-000,,
-1203463,-1768790,hypsographic,"Pointe Paul Thomas","Pointe Paul Thomas",official,16.281307,-61.804229,GP-000,,
-1203290,-1768552,hypsographic,"Pointe de Malendure","Pointe de Malendure",official,16.174118,-61.782767,GP-000,,
-1202727,18316251,hypsographic,"Morne Déjel","Morne Dejel",official,15.855877,-61.631953,GP-000,,
-1203278,-1768531,hypsographic,"Morne Madis","Morne Madis",official,15.851358,-61.63291,GP-000,,
-1202485,18245285,hydrographic,"Ravine Blondeau","Ravine Blondeau",official,15.952611,-61.677118,GP-000,,
-1203558,-1768916,hypsographic,"Pointe Plate","Pointe Plate",official,15.842456,-61.591292,GP-000,,
-1202674,-1767605,hypsographic,"Pointe à Colas","Pointe a Colas",variant,16.189691,-61.784186,GP-000,,
-1202974,-1768066,hypsographic,"Grand Marigot","Grand Marigot",variant,16.03419,-61.564863,GP-000,,
-1203604,-1768977,hydrographic,"Banc Provençal","Banc Provencal",variant,16.226383,-61.540879,GP-000,,
-1202384,-1767221,hydrographic,"Banc Apollon","Banc Apollon",official,16.217417,-61.539243,GP-000,,
-1202425,-1767273,settlement,"Barre de l’Île","Barre de l'Ile",official,15.949719,-61.275137,GP-000,,
-1203648,-1769047,hypsographic,"Pointe à Roche","Pointe a Roche",official,16.35,-61.716667,GP-000,,
-1203280,-1768533,spot,Mahaudière,Mahaudiere,official,16.433333,-61.416667,GP-000,,
-1203205,-1768475,settlement,L’Hermitage,L'Hermitage,variant,16.434701,-61.457324,GP-000,,
-1202767,-1767745,hypsographic,"Îlet Duberran","Ilet Duberran",official,16.349136,-61.508359,GP-000,,
-1203482,-1768844,hydrographic,"Petite Rivière à Perrin","Petite Riviere a Perrin",variant,16.312559,-61.534609,GP-000,,
-1202538,-1767422,hydrographic,"Rivière Bras David","Riviere Bras David",official,16.199741,-61.661511,GP-000,,
-1202636,-1767559,spot,"Bains Chauds du Matouba","Bains Chauds du Matouba",official,16.050029,-61.674118,GP-000,,
-1202498,-1767367,settlement,Boisvin,Boisvin,official,16.298046,-61.350046,GP-000,,
-1202754,-1767732,settlement,Diavet,Diavet,official,16.316349,-61.689538,GP-000,,
-1203097,-1768242,settlement,Labarthe,Labarthe,official,16.289465,-61.285712,GP-000,,
-1202482,-1769280,settlement,"Sucrerie Blanchet","Sucrerie Blanchet",variant,16.325021,-61.414534,GP-000,,
-1202661,-1767591,settlement,Cocotier,Cocotier,official,15.948608,-61.29681,GP-000,,
-1202818,18316241,hydrographic,"Grande Baie","Grande Baie",official,15.853963,-61.620561,GP-000,,
-1203059,-1767375,hydrographic,"Rivière du Bon Goût","Riviere du Bon Gout",variant,16.251479,-61.594976,GP-000,,
-1203741,-1769184,hypsographic,"Saint-Louis Mountain","Saint-Louis Mountain",variant,16.05,-61.7,GP-000,,
-1202467,-1767331,hydrographic,"Anse Bernard","Anse Bernard",official,15.989556,-61.612858,GP-000,,
-1203524,-1768873,hypsographic,"Petit Morne Rouge","Petit Morne Rouge",official,16.332628,-61.040348,GP-000,,
-1202505,-1767377,settlement,"Bonne Mère","Bonne Mere",official,16.267405,-61.676139,GP-000,,
-1203229,-1768450,hypsographic,"Les Quilles","Les Quilles",official,15.836941,-61.598609,GP-000,,
-1202971,-1768083,hypsographic,"Great Cay Island","Great Cay Island",variant,15.836872,-61.590029,GP-000,,
-1203303,-1768573,settlement,Maréchal,Marechal,official,15.918191,-61.329308,GP-000,,
-1202781,-1767763,settlement,Durivage,Durivage,official,16.224082,-61.399397,GP-000,,
-1203572,-1768934,hypsographic,"Pointe Montagne","Pointe Montagne",official,15.997966,-61.61553,GP-000,,
-1202913,18227670,hypsographic,"Pointe du Grand Bas-Vent","Pointe du Grand Bas-Vent",official,16.351073,-61.769489,GP-000,,
-1203039,-1768166,hypsographic,"Haie Bebel","Haie Bebel",variant,16.332437,-61.686507,GP-000,,
-1202791,-1767775,hydrographic,"Cascade aux Écrevisses","Cascade aux Ecrevisses",official,16.178351,-61.681497,GP-000,,
-1202870,18304795,hydrographic,"Anse des Galets","Anse des Galets",official,16.299584,-61.096804,GP-000,,
-1202376,-1767207,hypsographic,"Pointe de l’Anse Bertrand","Pointe de l'Anse Bertrand",official,16.470641,-61.517715,GP-000,,
-1203006,-1768116,hypsographic,"Gros Morne","Gros Morne",official,16,-61.65,GP-000,,
-1203424,-1768724,hydrographic,"Rivière Noire","Riviere Noire",official,16.025037,-61.713941,GP-000,,
-1203185,-1767915,hydrographic,"Galion River","Galion River",variant,15.985829,-61.722821,GP-000,,
-1203729,-1769161,settlement,Saint-Gilles,Saint-Gilles,official,15.983333,-61.633333,GP-000,,
-1202928,-1768283,hydrographic,"La Grande Anse","La Grande Anse",variant,16.301189,-61.074599,GP-000,,
-1203759,-1769210,hydrographic,"Rivière Salée","Riviere Salee",official,16.334497,-61.70149,GP-000,,
-1203061,18245207,hypsographic,Houëlmont,Houelmont,official,15.98058,-61.703609,GP-000,,
-1203124,18249250,hydrographic,"Grande Baie","Grande Baie",official,16.213711,-61.510734,GP-000,,
-1203327,-1768604,hydrographic,"Ravine du Marquis","Ravine du Marquis",official,16.118343,-61.773772,GP-000,,
-1203082,-1768220,hypsographic,"Morne Jeanneton","Morne Jeanneton",official,16.22956,-61.723309,GP-000,,
-1203205,-1768417,settlement,L’Ermitage,L'Ermitage,official,16.434701,-61.457324,GP-000,,
-1203150,-1768811,hydrographic,"Banc de la Perle","Banc de la Perle",variant,16.35,-61.8,GP-000,,
-1203337,-1768619,spot,"Grotte Mastong","Grotte Mastong",official,16.500442,-61.460127,GP-000,,
-1203562,-1767754,hydrographic,"Du Plessis River","Du Plessis River",variant,16.034072,-61.751264,GP-000,,
-1202705,-1767651,hydrographic,"Anse à Coudroy","Anse a Coudroy",official,16.216667,-61.4,GP-000,,
-1203115,-1767697,hypsographic,Deseada,Deseada,variant,16.318383,-61.051937,GP-000,,
-1203726,-1769157,settlement,Saint-François,Saint-Francois,official,16.252355,-61.273323,GP-000,,
-1202676,-1767611,hypsographic,"Pointe des Colibris","Pointe des Colibris",official,15.832411,-61.585411,GP-000,,
-1202655,-1767926,hypsographic,"Pointe à Gaude","Pointe a Gaude",variant,16.50515,-61.477827,GP-000,,
-1202858,-1768273,hypsographic,"La Frégate","La Fregate",variant,16.303193,-61.097532,GP-000,,
-1203557,-1768915,hydrographic,"Caye Plate","Caye Plate",official,16.183333,-61.533333,GP-000,,
-1203369,-1768657,hypsographic,"Plateau de la Montagne","Plateau de la Montagne",official,16.334647,-61.030384,GP-000,,
-1203167,-1768354,settlement,"La Source","La Source",official,16.133333,-61.766667,GP-000,,
-1203088,-1768229,settlement,Kahouanne,Kahouanne,official,16.254399,-61.215941,GP-000,,
-1203130,-1768297,settlement,"La Grange","La Grange",official,16.133333,-61.566667,GP-000,,
-1203374,-1768663,settlement,Montplaisir,Montplaisir,variant,16.320708,-61.690567,GP-000,,
-1203524,-1768684,hypsographic,"Morne Rouge Point","Morne Rouge Point",variant,16.332628,-61.040348,GP-000,,
-1202910,-1767970,hypsographic,"Pointe du Grand Abaque","Pointe du Grand Abaque",official,16.349038,-61.010658,GP-000,,
-1202440,-1767295,settlement,Beaugendre,Beaugendre,official,16.089078,-61.754987,GP-000,,
-1203136,-1768470,hydrographic,"Rivière Lézarde","Riviere Lezarde",variant,16.214114,-61.586039,GP-000,,
-1202665,-1767595,hydrographic,"Rivière du Coin","Riviere du Coin",official,16.234575,-61.583528,GP-000,,
-1202828,-1768271,hydrographic,"La Fleur d’Epée Anchorage","La Fleur d'Epee Anchorage",variant,16.2,-61.533333,GP-000,,
-1203594,-1768963,settlement,Pousset,Pousset,variant,16.217701,-61.503131,GP-000,,
-1202579,-1767481,hydrographic,"Rivière de la Capesterre","Riviere de la Capesterre",variant,16.084403,-61.642962,GP-000,,
-1203592,-1768958,settlement,Port-Louis,Port-Louis,official,16.417489,-61.530454,GP-000,,
-1203442,-1768764,hydrographic,"Grand Étang Paille","Grand Etang Paille",variant,16.006639,-61.655673,GP-000,,
-1203514,-1768857,hypsographic,Petite-Terre,Petite-Terre,variant,16.17192,-61.11165,GP-000,,
-1203055,-1768185,hydrographic,"Rivière aux Herbes","Riviere aux Herbes",official,15.993329,-61.730698,GP-000,,
-1202939,-1769382,hydrographic,"Cascade Vauchelet","Cascade Vauchelet",variant,16.031533,-61.662831,GP-000,,
-1202634,-1767555,hypsographic,"Pointe des Châteaux","Pointe des Chateaux",official,16.24529,-61.177192,GP-000,,
-1203293,-1768555,settlement,Malgrétout,Malgretout,official,16.451752,-61.45654,GP-000,,
-1203503,-1768836,hydrographic,"Petite Ferry River","Petite Ferry River",variant,16.285897,-61.77922,GP-000,,
-1202608,-1767523,hydrographic,"Ravine Cassis","Ravine Cassis",official,16.437508,-61.512411,GP-000,,
-1202512,-1767385,hydrographic,"Anse du Bord de la Mer au Frais","Anse du Bord de la Mer au Frais",official,16.313984,-61.079422,GP-000,,
-1203150,-1768328,hydrographic,"La Perte Shoal","La Perte Shoal",variant,16.35,-61.8,GP-000,,
-1202399,-1767237,settlement,Baille-Argent,Baille-Argent,official,16.260088,-61.803298,GP-000,,
-1202747,-1767719,settlement,Desruisseaux,Desruisseaux,official,15.9467,-61.220034,GP-000,,
-1203137,-1768308,settlement,"La Lise","La Lise",official,16.158777,-61.774637,GP-000,,
-1203454,-1768780,settlement,Parnasse,Parnasse,official,16.023794,-61.684997,GP-000,,
-1203634,-1769028,settlement,Renéville,Reneville,official,16.288322,-61.311614,GP-000,,
-1202723,-1767679,settlement,Darboussier,Darboussier,official,16.230856,-61.533465,GP-000,,
-1202596,-1767504,hydrographic,"Rivière du Carbet","Riviere du Carbet",official,16.05,-61.633333,GP-000,,
-1203159,-1768341,settlement,"La Retraite","La Retraite",official,16.229638,-61.618284,GP-000,,
-1203148,18290068,settlement,L’Anglais,L'Anglais,official,16.338443,-61.38661,GP-000,,
-1202902,-1767957,hypsographic,"Pointe à la Gourde","Pointe a la Gourde",official,16.257658,-61.209622,GP-000,,
-1202392,-1767230,hypsographic,"Plage de l’Autre Bord","Plage de l'Autre Bord",official,16.333708,-61.334662,GP-000,,
-1203595,-1768962,hydrographic,"Anse à Poulain","Anse a Poulain",official,16.051497,-61.766139,GP-000,,
-1203329,-1768607,hydrographic,"Anse Marsolle","Anse Marsolle",official,16.13473,-61.771838,GP-000,,
-1203022,14403689,administrative_region,Guadeloupe,Guadeloupe,official,16.25,-61.583333,GP-000,,
-1202568,-1767464,hypsographic,"Pointe au Canal","Pointe au Canal",official,16.345432,-61.506865,GP-000,,
-1202640,-1767563,settlement,Chazeau,Chazeau,official,16.29556,-61.459278,GP-000,,
-1202363,-1767189,hypsographic,"Pointe Allègre","Pointe Allegre",official,16.361624,-61.743778,GP-000,,
-1203625,-1769015,hypsographic,"Pointe à Raquettes","Pointe a Raquettes",official,16.414017,-61.40044,GP-000,,
-1203195,-1768401,settlement,"Le Marigot","Le Marigot",official,16.033333,-61.566667,GP-000,,
-1203411,-1768708,hypsographic,"Pointe à Nègre","Pointe a Negre",official,15.851697,-61.618384,GP-000,,
-1203678,-1769091,settlement,Routhiers,Routhiers,official,16.040411,-61.597259,GP-000,,
-1203481,-1768814,hydrographic,"Anse Perrin","Anse Perrin",official,16.312764,-61.535027,GP-000,,
-1203688,-1769103,settlement,Saiette,Saiette,variant,16.324392,-61.460584,GP-000,,
-1203256,-1768493,hypsographic,"L’Orme à Boudin","L'Orme a Boudin",official,16.083333,-61.716667,GP-000,,
-1203282,-1768542,hydrographic,"Baie Mahaut","Baie Mahaut",variant,16.32878,-61.012882,GP-000,,
-1202742,18305035,administrative_region,"La Désirade","La Desirade",official,16.319143,-61.048134,GP-000,,
-1203373,-1768662,settlement,Montebello,Montebello,official,16.176562,-61.601989,GP-000,,
-1203102,-1767397,settlement,Boucan,Boucan,variant,16.282545,-61.669829,GP-000,,
-1203276,-1768528,hypsographic,"Madeleine Point","Madeleine Point",variant,16.025733,-61.748506,GP-000,,
-1202770,-1767748,settlement,Dubois,Dubois,official,16.2,-61.6,GP-000,,
-1203400,-1768692,hypsographic,"Plage de Moustique","Plage de Moustique",official,15.976918,-61.310777,GP-000,,
-1203598,-1768968,settlement,Poyen,Poyen,official,16.35,-61.45,GP-000,,
-1202690,-1767632,hypsographic,"Morne Constant","Morne Constant",official,15.946399,-61.210672,GP-000,,
-1203111,-1768265,settlement,"La Coulisse","La Coulisse",official,16.069321,-61.732728,GP-000,,
-1202569,-1767465,hydrographic,"Trou Canard","Trou Canard",official,16.166661,-61.122121,GP-000,,
-1203275,-1768529,hypsographic,"Madeleine Point","Madeleine Point",variant,16.284935,-61.575909,GP-000,,
-1203108,-1768260,hypsographic,"La Citerne","La Citerne",official,16.034048,-61.65581,GP-000,,
-1203248,18241148,hydrographic,"Caye la Loire","Caye la Loire",official,16.117145,-61.562164,GP-000,,
-1202720,-1767674,hydrographic,"Ravine à la Cure","Ravine a la Cure",official,16.116667,-61.783333,GP-000,,
-1203697,-1769119,spot,"Fort Saint-Charles","Fort Saint-Charles",variant,15.988128,-61.723207,GP-000,,
-1202668,-1767599,hypsographic,"Pointe à Cointe","Pointe a Cointe",official,15.866667,-61.6,GP-000,,
-1203004,-1768108,hypsographic,"Gros Knoll","Gros Knoll",variant,16.066667,-61.733333,GP-000,,
-1203224,-1768444,hypsographic,"Le Souffleur","Le Souffleur",official,16.322995,-61.289436,GP-000,,
-1202738,-1767708,hydrographic,"Rivière Deshayes","Riviere Deshayes",variant,16.304916,-61.795451,GP-000,,
-1203520,-1768867,hypsographic,"Pointe du Petit Havre","Pointe du Petit Havre",official,16.207795,-61.425104,GP-000,,
-1203266,-1768510,hypsographic,"Pointe Macolia","Pointe Macolia",official,16.266375,-61.230219,GP-000,,
-1203682,-1769095,hydrographic,"Bras de Sable","Bras de Sable",variant,16.231579,-61.670184,GP-000,,
-1203658,-1769064,hypsographic,"Pointe la Rose","Pointe la Rose",official,16.150564,-61.574339,GP-000,,
-1202393,-1767231,hypsographic,"Morne Babin","Morne Babin",official,16.35,-61.533333,GP-000,,
-1203275,-1768524,hypsographic,"Pointe Madeleine","Pointe Madeleine",official,16.284935,-61.575909,GP-000,,
-1202878,-1767923,settlement,Garnier,Garnier,official,16.313748,-61.497379,GP-000,,
-1203118,-1768275,hydrographic,"Passage de La Gabarre","Passage de La Gabarre",official,16.251933,-61.550245,GP-000,,
-1203422,-1768722,hypsographic,"Pointe Noire","Pointe Noire",official,15.865018,-61.623215,GP-000,,
-1202812,-1767805,hydrographic,"Anse Ferry","Anse Ferry",official,16.278587,-61.803554,GP-000,,
-1203375,-1768664,settlement,Montval,Montval,official,16.059052,-61.724114,GP-000,,
-1203299,18227648,hypsographic,"Îlet Mangle à Laurette","Ilet Mangle a Laurette",official,16.322887,-61.63724,GP-000,,
-1202772,-1767751,settlement,Ducos,Ducos,official,15.892473,-61.293138,GP-000,,
-1202431,-1768136,hypsographic,Guadeloupe,Guadeloupe,variant,16.149432,-61.678061,GP-000,,
-1203613,-1769000,settlement,"Quatre Chemins","Quatre Chemins",official,16.280841,-61.496089,GP-000,,
-1202881,-1767927,park,Gay,Gay,official,15.9,-61.233333,GP-000,,
-1203419,-1768718,hypsographic,"Nez Cassé","Nez Casse",official,16.048382,-61.672325,GP-000,,
-1203607,-1767759,hydrographic,"Anse Dupuy","Anse Dupuy",official,16.204533,-61.486266,GP-000,,
-1203654,-1769056,hydrographic,"Anse Rodriguez","Anse Rodriguez",variant,15.857333,-61.579863,GP-000,,
-1203594,-1768964,settlement,Poussette,Poussette,variant,16.217701,-61.503131,GP-000,,
-1203180,-1769069,hypsographic,"Mont Rossel","Mont Rossel",variant,15.858076,-61.595349,GP-000,,
-1203428,-1768735,hydrographic,"Ravine du Nord-Ouest","Ravine du Nord-Ouest",official,16.335424,-61.369483,GP-000,,
-1203067,-1768205,hypsographic,"Incapable Cliff","Incapable Cliff",variant,16.116667,-61.666667,GP-000,,
-1203516,-1768861,hypsographic,"Pointe de la Petite Vigie","Pointe de la Petite Vigie",official,16.483811,-61.503784,GP-000,,
-1203280,-1767192,spot,"Ancienne Usine Mahaudière","Ancienne Usine Mahaudiere",variant,16.433333,-61.416667,GP-000,,
-1203530,-1768879,hydrographic,"Anse Petit Sable","Anse Petit Sable",official,15.856885,-61.647035,GP-000,,
-1202973,-1768063,hydrographic,"Passe du Grand Îlet","Passe du Grand Ilet",official,15.845274,-61.599394,GP-000,,
-1203269,-1768516,hypsographic,"Pointe Madame","Pointe Madame",official,15.992812,-61.60815,GP-000,,
-1203529,-1768878,hydrographic,"Anse du Petit Portland","Anse du Petit Portland",official,16.491385,-61.441201,GP-000,,
-1203681,-1769094,hydrographic,"Anse de Sable","Anse de Sable",variant,16.148589,-61.77565,GP-000,,
-1202874,-1767919,hydrographic,"Récif Ganganne","Recif Ganganne",variant,16.333333,-61.65,GP-000,,
-1203617,18318136,hydrographic,"Anse Babin","Anse Babin",official,16.342207,-61.525283,GP-000,,
-1203431,-1768743,hydrographic,"Anse Noyev","Anse Noyev",variant,16.342614,-61.716595,GP-000,,
-1202397,-1767235,settlement,Baie-Mahault,Baie-Mahault,official,16.267382,-61.585431,GP-000,,
-1203112,-1767658,hypsographic,Couronne,Couronne,variant,16.249941,-61.738346,GP-000,,
-1203233,-1768798,hypsographic,"Pequeñas Antillas","Pequenas Antillas",variant,14.666667,-61.016667,S1-000,,
-1202359,-1767185,hypsographic,"Pointe de l’Acomat","Pointe de l'Acomat",official,15.966707,-61.63411,GP-000,,
-1203035,-1768161,hydrographic,"Anse Guyonneau","Anse Guyonneau",official,16.225305,-61.785984,GP-000,,
-1202710,-1767660,hypsographic,"Pointe de la Couronne Conchou","Pointe de la Couronne Conchou",official,16.331441,-61.312755,GP-000,,
-1203344,-1768626,hydrographic,"Anse de Mays","Anse de Mays",official,15.978295,-61.310085,GP-000,,
-1202389,18245204,hydrographic,"Étang de l’As de Pique","Etang de l'As de Pique",official,16.024125,-61.642874,GP-000,,
-1203135,-1768305,settlement,Lalanne,Lalanne,official,16.410634,-61.518274,GP-000,,
-1203237,-1768460,settlement,Lesueur,Lesueur,official,16.083333,-61.75,GP-000,,
-1203761,-1767996,hydrographic,"Grande Anse","Grande Anse",official,16.250687,-61.181709,GP-000,,
-1202942,-1768019,hydrographic,"Grande Coulée Pass","Grande Coulee Pass",variant,16.35233,-61.712312,GP-000,,
-1202674,18227664,hypsographic,"Pointe Colas","Pointe Colas",official,16.189691,-61.784186,GP-000,,
-1203478,-1768808,hydrographic,"Rivière des Pères","Riviere des Peres",official,16.041784,-61.564783,GP-000,,
-1202403,-1768371,settlement,"Le Baillif","Le Baillif",variant,16.020374,-61.746112,GP-000,,
-1203570,18249236,spot,"Aéroport Guadeloupe-Pôle Caraïbes","Aeroport Guadeloupe-Pole Caraibes",short,16.265414,-61.532155,GP-000,,
-1202850,-1767868,hypsographic,"Îlet aux Fous","Ilet aux Fous",short,16.340081,-61.689992,GP-000,,
-1202641,-1767566,hypsographic,"Dos de Cheval","Dos de Cheval",official,16.010188,-61.639138,GP-000,,
-1202979,18244971,hydrographic,"Anse Grande Ravine","Anse Grande Ravine",official,15.977879,-61.619222,GP-000,,
-1203014,-1768126,hypsographic,"Pointe Gros Rampart","Pointe Gros Rampart",variant,16.327558,-61.014167,GP-000,,
-1203184,-1768385,hypsographic,"Leeward Islands","Leeward Islands",colloquial,17.35,-62.783333,S1-000,,
-1203472,-1768809,hypsographic,"Perforated Rock","Perforated Rock",variant,16.499287,-61.479901,GP-000,,
-1203502,-1768842,hydrographic,"Petite Ravine Boucan","Petite Ravine Boucan",variant,16.279515,-61.694586,GP-000,,
-1202821,-1767822,hydrographic,"Anse du Figuier","Anse du Figuier",official,16.344464,-61.523819,GP-000,,
-1202942,-1768018,hydrographic,"Passe de la Grande-Coulée","Passe de la Grande-Coulee",official,16.35233,-61.712312,GP-000,,
-1202390,-1767228,hypsographic,"Morne Aubin","Morne Aubin",official,16.315051,-61.525878,GP-000,,
-1203553,-1768909,hydrographic,"Anse Piton","Anse Piton",official,15.95752,-61.216987,GP-000,,
-1203412,-1768711,hydrographic,"Anse à Négresse","Anse a Negresse",official,16.177968,-61.783296,GP-000,,
-1203616,-1769003,settlement,Rabi,Rabi,official,15.907174,-61.26099,GP-000,,
-1202663,-1767593,hydrographic,"Étang Cocoyer","Etang Cocoyer",official,16.300244,-61.376145,GP-000,,
-1202833,-1767839,hypsographic,"Pointe Folle Anse","Pointe Folle Anse",variant,15.941682,-61.336829,GP-000,,
-1202756,18245255,settlement,Dolé,Dole,official,15.989475,-61.669992,GP-000,,
-1202782,-1767764,settlement,Durocher,Durocher,official,15.915369,-61.273385,GP-000,,
-1202457,-1767317,settlement,"Belle Espérance","Belle Esperance",official,16.312253,-61.507963,GP-000,,
-1203203,-1768414,hypsographic,"Le Piton","Le Piton",official,16.501351,-61.44366,GP-000,,
-1203559,-1768917,hypsographic,"Pointe Plate","Pointe Plate",official,15.946821,-61.699843,GP-000,,
-1202734,-1767684,settlement,Decostier,Decostier,variant,16.283333,-61.65,GP-000,,
-1203170,-1768357,hypsographic,"Pointe Latanier","Pointe Latanier",official,16.321182,-61.651463,GP-000,,
-1203301,-1768569,settlement,Marchand,Marchand,official,16.283333,-61.666667,GP-000,,
-1203347,-1768629,settlement,Mazeau,Mazeau,official,16.2948,-61.788393,GP-000,,
-1202490,18245251,settlement,"Habitation Bois Debout","Habitation Bois Debout",official,16.024504,-61.586932,GP-000,,
-1202964,-1768080,hypsographic,"Grand Vigie Point","Grand Vigie Point",variant,16.513871,-61.46457,GP-000,,
-1202566,-1767462,settlement,"Camp Jacob","Camp Jacob",official,16.02887,-61.691741,GP-000,,
-1203022,14403688,administrative_region,Guadeloupe,Guadeloupe,colloquial,16.25,-61.583333,GP-000,,
-1202649,-1767575,hypsographic,"Îlet à Christophe","Ilet a Christophe",official,16.294548,-61.569806,GP-000,,
-1203394,-1768685,settlement,Morphy,Morphy,official,16.245512,-61.797253,GP-000,,
-1203482,-1768843,hydrographic,"Petite Rivière","Petite Riviere",variant,16.312559,-61.534609,GP-000,,
-1203004,-1768114,hypsographic,"Gros Morne","Gros Morne",official,16.066667,-61.733333,GP-000,,
-1202588,-1767491,hypsographic,"Monts Caraïbes","Monts Caraibes",official,15.972113,-61.690739,GP-000,,
-1202673,-1767604,hydrographic,"Passe à Colas","Passe a Colas",official,16.337703,-61.572315,GP-000,,
-1203147,-1768320,hydrographic,"La Moustique","La Moustique",official,16.170344,-61.584703,GP-000,,
-1203580,-1767689,settlement,"De Pombiray","De Pombiray",variant,16.28375,-61.304007,GP-000,,
-1202669,-1767600,hypsographic,"Morne du Col","Morne du Col",official,16.058888,-61.667385,GP-000,,
-1203445,-1768768,hydrographic,"Passe du Pain de Sucre","Passe du Pain de Sucre",official,15.871576,-61.604899,GP-000,,
-1203243,-1768468,hypsographic,"Arête Lézarde","Arete Lezarde",variant,16.125392,-61.684021,GP-000,,
-1202589,-1767493,settlement,Carangaise,Carangaise,official,16.08011,-61.570721,GP-000,,
-1203024,18304383,settlement,Guenette,Guenette,official,16.329278,-61.335069,GP-000,,
-1202987,-1768089,settlement,Gresset,Gresset,official,16.066667,-61.566667,GP-000,,
-1203022,-1768139,administrative_region,"Department of Guadeloupe","Department of Guadeloupe",variant,16.25,-61.583333,GP-000,,
-1202685,-1767626,hypsographic,"Plateau Concessions Schoelcher","Plateau Concessions Schoelcher",official,16,-61.65,GP-000,,
-1203295,-1768648,settlement,Molignon,Molignon,variant,16.293883,-61.428401,GP-000,,
-1203384,-1768674,settlement,Morne-à-l’Eau,Morne-a-l'Eau,official,16.333388,-61.458796,GP-000,,
-1203721,-1769151,hypsographic,"Piton de Sainte-Rose","Piton de Sainte-Rose",official,16.331638,-61.762074,GP-000,,
-1203030,-1768152,settlement,Guillochat,Guillochat,variant,16.316667,-61.333333,GP-000,,
-1203190,-1768393,hypsographic,"Le Gouffre Pointe","Le Gouffre Pointe",official,15.966443,-61.7086,GP-000,,
-1202396,-1767234,hydrographic,"Anse à la Baie","Anse a la Baie",official,16.278705,-61.247156,GP-000,,
-1203409,-1768706,hypsographic,"Îlet à Nègre","Ilet a Negre",official,16.199721,-61.57298,GP-000,,
-1203677,-1769090,hypsographic,Rousset,Rousset,official,16.016667,-61.65,GP-000,,
-1203224,-1769265,hypsographic,Souffleur,Souffleur,variant,16.322995,-61.289436,GP-000,,
-1203045,-1768173,hydrographic,"Mouton de Haut","Mouton de Haut",official,16.333333,-61.333333,GP-000,,
-1202435,-1767289,settlement,"Bas Vent","Bas Vent",variant,16.342302,-61.770722,GP-000,,
-1202599,18238513,hypsographic,"Îlets de Carénage","Ilets de Carenage",official,16.344526,-61.676692,GP-000,,
-1203669,-1769082,hypsographic,"Pointe Roujol","Pointe Roujol",official,16.497404,-61.480976,GP-000,,
-1202611,-1767526,hypsographic,"Pointe Castalia","Pointe Castalia",official,16.489291,-61.492961,GP-000,,
-1203051,-1768179,hypsographic,"Pointe du Havre","Pointe du Havre",official,15.841657,-61.629565,GP-000,,
-1202578,-1767478,hypsographic,"Pointe Capesterre","Pointe Capesterre",variant,16.053686,-61.555737,GP-000,,
-1203192,-1768396,hydrographic,"Le Gros Loup","Le Gros Loup",official,16.106076,-61.551542,GP-000,,
-1203425,18228120,hydrographic,"Rivière Caillou Bras du Nord","Riviere Caillou Bras du Nord",official,16.239535,-61.780033,GP-000,,
-1203194,-1768399,hypsographic,"Le Mabouya","Le Mabouya",official,15.95,-61.2,GP-000,,
-1203280,-1768534,spot,"Ancienne Usine Mahaudière","Ancienne Usine Mahaudiere",variant,16.433333,-61.416667,GP-000,,
-1203220,-1768440,hypsographic,"Les Mamelles","Les Mamelles",official,16.173045,-61.732865,GP-000,,
-1202833,-1767841,hypsographic,"Pointe de la Folle Anse","Pointe de la Folle Anse",variant,15.941682,-61.336829,GP-000,,
-1203688,18276687,settlement,Salette,Salette,official,16.324392,-61.460584,GP-000,,
-1203502,-1768835,hydrographic,"Petite Boucan","Petite Boucan",variant,16.279515,-61.694586,GP-000,,
-1202742,-1767710,administrative_region,"Commune de la Désirade","Commune de la Desirade",official,16.319143,-61.048134,GP-000,,
-1203115,-1768269,hypsographic,"La Désirade","La Desirade",official,16.318383,-61.051937,GP-000,,
-1202792,-1767776,hydrographic,"Ravine aux Écrevisses","Ravine aux Ecrevisses",official,16.033333,-61.716667,GP-000,,
-1203600,-1768971,hydrographic,"Première Chute","Premiere Chute",variant,16.045697,-61.652456,GP-000,,
-1203458,-1768784,hypsographic,"Pointe Pasquereau","Pointe Pasquereau",official,16.278708,-61.611949,GP-000,,
-1202506,-1767378,settlement,Bonnet,Bonnet,official,15.923529,-61.28765,GP-000,,
-1203279,-1768532,settlement,Mahaudière,Mahaudiere,official,16.467444,-61.505212,GP-000,,
-1202594,-1767500,hydrographic,"Chutes du Carbet","Chutes du Carbet",variant,16.044048,-61.645306,GP-000,,
-1202932,18245259,settlement,"Grande Anse sur Morne","Grande Anse sur Morne",official,15.965107,-61.666053,GP-000,,
-1202972,-1768062,hydrographic,"Grand Îlet","Grand Ilet",official,16.180917,-61.575095,GP-000,,
-1202372,-1767202,hypsographic,"Morne l’Anse à l’Eau","Morne l'Anse a l'Eau",official,16.309256,-61.267898,GP-000,,
-1202407,-1767249,settlement,Ballet,Ballet,official,15.904642,-61.326443,GP-000,,
-1203360,-1768645,hydrographic,"Rivière Mitan","Riviere Mitan",official,16.319045,-61.78757,GP-000,,
-1202371,-1767272,hypsographic,"Pointe de la Barque","Pointe de la Barque",variant,16.451617,-61.406852,GP-000,,
-1202943,-1768020,hypsographic,"Grande Découverte","Grande Decouverte",official,16.059157,-61.671496,GP-000,,
-1202901,-1768279,hypsographic,"La Gourde","La Gourde",variant,16.258426,-61.205958,GP-000,,
-1203117,-1767876,hypsographic,Frégate,Fregate,variant,15.969952,-61.227097,GP-000,,
-1203414,18249325,settlement,Nérée,Neree,official,16.26465,-61.500464,GP-000,,
-1202631,-1767552,settlement,Châteaubrun,Chateaubrun,official,16.252363,-61.353589,GP-000,,
-1203566,-1768925,hypsographic,"Pointe à Plume","Pointe a Plume",official,16.254584,-61.18967,GP-000,,
-1202494,-1767363,settlement,Boismorin,Boismorin,official,16.4,-61.483333,GP-000,,
-1202458,-1767319,hypsographic,"Morne de la Belle Hôtesse","Morne de la Belle Hotesse",variant,16.258519,-61.767947,GP-000,,
-1202971,-1769175,hypsographic,"Saint John Island","Saint John Island",variant,15.836872,-61.590029,GP-000,,
-1202721,-1767675,hypsographic,"Morne Cybèle","Morne Cybele",official,16.32632,-61.037345,GP-000,,
-1202732,-1767694,hydrographic,"Acul à Desbonnes","Acul a Desbonnes",variant,16.485739,-61.433706,GP-000,,
-1202357,-1767182,hypsographic,"Pointe de l’Accul","Pointe de l'Accul",official,16.217128,-61.394752,GP-000,,
-1202667,-1767598,hydrographic,"Anse à Cointe","Anse a Cointe",official,15.860301,-61.600854,GP-000,,
-1202822,-1767820,hydrographic,"Ravine Figuie","Ravine Figuie",variant,16.262363,-61.805339,GP-000,,
-1202879,-1767924,hydrographic,"Ravine Gaschet","Ravine Gaschet",official,16.389395,-61.509946,GP-000,,
-1203431,-1768741,hydrographic,"Anse Noyer","Anse Noyer",variant,16.342614,-61.716595,GP-000,,
-1202995,-1768100,hypsographic,"Gros Cap","Gros Cap",official,16.35368,-61.764255,GP-000,,
-1203367,-1767753,hydrographic,"Anse Dumont","Anse Dumont",variant,16.201528,-61.456323,GP-000,,
-1203156,-1768337,hydrographic,"Rivière La Ramée","Riviere La Ramee",variant,16.336712,-61.712179,GP-000,,
-1203267,-1768511,hypsographic,"Îlet Macou","Ilet Macou",official,16.349619,-61.527307,GP-000,,
-1202604,-1767518,hypsographic,"Carmichael Knoll","Carmichael Knoll",variant,16.054769,-61.662618,GP-000,,
-1202699,-1767641,hydrographic,"Anse du Corps de Garde","Anse du Corps de Garde",official,16.333333,-61.716667,GP-000,,
-1203377,-1768666,hydrographic,"Rivière Moreau","Riviere Moreau",official,16.126259,-61.590891,GP-000,,
-1202686,-1767627,settlement,Conchou,Conchou,official,16.333333,-61.316667,GP-000,,
-1203010,-1768120,hypsographic,"Pointe du Gros Morne","Pointe du Gros Morne",official,16.312228,-61.802131,GP-000,,
-1202460,-1767321,settlement,Belle-Plaine,Belle-Plaine,official,16.289604,-61.521789,GP-000,,
-1202789,-1767773,hydrographic,"Anse d’Échelle","Anse d'Echelle",official,16.293024,-61.094644,GP-000,,
-1202359,-1768263,hypsographic,"L’Acomat Point","L'Acomat Point",variant,15.966707,-61.63411,GP-000,,
-1203510,-1768853,settlement,"Petites Mamelles","Petites Mamelles",official,16.05,-61.616667,GP-000,,
-1203247,-1768480,settlement,Littoral,Littoral,official,15.958835,-61.318368,GP-000,,
-1202364,-1767191,hypsographic,"Col aux Ananas","Col aux Ananas",official,16.083333,-61.683333,GP-000,,
-1203757,-1769208,hydrographic,"Ravine Salée","Ravine Salee",official,15.982568,-61.714817,GP-000,,
-1203029,-1768151,settlement,Guignès,Guignes,official,15.965369,-61.266333,GP-000,,
-1202983,-1768078,hypsographic,"Grand Souffler","Grand Souffler",official,15.86858,-61.572544,GP-000,,
-1202909,-1768079,hypsographic,"Grand Tabac","Grand Tabac",official,16.340616,-61.030385,GP-000,,
-1203002,-1768112,hypsographic,"Gros Morne","Gros Morne",official,16.318826,-61.283516,GP-000,,
-1202941,-1768288,hydrographic,"La Grande Coulée","La Grande Coulee",variant,16.333333,-61.633333,GP-000,,
-1203268,-1768513,hypsographic,"Pointe Macou","Pointe Macou",official,16.346223,-61.523205,GP-000,,
-1203199,-1768407,hypsographic,"Le Mouton Rock","Le Mouton Rock",variant,16.333333,-61,GP-000,,
-1203505,-1768847,hydrographic,"Petites Anses","Petites Anses",variant,15.850524,-61.648608,GP-000,,
-1203600,18241219,hydrographic,"Première Chute du Carbet","Premiere Chute du Carbet",official,16.045697,-61.652456,GP-000,,
-1202537,-1767421,settlement,Boyer,Boyer,official,15.983333,-61.65,GP-000,,
-1203175,-1768363,hypsographic,"Pointe à Launay","Pointe a Launay",official,15.946925,-61.696881,GP-000,,
-1203711,-1769135,hypsographic,"Pointe Sainte Margerite","Pointe Sainte Margerite",variant,16.379799,-61.403014,GP-000,,
-1202975,-1768069,hypsographic,"Grand Montagne","Grand Montagne",variant,16.313136,-61.060868,GP-000,,
-1203221,-1768441,settlement,"Les Mangles","Les Mangles",official,16.392534,-61.457542,GP-000,,
-1203576,-1768939,hydrographic,"Caye à Poirier","Caye a Poirier",official,15.924547,-61.195575,GP-000,,
-1203087,-1768227,hypsographic,"Pointe à Joubert","Pointe a Joubert",variant,16.110917,-61.774279,GP-000,,
-1202926,-1767993,hydrographic,"Grande Anse","Grande Anse",official,15.860296,-61.623237,GP-000,,
-1202997,-1768103,hypsographic,"Pointe du Gros Cap","Pointe du Gros Cap",official,15.896617,-61.214246,GP-000,,
-1202991,-1768094,hydrographic,"Anse du Gris-Gris","Anse du Gris-Gris",official,16.392994,-61.522805,GP-000,,
-1202900,-1767955,hydrographic,"Anse à la Gourde","Anse a la Gourde",official,16.259933,-61.214561,GP-000,,
-1203261,-1768502,settlement,L’Union,L'Union,official,16.254848,-61.518471,GP-000,,
-1203674,-1769087,settlement,Roussel,Roussel,official,16.22106,-61.648824,GP-000,,
-1203551,-1768907,hydrographic,"Anse à Pistolet","Anse a Pistolet",variant,16.501581,-61.461927,GP-000,,
-1203655,-1769057,hypsographic,"Morne Rodriguez","Morne Rodriguez",variant,15.856714,-61.578257,GP-000,,
-1202495,-1767364,settlement,Boisripeau,Boisripeau,variant,16.276611,-61.50568,GP-000,,
-1203492,-1768829,hydrographic,"Petite Anse","Petite Anse",official,15.867044,-61.583396,GP-000,,
-1203500,-1768840,hypsographic,"Petite Pointe","Petite Pointe",official,16.1,-61.783333,GP-000,,
-1203630,-1769024,settlement,Reizet-Sainte-Marie,Reizet-Sainte-Marie,official,16.287262,-61.653388,GP-000,,
-1202402,18228128,hydrographic,"Rivière Baille-Argent","Riviere Baille-Argent",official,16.259293,-61.806053,GP-000,,
-1202387,-1767205,hypsographic,"Pointe de l’Anse à Néau","Pointe de l'Anse a Neau",variant,16.364439,-61.394313,GP-000,,
-1203299,-1768565,hypsographic,"Îlet Mangue à Laurette","Ilet Mangue a Laurette",variant,16.322887,-61.63724,GP-000,,
-1202522,-1767399,hypsographic,"Morne Boudoute","Morne Boudoute",official,16.022291,-61.639408,GP-000,,
-1203638,-1769034,settlement,Richemont,Richemont,official,16.4,-61.466667,GP-000,,
-1203077,-1768215,hypsographic,"Pointe J’ai Fouillé","Pointe J'ai Fouille",official,16.331385,-61.535356,GP-000,,
-1203659,-1769066,hypsographic,"Plage de Roseau","Plage de Roseau",official,16.093387,-61.559002,GP-000,,
-1202750,-1768767,hydrographic,"Anse du Pain de Sucre","Anse du Pain de Sucre",variant,15.864248,-61.59755,GP-000,,
-1202632,18276685,settlement,"Château Gaillard","Chateau Gaillard",official,16.309516,-61.397338,GP-000,,
-1203585,-1768949,hydrographic,"Porte d’Enfer","Porte d'Enfer",official,16.489324,-61.441485,GP-000,,
-1202546,-1767435,settlement,Brouel,Brouel,official,16.083333,-61.766667,GP-000,,
-1202901,-1767958,hypsographic,"Gourde Islet","Gourde Islet",variant,16.258426,-61.205958,GP-000,,
-1202715,-1767666,hydrographic,"Anse Criquet","Anse Criquet",official,16.20107,-61.475447,GP-000,,
-1203258,-1768498,hypsographic,"Morne à Louis","Morne a Louis",official,16.185511,-61.749485,GP-000,,
-1202874,-1767918,hydrographic,"Banc Ganganne","Banc Ganganne",official,16.333333,-61.65,GP-000,,
-1202783,-1767765,settlement,Duzer,Duzer,official,16.343324,-61.736259,GP-000,,
-1202971,-1768065,hypsographic,"Grand Islet","Grand Islet",variant,15.836872,-61.590029,GP-000,,
-1202436,-1767290,hypsographic,"Caye Bateau","Caye Bateau",official,16.1,-61.566667,GP-000,,
-1203043,-1768170,hydrographic,"Passe Hastings","Passe Hastings",official,16.336576,-61.344796,GP-000,,
-1202743,-1767712,spot,"Aérodrome de la Désirade-Grande-Anse","Aerodrome de la Desirade-Grande-Anse",short,16.283333,-61.083333,GP-000,,
-1202787,-1768946,hypsographic,"Pointe du Portail","Pointe du Portail",variant,15.880937,-61.58134,GP-000,,
-1202814,-1767807,hydrographic,"Rivière Ferry","Riviere Ferry",official,16.280479,-61.802948,GP-000,,
-1203043,-1768171,hydrographic,"Hastings Pass","Hastings Pass",variant,16.336576,-61.344796,GP-000,,
-1203367,-1768655,hydrographic,"Anse du Mont","Anse du Mont",official,16.201528,-61.456323,GP-000,,
-1203634,-1769029,settlement,Renneville,Renneville,variant,16.288322,-61.311614,GP-000,,
-1202917,-1767980,settlement,"Grand’ Case","Grand' Case",official,16.216667,-61.783333,GP-000,,
-1202736,-1767705,settlement,Deshayes,Deshayes,variant,16.306722,-61.794348,GP-000,,
-1203292,-1768554,settlement,"Malgré Tout","Malgre Tout",variant,16.265859,-61.264449,GP-000,,
-1202369,-1767199,hypsographic,"Pointe de l’Anse à Chaux","Pointe de l'Anse a Chaux",official,15.883333,-61.6,GP-000,,
-1203177,-1768367,hypsographic,"La Vierge","La Vierge",official,15.840753,-61.616192,GP-000,,
-1202363,-1767190,hypsographic,"Allègre Point","Allegre Point",variant,16.361624,-61.743778,GP-000,,
-1203116,-1768270,hydrographic,"La Femme Folle","La Femme Folle",official,16.343693,-61.613667,GP-000,,
-1203297,-1768562,hypsographic,"Pointe Mancenillier","Pointe Mancenillier",official,16.339166,-61.004568,GP-000,,
-1203214,-1768431,settlement,"Les Galets","Les Galets",official,16.297601,-61.093356,GP-000,,
-1203141,-1768313,hypsographic,"Pointe à Lambis","Pointe a Lambis",variant,16.303711,-61.545068,GP-000,,
-1202815,-1767812,hypsographic,"Pointe à Feuille","Pointe a Feuille",official,16.3561,-61.499548,GP-000,,
-1203180,-1768380,hypsographic,"Le Chameau","Le Chameau",official,15.858076,-61.595349,GP-000,,
-1203242,-1768465,hypsographic,"Cap Lézard","Cap Lezard",variant,16.13966,-61.779825,GP-000,,
-1203083,-1768221,hydrographic,"Ravine Jeannot","Ravine Jeannot",official,15.87194,-61.283145,GP-000,,
-1202965,-1768053,hypsographic,"Morne Grande Voute","Morne Grande Voute",variant,15.970343,-61.70012,GP-000,,
-1203094,-1769439,hypsographic,"Whale Rock","Whale Rock",variant,15.877938,-61.58584,GP-000,,
-1202582,-1767485,hydrographic,"Anse Caraïbe","Anse Caraibe",official,16.213776,-61.783308,GP-000,,
-1202773,-1767752,hydrographic,"Rivière Dugommier","Riviere Dugommier",official,16.011804,-61.689005,GP-000,,
-1202765,-1767743,hydrographic,"Anse à Douville","Anse a Douville",official,16.143773,-61.57691,GP-000,,
-1203022,-1768300,administrative_region,"La Guadeloupe","La Guadeloupe",variant,16.25,-61.583333,GP-000,,
