wgdPlaceId,wgdId,type,name,fullName,nameType,latitude,longitude,administrationGroup,isHistorical,isCapital
-1725535,-2419400,settlement,Zio,Zio,official,11.916667,-1.7,BF-07,,
-1723008,-2416415,hydrographic,Sélé,Sele,official,11.633333,-1.45,BF-000,,
-1722149,-2415400,settlement,Pèm,Pem,official,14.310579,-0.858639,BF-12,,
-1719871,-2412675,settlement,Kouka,Kouka,official,11.1,-0.5,BF-04,,
-1718699,-2411267,settlement,Ibal,Ibal,official,13.568715,0.521682,BF-12,,
-1716993,-2409248,settlement,Da,Da,official,12.033333,-3.15,BF-01,,
100948,124323,settlement,Zaka,Zaka,official,12.219034,-1.39536,BF-03,,
102504,126188,settlement,Yipala,Yipala,official,12.362301,-1.404141,BF-03,,
10326985,10730013,hypsographic,Finta,Finta,official,14.934774,-0.4498,BF-12,,
-1717783,-2410201,settlement,Douré,Doure,official,12.9,-0.966667,BF-05,,
-1718661,-2411219,settlement,Haba,Haba,official,13.012994,0.779448,BF-08,,
-1719192,-2411873,hydrographic,Kéléworo,Keleworo,official,10,-3.95,BF-000,,
-1724442,-2418111,settlement,Toanta,Toanta,official,9.95,-2.95,BF-13,,
-1723478,-2416965,settlement,Soua,Soua,official,11.15,-3.7,BF-09,,
-1723711,-2417254,settlement,Tampoui,Tampoui,official,12.416667,-2.183333,BF-06,,
-1716320,-2408432,hydrographic,Biniko,Biniko,official,10.566667,-3.85,BF-02,,
-1720057,-2412891,settlement,Kourgano,Kourgano,official,10.766667,-3.2,BF-13,,
-1723110,-2416538,settlement,Sièlé,Siele,official,12.798355,-2.767983,BF-01,,
-1717497,-2409852,settlement,Dinalahi,Dinalahi,official,13.695534,-0.01123,BF-12,,
-1716372,-2408492,settlement,Bissiga,Bissiga,official,12.433333,-0.533333,BF-04,,
-1719381,-2412091,settlement,Kobssé,Kobsse,official,11.916667,-1.6,BF-07,,
-1716603,-2408764,settlement,Bori,Bori,official,11.3,-1.75,BF-06,,
-1723111,-2416539,settlement,Siélogué,Sielogue,official,11.65,-1.25,BF-07,,
-1723657,-2417195,spot,Tambao,Tambao,official,14.8,0.083333,BF-12,,
-1720521,-2413459,settlement,Lonnti,Lonnti,official,13.070307,-1.355534,BF-05,,
-1718283,-2410784,settlement,Godiyr,Godiyr,official,10.516667,-2.966667,BF-13,,
-1717981,-2410438,settlement,Finguila,Finguila,official,11.816667,-0.766667,BF-04,,
-1715662,-2407659,settlement,Badnogo,Badnogo,official,12.966667,-0.5,BF-05,,
-1720627,-2413592,settlement,Malbo,Malbo,official,13.901359,-0.178916,BF-12,,
-1718279,-2410780,settlement,Godin,Godin,official,11.583333,-1.033333,BF-07,,
-1725165,-2418968,settlement,Yaramou,Yaramou,official,10.266667,-5.016667,BF-02,,
-1717471,-2409823,settlement,Diguia,Diguia,official,13.877178,-2.538352,BF-10,,
-1722170,-2415425,settlement,Peno,Peno,official,11.566667,-1.466667,BF-06,,
-1715571,-2407550,settlement,Anékui,Anekui,official,11.816667,-3.683333,BF-01,,
-1718282,-2410783,settlement,Godin,Godin,official,11.966667,-1.283333,BF-07,,
-1718663,-2411221,settlement,Habri,Habri,official,10.866667,-3.05,BF-13,,
-1718415,-2410937,spot,Gossèy,Gossey,official,14.452204,0.144811,BF-12,,
-1721150,-2414201,settlement,Namassa,Namassa,official,11.816667,-1.566667,BF-07,,
-1717678,-2410078,settlement,Doolo,Doolo,official,12.533333,-2.583333,BF-06,,
-1722477,-2415783,hydrographic,Pouza,Pouza,official,11.816667,-3.6,BF-000,,
-1717499,-2409854,settlement,Dinaoro,Dinaoro,official,10.733333,-5.233333,BF-02,,
-1719738,-2412519,settlement,Kosoro,Kosoro,official,14.024577,-2.358168,BF-10,,
-1716347,-2408462,settlement,Birkinao,Birkinao,official,10.65,-3.3,BF-13,,
-1721242,-2414307,settlement,Napin,Napin,variant,12.866667,-2.266667,BF-10,,
-1722966,10533816,settlement,Say,Say,official,13.302797,-2.241339,BF-10,,
-1718284,-2410785,settlement,Godo,Godo,official,12.016667,-2.566667,BF-06,,
-1719145,-2411810,settlement,Kataga,Kataga,official,11.666667,-1.266667,BF-07,,
-1717682,-2410082,settlement,Dora,Dora,official,11.666667,-3.466667,BF-09,,
-1717980,-2410437,settlement,Finfinra,Finfinra,official,12.6,-0.916667,BF-05,,
-1721430,-2414535,settlement,Niaradou,Niaradou,official,13.280032,-0.151165,BF-08,,
-1719989,-2412811,spot,Koumègo,Koumego,official,14.352321,0.047965,BF-12,,
-1717587,-2409965,settlement,Diyara,Diyara,official,12.233333,0.433333,BF-08,,
-1724529,-2418215,settlement,Tonéi,Tonei,official,12.433333,-3,BF-01,,
-1720556,-2413500,hydrographic,Lougou,Lougou,official,10.716667,-5.383333,BF-02,,
-1718277,-2410778,hydrographic,Godi,Godi,official,11.283333,-1,BF-07,,
-1722086,-2415326,settlement,Papala,Papala,official,12.05819,1.929499,BF-08,,
-1716842,-2409046,settlement,Boun,Boun,official,12.483333,-2.8,BF-01,,
-1722724,-2416071,settlement,Sala,Sala,official,11.360451,-4.102745,BF-09,,
-1723983,-2417561,settlement,Taon,Taon,official,12.802833,-1.913051,BF-11,,
-1721836,-2415037,settlement,Ouidi,Ouidi,official,12.081566,-1.581797,BF-07,,
-1722787,-2416153,settlement,Samou,Samou,official,13.030437,0.166243,BF-08,,
-1720782,-2413779,settlement,Mèntaô,Mentao,official,13.954053,-1.674079,BF-12,,
-1718829,-2411436,settlement,Kabo,Kabo,official,12.816667,-2.25,BF-10,,
-1718884,-2411500,hydrographic,Kalaté,Kalate,official,11.916667,-1.766667,BF-000,,
-1720626,-2413591,settlement,Malba,Malba,official,10.466667,-2.983333,BF-13,,
-1719146,-2411811,settlement,Katana,Katana,official,11.831889,-5.160232,BF-09,,
-1718828,-2411435,settlement,Kabinou,Kabinou,official,12.183333,-2.283333,BF-06,,
-1720371,-2413284,spot,Lélétan,Leletan,official,14.880919,0.222679,BF-12,,
-1722244,-2415516,settlement,Piédogo,Piedogo,official,11.95,-1.4,BF-07,,
-1723685,-2417226,settlement,Tamidou,Tamidou,official,12.216667,-0.6,BF-11,,
-1717443,-2409787,settlement,Diémi,Diemi,official,9.916667,-3.016667,BF-13,,
-1723684,-2417225,settlement,Tamidou,Tamidou,official,12.083333,-0.416667,BF-000,,
-1716844,-2409048,settlement,Bouna,Bouna,official,12.65,-3.133333,BF-01,,
-1716371,-2408491,settlement,Bissiga,Bissiga,official,12.283333,-0.783333,BF-11,,
-1724660,-2418358,hydrographic,Toumpo,Toumpo,official,9.933333,-3.2,BF-000,,
-1720580,-2413527,settlement,Loungo,Loungo,official,12.866667,-2.433333,BF-10,,
-1723686,-2417227,settlement,Tamiga,Tamiga,official,12.92108,-1.886196,BF-10,,
-1722188,-2415454,settlement,Périvé,Perive,official,12.1921,-4.5286,BF-01,,
-1725410,-2419255,settlement,Zanré,Zanre,official,12.066667,-0.05,BF-08,,
-1719235,-2411921,settlement,Kiébo,Kiebo,official,12.133333,-2.55,BF-06,,
-1719616,-2412379,hydrographic,Kongo,Kongo,official,10.183333,-4.6,BF-02,,
-1717806,-2410229,settlement,Doyama,Doyama,official,12.65,-0.066667,BF-08,,
-1716469,-2408601,hydrographic,Boin,Boin,official,12.4,-3.05,BF-000,,
-1719478,-2412209,settlement,Koléga,Kolega,official,13.548884,-0.937265,BF-05,,
-1721510,-2414639,settlement,Niongou,Niongou,official,11.75,-1.2,BF-07,,
-1719739,-2412520,settlement,Kossala,Kossala,official,11.95,-1.266667,BF-07,,
-1716465,-2408597,settlement,Bohui,Bohui,official,13.00749,-3.960814,BF-01,,
-1722323,-2415603,settlement,Pô,Po,official,12.3,-2.616667,BF-06,,
-1718285,-2410786,settlement,Godo,Godo,official,12.616149,-1.986037,BF-06,,
-1725545,-2419410,settlement,Zoaga,Zoaga,official,11.038056,-0.590278,BF-04,,
-1716369,-2408489,settlement,Bissiga,Bissiga,official,12.039005,-1.468974,BF-07,,
-1725298,-2419119,settlement,Yoména,Yomena,official,9.966667,-3.15,BF-13,,
-1716972,-2409215,settlement,Bwoni,Bwoni,official,13.753037,0.107841,BF-12,,
-1720661,-2413635,settlement,Mandesso,Mandesso,official,10.9,-3.85,BF-09,,
-1720552,-2413496,hypsographic,Louga,Louga,official,14.312142,-1.22028,BF-12,,
-1718885,-2411501,settlement,Kaldéra,Kaldera,official,10.266667,-3.3,BF-13,,
-1718831,-2411438,settlement,Kabolé,Kabole,official,11.933333,-2.616667,BF-06,,
-1718833,-2411440,settlement,Kabora,Kabora,official,10.4,-5.15,BF-02,,
-1721483,-2414611,settlement,Ningaré,Ningare,official,11.683333,-0.35,BF-04,,
-1716370,-2408490,settlement,Bissiga,Bissiga,official,12.069861,-1.299788,BF-07,,
-1720374,-2413287,hydrographic,Léli,Leli,official,13.974466,-0.343706,BF-12,,
-1720579,-2413526,spot,Loungo,Loungo,official,13.228478,-1.475696,BF-05,,
-1724528,-2418212,settlement,Toné,Tone,official,11.37483,-2.782679,BF-01,,
-1722478,-2415784,settlement,Povéra,Povera,official,10.2,-3.233333,BF-13,,
-1721511,-2414640,settlement,Niongou,Niongou,official,11.883333,-1.2,BF-07,,
-1722062,-2415297,settlement,Panien,Panien,official,13.106016,-2.730543,BF-01,,
-1719873,-2412677,settlement,Kouka,Kouka,official,13.434498,-1.613609,BF-05,,
-1725543,-2419408,settlement,Zizi,Zizi,official,12.966667,-2.933333,BF-01,,
-1716969,-2409212,settlement,Bwolonga,Bwolonga,official,13.673798,0.062076,BF-12,,
-1723757,-2417309,settlement,Tanebya,Tanebya,official,12.716667,0.216667,BF-08,,
-1721838,-2415039,settlement,Ouidi,Ouidi,official,12.25,-0.45,BF-04,,
-1716605,-2408766,settlement,Borilli,Borilli,official,10.266667,-2.916667,BF-13,,
-1722242,-2415511,settlement,Piboré,Pibore,official,11.7,-1.316667,BF-07,,
-1720630,-2413595,settlement,Malléré,Mallere,official,13.963609,-0.082508,BF-12,,
-1725013,-2418783,settlement,Widi,Widi,official,11.75,-1.233333,BF-07,,
-1725387,-2419227,settlement,Zan,Zan,official,11.15,-0.3,BF-04,,
-1720066,-2412901,settlement,Kouri,Kouri,official,13.896893,-0.14233,BF-12,,
-1720058,-2412892,settlement,Kourgou,Kourgou,official,12.261404,0.368641,BF-08,,
-1715806,-2407826,settlement,Bamena,Bamena,official,9.816667,-2.95,BF-13,,
-1718660,-2411218,settlement,Haba,Haba,official,12.916667,0.733333,BF-08,,
-1715732,-2407743,hydrographic,Bako,Bako,official,10.3,-4.3,BF-02,,
-1724030,-2417618,spot,Tassiri,Tassiri,official,14.34469,0.013244,BF-12,,
-1718983,-2411612,settlement,Kandé,Kande,official,13.074247,-1.088678,BF-05,,
-1721839,-2415040,settlement,Ouidi,Ouidi,official,12.290132,-0.876096,BF-11,,
-1720375,-2413289,settlement,Lelkom,Lelkom,official,12.2,-0.683333,BF-11,,
-1718637,-2411189,settlement,Guira,Guira,official,13.251695,0.694279,BF-12,,
-1723524,-2416872,settlement,Somi,Somi,variant,10.683333,-2.95,BF-13,,
-1723388,-2416862,settlement,Somassi,Somassi,official,12.445179,-1.963144,BF-11,,
-1716553,-2408700,settlement,Bondoura,Bondoura,official,10.283333,-3.55,BF-13,,
-1725297,-2419118,spot,Yomboli,Yomboli,official,14.646506,-0.30264,BF-12,,
-1720554,-2413498,settlement,Louga,Louga,official,13.860599,-1.210453,BF-12,,
-1721835,-2415036,settlement,Ouidi,Ouidi,official,12.087393,-1.381701,BF-07,,
-1717782,-2410200,settlement,Douré,Doure,official,12.883333,-2.15,BF-10,,
-1719988,-2412810,spot,Koumé,Koume,official,14.491115,-0.202317,BF-12,,
-1716604,-2408765,settlement,Boriho,Boriho,official,10.233333,-3.266667,BF-13,,
-1722704,-2416048,settlement,Sakabi,Sakabi,official,11.213761,-4.283979,BF-09,,
-1718490,-2411022,settlement,Goumi,Goumi,official,12.516667,-2.65,BF-06,,
-1720059,-2412893,settlement,Kourgou,Kourgou,official,12.333333,-0.766667,BF-11,,
-1719587,-2412345,hydrographic,Konbiaga,Konbiaga,official,10.466667,-5.3,BF-02,,
-1716970,-2409213,settlement,Bwomtani,Bwomtani,official,13.261017,0.036017,BF-08,,
-1724118,-2417722,settlement,Téoulé,Teoule,official,11.73773,-4.788903,BF-09,,
-1719479,-2412210,settlement,Koléka,Koleka,official,10.916667,-3.033333,BF-13,,
-1724142,-2417751,settlement,Thièo,Thieo,official,12.866667,-2.3,BF-10,,
-1722745,-2416097,settlement,Sam,Sam,official,13.416424,-1.673527,BF-05,,
-1723687,-2417228,settlement,Tamiga,Tamiga,official,12.925982,-1.140977,BF-05,,
-1724143,9177423,settlement,Tion,Tion,variant,13.064752,-0.314955,BF-08,,
-1716971,-2409214,settlement,Bwon,Bwon,official,11.516667,-1.666667,BF-06,,
-1719407,-2412122,settlement,Kodro,Kodro,official,13.195922,-0.880372,BF-05,,
-1717369,-2409789,settlement,Dien,Dien,variant,11.167878,-4.879862,BF-09,,
-1719123,-2411777,settlement,Kasari,Kasari,official,14.038743,-0.117434,BF-12,,
-1717679,-2410079,settlement,Dopala,Dopala,official,10.433333,-3.816667,BF-02,,
-1720409,-2413328,settlement,Lérou,Lerou,official,11.6,-2.3,BF-06,,
-1725449,-2419302,settlement,Zéka,Zeka,official,13.082119,-1.305,BF-05,,
-1723108,-2416536,settlement,Siègdé,Siegde,official,13.033999,-2.053336,BF-10,,
-1725151,-2418951,settlement,Yantara,Yantara,official,13.429448,0.650424,BF-12,,
-1725364,-2419200,settlement,Zam,Zam,official,12.339591,-0.831893,BF-11,,
-1715731,-2407742,settlement,Bako,Bako,official,12.764977,-1.684748,BF-11,,
-1718636,-2411188,settlement,Guipo,Guipo,official,12.152548,-1.621897,BF-03,,
-1723808,-2417368,settlement,Tangoko,Tangoko,official,13.207152,-1.219143,BF-05,,
-1720300,-2413203,hypsographic,Laonio,Laonio,official,14.175394,0.074065,BF-12,,
-1716473,-2408605,settlement,Boken,Boken,official,12.283333,-0.65,BF-11,,
-1720065,-2412900,settlement,Kouri,Kouri,official,13.561363,-2.480484,BF-10,,
-1720553,-2413497,settlement,Louga,Louga,official,12.85,-2.316667,BF-10,,
-1719990,-2412812,settlement,Kouména,Koumena,official,13.6139,-1.995194,BF-10,,
-1722786,-2416152,settlement,Samou,Samou,official,13,0.133333,BF-08,,
-1724581,-2418271,settlement,Tosogo,Tosogo,official,13.02653,-0.137609,BF-08,,
-1720473,-2413403,settlement,Loada,Loada,official,13.729303,-1.286634,BF-05,,
-1719405,-2412118,hydrographic,Kodouni,Kodouni,official,10.1,-4.483333,BF-02,,
-1722705,-2416049,settlement,Sakala,Sakala,official,10.066667,-3.533333,BF-13,,
-1717681,-2410081,settlement,Dopané,Dopane,official,13.775275,-0.761764,BF-05,,
-1723479,-2416966,settlement,Soualmou,Soualmou,official,12.633333,0.4,BF-08,,
-1725059,-2418842,settlement,Wouskongo,Wouskongo,official,12.3,-0.95,BF-11,,
-1720629,-2413594,settlement,Malioma,Malioma,official,13.212005,-0.242554,BF-08,,
-1720370,-2413283,settlement,Lèlèrama,Lelerama,official,12.15,-0.3,BF-04,,
-1719740,-2412521,settlement,Kossami,Kossami,official,9.983333,-3.333333,BF-13,,
-1721507,-2414636,settlement,Nion,Nion,official,12.7,-2.933333,BF-01,,
-1720472,-2413402,settlement,Loaba,Loaba,official,11.233333,-0.433333,BF-04,,
-1716468,-2408600,settlement,Boin,Boin,official,12.4789,-4.3947,BF-01,,
-1725546,-2419411,settlement,Zoamba,Zoamba,official,12.766667,-0.833333,BF-05,,
-1723285,-2416742,settlement,Sirkoun,Sirkoun,official,10.233333,-2.95,BF-13,,
-1724080,-2417675,settlement,Temnoré,Temnore,official,12.366667,-0.533333,BF-11,,
-1725408,-2419252,settlement,Zano,Zano,official,13.343544,-1.698301,BF-05,,
-1718887,-2411503,settlement,Kalé,Kale,official,12.883333,-3.533333,BF-01,,
-1721152,-2414203,settlement,Namassa,Namassa,official,12.083333,-2.266667,BF-06,,
-1724582,-2418272,settlement,Toson,Toson,official,12.9,-2.933333,BF-01,,
-1716418,-2408543,settlement,Boau,Boau,official,11.15,-0.6,BF-04,,
-1720471,-2413401,settlement,Loa,Loa,official,13.395291,-1.499709,BF-05,,
-1719010,-2411642,settlement,Kankali,Kankali,official,12.75,-0.85,BF-05,,
-1720555,-2413499,hydrographic,Lougbo,Lougbo,official,11.258342,-5.036089,BF-09,,
-1725363,-2419199,settlement,Zalo,Zalo,official,11.966667,-1.9,BF-07,,
-1725544,-2419409,settlement,Zizon,Zizon,official,12.8,-2.266667,BF-10,,
-1721997,-2415222,settlement,Outaga,Outaga,official,11.366667,-0.516667,BF-04,,
-1715730,-2407741,settlement,Bako,Bako,official,12.756279,-1.868631,BF-11,,
-1716841,-2409045,settlement,Boumwana,Boumwana,official,12.1,0.783333,BF-08,,
-1716845,-2409049,settlement,Bouna,Bouna,official,13.251,-3.3969,BF-01,,
-1719713,-2412490,settlement,Korogo,Korogo,official,10.266667,-3.033333,BF-13,,
-1725409,-2419253,settlement,Zano,Zano,official,13.67062,-2.313581,BF-10,,
-1718280,-2410781,settlement,Godin,Godin,official,11.816667,-1.166667,BF-07,,
-1716467,-2408599,settlement,Boillé,Boille,official,11.983333,-0.066667,BF-08,,
-1719924,-2412736,settlement,Koulli,Koulli,official,13.002422,-1.59656,BF-10,,
-1721841,-2415042,settlement,Ouidi,Ouidi,official,12.416667,-0.45,BF-04,,
-1723326,-2416789,settlement,Sobono,Sobono,variant,13.79472689,-2.32454757,BF-10,,
-1724440,-2418109,settlement,Toanga,Toanga,official,11.85,-1.5,BF-07,,
-1723658,-2417196,settlement,Tambaogo,Tambaogo,official,12.483333,-0.4,BF-04,,
-1723829,-2417392,settlement,Tangué,Tangue,official,12.9,-2.566667,BF-10,,
-1720470,-2413400,settlement,Lo,Lo,official,13.1107,-3.4041,BF-01,,
-1718638,-2411190,settlement,Guirga,Guirga,official,12.116667,-0.733333,BF-11,,
-1715727,-2407738,settlement,Bakina,Bakina,official,10.616667,-3.416667,BF-13,,
-1724631,-2418327,settlement,Touko,Touko,official,13.115903,-2.085076,BF-10,,
-1721432,-2414537,settlement,Niarba,Niarba,official,11.75,-0.833333,BF-04,,
-1721840,-2415041,settlement,Ouidi,Ouidi,official,12.333333,-0.733333,BF-11,,
-1718830,-2411437,settlement,Kabo,Kabo,official,13.365325,0.467373,BF-12,,
-1721388,-2414479,settlement,Niagma,Niagma,official,10.716667,-2.983333,BF-13,,
-1724443,-2418113,settlement,Toba,Toba,official,12.766667,-2.766667,BF-01,,
-1716472,-2408604,settlement,Boken,Boken,official,12.016667,-0.166667,BF-04,,
-1718834,-2411441,settlement,Kaboré,Kabore,official,14.03158,-1.754495,BF-12,,
-1720372,-2413285,hypsographic,Lélétan,Leletan,official,14.9324,0.2295,BF-12,,
-1722318,-2415598,settlement,Pitou,Pitou,official,11.283333,-0.5,BF-04,,
-1718710,-2411280,settlement,Ibouréni,Iboureni,official,12.183333,0.433333,BF-08,,
-1725015,-2418785,hydrographic,Widou,Widou,official,12.433333,-2.116667,BF-000,,
-1722321,-2415601,hydrographic,Plansé,Planse,official,11.833333,-2.9,BF-000,,
-1725192,-2418996,settlement,Yarkaré,Yarkare,official,12.2,-0.133333,BF-04,,
-1721508,-2414637,settlement,Nion,Nion,official,12.816667,-3.416667,BF-01,,
-1720062,-2412896,settlement,Kouri,Kouri,official,12.047825,-1.522104,BF-07,,
-1723153,-2416585,settlement,Siguiri,Siguiri,official,12.35,-0.25,BF-04,,
-1722319,-2415599,settlement,Piyou,Piyou,official,13.228138,-0.063366,BF-08,,
-1716470,-2408602,settlement,Boka,Boka,official,10.316667,-2.866667,BF-13,,
-1719564,-2412314,settlement,Komona,Komona,official,13.284207,-0.314774,BF-08,,
-1717496,-2409851,settlement,"Dina Lahi","Dina Lahi",official,13.633474,0.40925,BF-12,,
-1721837,-2415038,settlement,Ouidi,Ouidi,official,12.219848,-1.471853,BF-03,,
-1721833,-2415034,settlement,Ouidi,Ouidi,official,12.037518,-1.219291,BF-07,,
-1716951,-2409173,settlement,Bozo,Bozo,official,11.033333,-2.666667,BF-06,,
-1718711,-2411283,settlement,Idiou,Idiou,official,11.6,-1.75,BF-06,,
-1716392,-2408514,settlement,Biyou,Biyou,official,13.433236,-1.180855,BF-05,,
-1716968,-2409211,settlement,Bwo,Bwo,official,12.15,-2.766667,BF-06,,
-1725193,-2418997,settlement,Yaro,Yaro,official,11.25,-1.2,BF-07,,
-1722243,-2415513,hypsographic,Pidoha,Pidoha,official,11.033333,-1.166667,BF-07,,
-1720063,-2412897,settlement,Kouri,Kouri,official,12.65,-0.066667,BF-08,,
-1720252,-2413139,settlement,Lalé,Lale,official,12.758436,-1.363647,BF-11,,
-1717419,-2409756,settlement,Didié,Didie,official,11.583333,-3.383333,BF-09,,
-1724661,-2418203,settlement,Ton,Ton,variant,11.9,-3.65,BF-01,,
-1716844,-2408723,settlement,Bonna,Bonna,variant,12.65,-3.133333,BF-01,,
-1717369,-2409698,settlement,Dian,Dian,official,11.167878,-4.879862,BF-09,,
-1720780,-2413777,settlement,Menné,Menne,official,11.3,0.116667,BF-04,,
-1723605,-2417136,spot,Tadio,Tadio,official,14.085223,-0.478594,BF-12,,
-1721193,-2414249,settlement,Nandoli,Nandoli,official,10.483333,-2.916667,BF-13,,
-1718984,-2411613,settlement,Kandéni,Kandeni,official,11.7,-3.7,BF-09,,
-1722131,-2415380,settlement,Pèla,Pela,official,13.349512,-2.292488,BF-10,,
-1725016,-2418786,settlement,Wiho,Wiho,official,10.283333,-2.95,BF-13,,
-1717370,-2409699,settlement,Dian,Dian,official,13.11,-3.2843,BF-01,,
-1719565,-2412316,settlement,Komondi,Komondi,official,12.626742,2.053198,BF-08,,
-1716952,-2409174,settlement,Brama,Brama,official,11.4237,-5.1977,BF-09,,
-1722129,-2415377,settlement,Pékwèndi,Pekwendi,official,12.45,0.75,BF-08,,
-1717498,-2409853,settlement,Dinalay,Dinalay,official,13.049576,0.556919,BF-12,,
-1723325,-2416788,settlement,Sobon,Sobon,official,12.65,-3.933333,BF-01,,
-1720578,-2413525,settlement,Lounga,Lounga,official,12.466667,-2.35,BF-06,,
-1717632,-2410024,settlement,Dolo,Dolo,official,10.892176,-3.348983,BF-13,,
-1720969,-2414002,settlement,Nabadogo,Nabadogo,official,12.716667,-0.966667,BF-05,,
-1717442,-2409786,spot,Diem,Diem,official,14.23294,-2.295499,BF-10,,
-1720628,-2413593,settlement,Malémi,Malemi,official,12.75,0.083333,BF-08,,
-1717517,-2409876,settlement,Dio,Dio,official,12.333333,-3.866667,BF-01,,
-1717077,-2409347,settlement,Dala,Dala,official,14.26741,-0.94153,BF-12,,
-1720780,-2413634,settlement,Mandé,Mande,variant,11.3,0.116667,BF-04,,
-1725411,-2419256,settlement,Zanren,Zanren,official,12.05,-0.283333,BF-04,,
-1716319,-2408431,settlement,Bini,Bini,official,13.75831,-1.194849,BF-12,,
-1720131,-2412976,settlement,Kouy,Kouy,variant,13.1883,-3.1612,BF-01,,
-1718278,-2410779,spot,Godié,Godie,official,14.446536,0.064062,BF-12,,
-1720060,-2412894,settlement,Kourgou,Kourgou,official,12.366009,0.680044,BF-08,,
-1721482,-2414610,settlement,Ninengo,Ninengo,official,11.916667,-0.25,BF-04,,
-1718287,-2410788,settlement,Godou,Godou,official,12.75,-2.133333,BF-10,,
-1721270,-2414335,settlement,Nasoulou,Nasoulou,official,13.213623,0.218025,BF-08,,
-1718832,-2411439,hydrographic,Kabolo,Kabolo,official,9.983333,-4.966667,BF-000,,
-1716769,-2408960,settlement,Bouli,Bouli,official,12.628251,-1.407796,BF-11,,
-1722746,-2416098,settlement,Sam,Sam,official,13.649708,-1.397379,BF-05,,
-1715728,-2407739,settlement,Baklouté,Bakloute,official,13.164098,-0.406877,BF-05,,
-1724366,-2418013,settlement,Tio,Tio,official,12.472701,-1.842859,BF-06,,
-1718560,-2411099,settlement,Gousi,Gousi,official,12.65,-2.8,BF-01,,
-1717832,-2410262,settlement,Dyanga,Dyanga,official,12.35,0.033333,BF-08,,
-1718281,-2410782,settlement,Godin,Godin,official,11.933333,-1.466667,BF-07,,
-1720783,-2413780,hypsographic,Méodyé,Meodye,official,13.638289,-0.19412,BF-12,,
-1722744,-2416096,settlement,Sam,Sam,official,12.080853,-2.004151,BF-06,,
-1723112,-2416540,settlement,Sien,Sien,official,10.966667,-4.733333,BF-09,,
-1716770,-2408961,settlement,Bouli,Bouli,official,12.772726,-1.092833,BF-05,,
-1724580,-2418270,settlement,Torouodo,Torouodo,official,12.566667,-0.216667,BF-08,,
-1715570,-2407549,settlement,Andeulay,Andeulay,official,13.079236,0.648163,BF-12,,
-1720659,-2413631,settlement,Manboua,Manboua,official,12.716667,-0.066667,BF-08,,
-1720781,-2413778,settlement,Méno,Meno,official,11.266667,-2.466667,BF-06,,
-1722479,-2415785,settlement,Poya,Poya,official,11.066667,-3.8,BF-09,,
-1720873,-2413886,settlement,Monga,Monga,official,13.722389,0.017585,BF-12,,
-1723606,-2417137,settlement,Tadotéo,Tadoteo,official,9.8,-2.8,BF-13,,
-1716373,-2408493,settlement,Bissiga,Bissiga,official,12.616667,-0.933333,BF-05,,
-1722130,-2415378,settlement,Pèkwènti,Pekwenti,official,12.233333,0.4,BF-08,,
-1722480,-2415786,settlement,Poyésé,Poyese,official,12.683333,-0.933333,BF-05,,
-1721863,-2415068,settlement,Oula,Oula,official,13.584449,-0.149223,BF-12,,
-1722703,-2416047,settlement,Saïrou,Sairou,official,11.783333,-3.2,BF-01,,
-1715729,-2407740,settlement,Bako,Bako,official,12.283333,-0.716667,BF-11,,
-1716845,-2409081,settlement,Boura,Boura,variant,13.251,-3.3969,BF-01,,
-1716368,-2408488,settlement,Bissiga,Bissiga,official,11.830039,-0.025799,BF-04,,
-1719588,-2412346,hydrographic,Konbié,Konbie,official,9.75,-2.85,BF-000,,
-1725407,-2419251,settlement,Zanna,Zanna,official,13.488581,-2.175416,BF-10,,
-1722320,-2415600,hydrographic,Plandi,Plandi,official,11.310854,-4.821107,BF-09,,
-1721509,-2414638,hydrographic,Nionba,Nionba,official,10.166667,-3.1,BF-13,,
-1718659,-2411217,settlement,Haba,Haba,official,11.4,-2.866667,BF-09,,
-1721507,-2414832,settlement,Nyon,Nyon,variant,12.7,-2.933333,BF-01,,
-1725472,-2419329,settlement,Zèsa,Zesa,official,12.716667,-2.45,BF-10,,
-1720660,-2413632,settlement,Mandala,Mandala,official,13.0711,-4.1718,BF-01,,
-1717078,-2409348,hydrographic,Dala,Dala,official,10.85,-4.116667,BF-09,,
-1721243,-2414303,settlement,Napango,Napango,official,13.634851,-2.678968,BF-10,,
-1720061,-2412895,settlement,Kouri,Kouri,official,11.233333,-2.233333,BF-06,,
-1722087,-2415327,hydrographic,Papoyna,Papoyna,official,12.75,0.216667,BF-08,,
-1725448,-2419301,settlement,Zéhui,Zehui,official,12.9067,-4.159,BF-01,,
-1719380,-2412090,settlement,Kobrou,Kobrou,official,10.083333,-4.4,BF-02,,
-1716680,-2408855,settlement,Boudaogo,Boudaogo,official,13.355842,-0.061376,BF-08,,
-1717009,-2409265,settlement,Dabolé,Dabole,official,11.15,-3.2,BF-13,,
-1716321,-2408433,settlement,Binjo,Binjo,official,10.466667,-3.033333,BF-13,,
-1717586,-2409964,settlement,Diyalé,Diyale,official,12.266667,0.466667,BF-08,,
-1725362,-2419198,settlement,Zalagadé,Zalagade,official,11.816667,-1.2,BF-07,,
-1719741,-2412522,settlement,Kossara,Kossara,official,10.6,-4.766667,BF-02,,
-1719406,-2412120,settlement,Kodouro,Kodouro,official,10.333333,-3.116667,BF-13,,
-1722241,-2415510,settlement,Piben,Piben,official,12.416667,-2.066667,BF-06,,
-1721151,-2414202,settlement,Namassa,Namassa,official,11.866667,-1.383333,BF-07,,
-1725412,-2419257,settlement,Zanvi,Zanvi,official,12.959634,-1.145865,BF-05,,
-1724578,-2418268,settlement,Torosso,Torosso,official,11.147093,-4.577601,BF-09,,
-1717932,-2410379,settlement,Fatoma,Fatoma,official,10.45,-5.433333,BF-02,,
-1725621,-2419492,settlement,Zyonguen,Zyonguen,official,12.366667,-0.45,BF-04,,
-1721431,-2414536,settlement,Niarafo,Niarafo,official,10.85,-4.416667,BF-09,,
-1721861,-2415066,settlement,Oula,Oula,official,12.366667,-3.133333,BF-01,,
-1722674,-2416014,settlement,Sadon,Sadon,official,11.283333,-2.55,BF-06,,
-1716971,-2408823,settlement,Bou,Bou,variant,11.516667,-1.666667,BF-06,,
-1723109,-2416537,settlement,Siékoro,Siekoro,official,13.3095,-3.9003,BF-01,,
-1718886,-2411502,settlement,Kalé,Kale,official,12.55,-4.383333,BF-01,,
-1720970,-2414003,settlement,Nabadogo,Nabadogo,official,13.050777,-0.890615,BF-05,,
-1725571,-2419436,settlement,Zonkin,Zonkin,official,12.986386,-0.9914,BF-05,,
-1724609,-2418302,settlement,Tougou,Tougou,official,12.566667,-2.45,BF-06,,
-1716606,-2408767,spot,Borio,Borio,official,14.063768,-2.556942,BF-10,,
-1716843,-2409047,settlement,Bouna,Bouna,official,12.016667,-3.25,BF-01,,
-1724441,-2418110,settlement,Toanga,Toanga,official,12.0071,-1.240803,BF-07,,
-1722481,-2415787,settlement,Pra,Pra,official,11.316667,-1.683333,BF-06,,
-1717680,-2410080,settlement,Dopané,Dopane,official,12.233333,-0.85,BF-11,,
-1716318,-2408430,settlement,Bini,Bini,official,10.55,-3.733333,BF-02,,
-1717420,-2409757,settlement,Didièl,Didiel,official,14.115286,-2.327689,BF-10,,
-1720155,-2413002,settlement,Kpé,Kpe,official,11.116667,-2.916667,BF-13,,
-1718662,-2411220,settlement,Habé,Habe,official,11.866667,-3.133333,BF-01,,
-1721153,-2414204,settlement,Namassa,Namassa,official,12.216667,-0.533333,BF-11,,
-1716771,-2408962,settlement,Bouli,Bouli,official,13.654412,-2.721888,BF-10,,
-1725494,-2419355,settlement,Zigo,Zigo,official,12.392466,-1.786932,BF-11,,
-1715807,-2407827,settlement,Baména,Bamena,official,10.466667,-3.316667,BF-13,,
-1717518,-2409877,settlement,Dio,Dio,official,13.325425,-2.636942,BF-01,,
-1721834,-2415035,settlement,Ouidi,Ouidi,official,12.067369,-1.60478,BF-07,,
-1719589,-2412347,settlement,Konbili,Konbili,official,10.75,-5.05,BF-02,,
-1722785,-2416151,settlement,Samou,Samou,official,11.166667,-2.533333,BF-06,,
-1718288,-2410789,settlement,Godyiri,Godyiri,official,12.6,-2.8,BF-01,,
-1723431,-2416914,settlement,Sono,Sono,official,12.825767,-3.493202,BF-01,,
-1716700,-2408879,settlement,Bougo,Bougo,variant,13.24135,-1.866278,BF-10,,
-1721194,-2414250,settlement,Nandou,Nandou,official,12.475143,1.562328,BF-08,,
-1722747,-2416099,settlement,Sama,Sama,official,11.774049,-4.324982,BF-01,,
-1721864,-2415069,hydrographic,Oulala,Oulala,official,11.3,-3.933333,BF-000,,
-1722606,-2415935,settlement,Rousen,Rousen,official,12.1,-2.133333,BF-06,,
-1724365,-2418012,settlement,Tio,Tio,official,12.2,-2.65,BF-06,,
-1720469,-2413398,settlement,Liyala,Liyala,official,12.083333,-0.266667,BF-04,,
-1724579,-2418269,settlement,Toroué,Toroue,official,13.768004,-2.371925,BF-10,,
-1724530,-2418216,settlement,Tonga,Tonga,official,10.583333,-4.05,BF-02,,
-1723710,-2417253,settlement,Tampoui,Tampoui,official,11.716667,-1.283333,BF-07,,
-1718689,-2411252,settlement,Hoko,Hoko,official,10.583333,-2.983333,BF-13,,
-1723984,-2417563,settlement,Taonsoga,Taonsoga,official,12.233333,-0.633333,BF-11,,
-1721727,-2414901,settlement,Ouagadi,Ouagadi,official,13.26958,-0.335129,BF-08,,
-1725014,-2418784,settlement,Widi,Widi,official,11.933333,-1.583333,BF-07,,
-1717516,-2409875,settlement,Dio,Dio,official,11.7,-2.45,BF-06,,
-1717631,-2410023,settlement,Dolma,Dolma,official,14.045875,-0.582372,BF-12,,
-1720373,-2413286,settlement,Léli,Leli,official,13.889158,-0.436731,BF-12,,
-1717265,-2409573,settlement,Dayari,Dayari,official,12.816667,-0.25,BF-05,,
-1716172,-2408258,settlement,Bèlgou,Belgou,official,14.310009,0.13294,BF-12,,
-1723828,-2417389,settlement,Tangué,Tangue,official,11.883333,-1.433333,BF-07,,
-1718709,-2411279,settlement,Ibounini,Ibounini,official,12.283333,0.516667,BF-08,,
-1721862,-2415067,settlement,Oula,Oula,official,13.486054,-2.325947,BF-10,,
-1717683,-2410083,settlement,Dora,Dora,official,11.966667,-3.516667,BF-01,,
-1723827,-2417387,settlement,Tangsié,Tangsie,official,10.916667,-2.9,BF-13,,
-1721726,-2414900,hydrographic,Ouadmana,Ouadmana,official,12.45,-1.366667,BF-03,,
-1721056,-2414095,settlement,Nadono,Nadono,official,11.55,-1.616667,BF-06,,
-1720522,-2413460,settlement,Lonntya,Lonntya,official,13.108614,0.805792,BF-12,,
-1716466,-2408598,settlement,Boilguen,Boilguen,official,12.566667,-0.816667,BF-11,,
-1721057,-2414096,settlement,Nadonou,Nadonou,official,12.933333,0.433333,BF-08,,
-1722022,-2415250,settlement,Pagyir,Pagyir,official,12.55,-2.683333,BF-06,,
-1716471,-2408603,settlement,Boké,Boke,official,13.317225,-2.253103,BF-10,,
-1722322,-2415602,settlement,Pô,Po,official,11.169722,-1.145,BF-07,,
-2126531,-2949798,hydrographic,Pouéné,Pouene,official,9.729081,-2.786603,S1-000,,
-2123592,-2937163,hydrographic,Badini,Badini,variant,10.283333,-5.116667,S1-000,,
-2123592,-2946045,hydrographic,Léraba,Leraba,official,10.283333,-5.116667,S1-000,,
-2123592,274093,hydrographic,"Léraba Orientale","Leraba Orientale",variant,10.283333,-5.116667,S1-000,,
-2123592,-2946047,hydrographic,"Léraba Occidentale","Leraba Occidentale",official,10.283333,-5.116667,S1-000,,
-2123592,-2945807,hydrographic,"La Leraba Occidentale","La Leraba Occidentale",variant,10.283333,-5.116667,S1-000,,
-2121625,-2943707,hydrographic,Kéléouoro,Keleouoro,official,9.807485,-4.05023,S1-000,,
-2121625,-2943710,hydrographic,Kéléworo,Keleworo,variant,9.807485,-4.05023,S1-000,,
-2080009,9080164,hydrographic,Nakambé,Nakambe,official,8.701944,-0.990556,S1-000,,
-2080009,-2886216,hydrographic,"White Volta","White Volta",colloquial,8.701944,-0.990556,S1-000,,
-2080009,-2886217,hydrographic,"Volta Blanche","Volta Blanche",variant,8.701944,-0.990556,S1-000,,
-2075605,-2879324,hydrographic,"Issana Bouga","Issana Bouga",official,10.916667,-1.183333,S1-000,,
-2075605,-2879325,hydrographic,Lanyunga,Lanyunga,variant,10.916667,-1.183333,S1-000,,
-2075605,-2879323,hydrographic,Lanyung,Lanyung,official,10.916667,-1.183333,S1-000,,
-1725085,-2418874,settlement,Yakata,Yakata,variant,11.516667,-0.716667,BF-07,,
-1725522,-2419379,settlement,Zinarié,Zinarie,variant,12.581862,-1.297104,BF-11,,
-1725441,-2419292,settlement,Zéguédéga,Zeguedega,official,12.3,-0.533333,BF-11,,
-1725047,-2418829,settlement,Woro,Woro,variant,13.857485,-2.117705,BF-10,,
-1725276,10534281,settlement,Yéribou,Yeribou,official,13.519212,-2.150778,BF-10,,
-1725157,19017427,settlement,Yaoguin,Yaoguin,variant,12.602677,-1.352773,BF-11,,
-1725393,-2419234,settlement,Zandouré,Zandoure,official,12.933333,-0.533333,BF-05,,
-1725589,-2419456,settlement,Zouandoma,Zouandoma,official,13.315005,-2.130579,BF-10,,
-1725398,-2419240,settlement,Zangbega,Zangbega,variant,12.586431,-1.316358,BF-11,,
-1725259,-2419070,settlement,Yéréfoula,Yerefoula,variant,10.466667,-3.583333,BF-13,,
-1725444,-2419296,settlement,Zéguédéguin,Zeguedeguin,variant,12.957351,-0.454988,BF-05,,
-1725304,-2419125,settlement,Yoren,Yoren,official,13.066949,0.144702,BF-08,,
-1725099,-2419037,settlement,Yélenga,Yelenga,variant,14.278458,-1.043581,BF-12,,
-1725153,-2418953,settlement,Yanyonadé,Yanyonade,official,13.18962,0.175139,BF-08,,
-1725376,-2419213,settlement,Zamiolo,Zamiolo,official,13.663672,-2.478497,BF-10,,
-1725477,-2419335,settlement,Ziammbélé,Ziammbele,variant,13.014244,-2.214259,BF-10,,
-1725333,-2419158,settlement,Youngou,Youngou,official,11.116667,-0.583333,BF-04,,
-1725522,-2419387,settlement,Ziniaré,Ziniare,official,12.581862,-1.297104,BF-11,,
-1725293,-2419114,settlement,Yolga,Yolga,official,11.516667,-0.066667,BF-04,,
-1725075,-2418861,settlement,Yagamaro,Yagamaro,official,13.40593,0.460878,BF-12,,
-1725610,-2419481,administrative_region,"Province du Zoundwéogo",ProvinceduZoundweogo,official,11.583333,-1,BF-07,,
-1725238,-2419053,hypsographic,Yèndiparé,Yendipare,official,12.7012,2.0381,BF-08,,
-1725444,-2419324,settlement,Zérédérin,Zerederin,variant,12.957351,-0.454988,BF-05,,
-1725124,19019123,settlement,Yalgouéogo,Yalgoueogo,official,12.908223,-1.006473,BF-05,,
-1725348,-2419180,settlement,Zagaltenga,Zagaltenga,official,12.965478,-1.456881,BF-05,,
-1725226,-2419039,settlement,Yélimbiri,Yelimbiri,official,13.421046,0.441312,BF-12,,
-1725473,19031517,settlement,Gounguen,Gounguen,variant,12.066771,-1.421336,BF-07,,
-1725554,-2419419,settlement,Zomkalga,Zomkalga,official,13.188932,-1.484449,BF-05,,
-1725564,-2419429,settlement,Zongo,Zongo,official,12.34595,-1.598562,BF-03,,
-1725195,-2418999,settlement,Yarobadé,Yarobade,official,12.983333,0.083333,BF-08,,
-1725176,-2418980,settlement,Yargo,Yargo,official,12.183333,-2.183333,BF-06,,
-1725251,-2419066,settlement,Yépéla,Yepela,official,10.65,-3.016667,BF-13,,
-1725258,-2419077,settlement,Yéridyon,Yeridyon,official,12.416667,-2.683333,BF-06,,
-1725497,-2419358,settlement,Zikiémé,Zikieme,official,12.933333,-0.983333,BF-05,,
-1725508,-2419364,settlement,Zimba,Zimba,official,13.504795,-2.43669,BF-10,,
-1725519,-2419384,settlement,Zinékwé,Zinekwe,official,11.916667,-1.316667,BF-07,,
-1725555,-2419420,settlement,Zomkalga,Zomkalga,official,13.457492,-1.882022,BF-10,,
-1725205,-2419011,settlement,Yarséyi,Yarseyi,official,12.216667,-2.05,BF-06,,
-1725332,-2419156,settlement,Youmpoura,Youmpoura,official,10.516667,-3.3,BF-13,,
-1725334,-2419159,settlement,Yourouna,Yourouna,official,13.1247,-4.3111,BF-01,,
-1725057,-2418840,settlement,Woumitoguen,Woumitoguen,official,12.316667,-0.85,BF-11,,
-1725569,-2419434,spot,Zongoy,Zongoy,official,14.468077,-0.112808,BF-12,,
-1725616,-2419487,settlement,Zourma,Zourma,official,11.390833,-0.795556,BF-07,,
-1725145,-2418942,settlement,Yanga,Yanga,official,12.125147,-1.31368,BF-07,,
-1725162,-2418964,settlement,Yaouren,Yaouren,official,12.566667,-0.75,BF-11,,
-1725252,-2419067,settlement,Yéra,Yera,official,13.0089,-3.4421,BF-01,,
-1725156,-2418956,settlement,Yaogen,Yaogen,variant,12.329803,-1.607336,BF-03,,
-1725121,-2418915,settlement,"Yalo Gourounga","Yalo Gourounga",official,11.95,-1.916667,BF-07,,
-1725041,-2418822,hydrographic,Woranga,Woranga,official,12.9,0.9,BF-08,,
-1725288,-2419109,settlement,Yoda,Yoda,official,13.329106,-0.575364,BF-05,,
-1725211,9190628,administrative_region,Yatenga,Yatenga,official,13.583333,-2.416667,BF-10,,
-1725217,-2419028,settlement,Yébélala,Yebelala,official,10.733333,-3.216667,BF-13,,
-1725303,-2419074,settlement,Yéréko,Yereko,variant,11.233333,-0.55,BF-04,,
-1725399,-2419241,settlement,Zangboni,Zangboni,official,11.366667,-2.933333,BF-09,,
-1725109,-2418900,settlement,Yalgo,Yalgo,official,12.933333,-0.85,BF-05,,
-1725406,-2419250,settlement,Zankolaga,Zankolaga,official,13.382318,-2.417607,BF-10,,
-1725606,-2419476,hydrographic,Zoumbéko,Zoumbeko,official,11.1,-0.116667,S1-000,,
-1725453,-2419307,settlement,Zéla,Zela,variant,12.457738,-1.796649,BF-11,,
-1725475,-2419332,settlement,Zétonasso,Zetonasso,official,11.277546,-5.22688,BF-09,,
-1725361,-2419197,settlement,Zakuy,Zakuy,official,12.533333,-3.416667,BF-01,,
-1725103,-2418894,settlement,Yalbouga,Yalbouga,variant,11.119167,-1.916389,BF-06,,
-1725038,-2418818,settlement,Womsom,Womsom,variant,13.384258,-2.169867,BF-10,,
-1725144,-2418941,settlement,Yanégé,Yanege,variant,12.595069,-1.514925,BF-11,,
-1725485,-2409813,settlement,Diga,Diga,variant,12.366667,-3.8,BF-01,,
-1725574,-2419439,settlement,Zonsé,Zonse,official,11.37,-0.615,BF-04,,
-1725103,-2419034,settlement,Yélébouga,Yelebouga,variant,11.119167,-1.916389,BF-06,,
-1725126,-2418921,settlement,Yaltenga,Yaltenga,official,12.951086,-1.906851,BF-10,,
-1725309,-2419131,settlement,Yoroga,Yoroga,official,12.716667,-2.083333,BF-10,,
-1725378,-2419215,settlement,Zammsé,Zammse,official,11.7,-1.1,BF-07,,
-1725116,-2418909,settlement,Yalo,Yalo,variant,12.983333,-3.933333,BF-01,,
-1725579,-2419455,settlement,Zorre,Zorre,variant,12.283333,-0.45,BF-04,,
-1725239,-2419054,hydrographic,Yengué,Yengue,official,11.207787,-4.441325,BF-09,,
-1725400,19017468,settlement,Zanguélila,Zanguelila,official,12.940087,-1.468009,BF-05,,
-1725053,-2418835,settlement,Woté,Wote,official,12.833333,-3.65,BF-01,,
-1725058,-2418841,settlement,Woumtenga,Woumtenga,official,12.246611,-1.670116,BF-03,,
-1725070,-2418886,settlement,Yaktenga,Yaktenga,official,12.598345,-1.827064,BF-11,,
-1725265,-2419084,hydrographic,Yiérté,Yierte,official,14.540578,-1.518932,BF-12,,
-1725478,-2419336,settlement,Ziasso,Ziasso,official,12.15,-3.333333,BF-01,,
-1725138,-2418934,settlement,Yamou,Yamou,official,12.033333,-3.333333,BF-01,,
-1725424,-2419271,settlement,Zarayn,Zarayn,official,12.533333,-2.116667,BF-06,,
-1725547,-2419412,settlement,Zodoum,Zodoum,official,10.983333,-3.033333,BF-13,,
-1725427,-2419274,settlement,Zargo,Zargo,official,11.683333,-0.616667,BF-04,,
-1725081,-2419021,settlement,Yayo,Yayo,variant,12.916667,-3.466667,BF-01,,
-1725242,-2419057,spot,Yènsi,Yensi,official,14.009914,-2.846578,BF-10,,
-1725548,-2419413,settlement,Zoétgomdé,Zoetgomde,official,12.533333,-2.2,BF-06,,
-1725432,-2419263,settlement,Zaouara,Zaouara,variant,11.783333,-2.583333,BF-06,,
-1725563,-2419428,settlement,Zonesso,Zonesso,official,11.164972,-4.176875,BF-09,,
-1725397,-2419239,settlement,Zangazoni,Zangazoni,official,11.904843,-4.70916,BF-09,,
-1725142,18989179,settlement,Yandéguen,Yandeguen,official,12.260058,-1.974271,BF-06,,
-1725612,-2419483,settlement,Zoungou,Zoungou,official,12.144408,-0.531688,BF-11,,
-1725603,-2419473,settlement,Zouma,Zouma,official,12.666667,-2.916667,BF-01,,
-1725202,-2419008,settlement,Yarsé,Yarse,official,12.658703,-1.009113,BF-11,,
-1725419,-2419266,settlement,Zaptinga,Zaptinga,official,11.716667,-1.1,BF-07,,
-1725615,-2419486,settlement,Zouri,Zouri,official,11.65,-1.283333,BF-07,,
-1725402,-2419248,settlement,Zangongho,Zangongho,variant,11.766667,-1.383333,BF-07,,
-1725527,-2419392,settlement,Ziniguisé,Ziniguise,official,12.116667,-2.116667,BF-06,,
-1725157,19016905,settlement,Yaoguen,Yaoguen,variant,12.602677,-1.352773,BF-11,,
-1725395,-2419237,settlement,Zanga,Zanga,official,10.4,-5.416667,BF-02,,
-1725289,-2419110,hypsographic,Yogadyoaga,Yogadyoaga,official,12.705027,2.063175,BF-08,,
-1725190,-2418994,hydrographic,Yari,Yari,official,13.348236,-0.07835,BF-08,,
-1725343,-2419175,settlement,Zabré,Zabre,official,11.1825,-0.632222,BF-04,,
-1725310,-2419132,settlement,Yorogo,Yorogo,official,11.95,-1.316667,BF-07,,
-1725155,-2418866,settlement,Yahorin,Yahorin,variant,12.233333,-2.1,BF-06,,
-1725552,-2419468,settlement,Zoulo,Zoulo,variant,12.8,-2.566667,BF-06,,
-1725443,-2419295,settlement,Zéguédéguin,Zeguedeguin,official,11.9,-1.45,BF-07,,
-1725311,-2419166,settlement,Yu,Yu,variant,13.701666,-2.141011,BF-10,,
-1725133,-2419046,settlement,Yemba,Yemba,variant,12.297449,0.338641,BF-08,,
-1725044,-2418825,settlement,Woro,Woro,official,11.7,-3.683333,BF-09,,
-1725447,18982594,settlement,Zinguédéssé,Zinguedesse,official,12.24661,-1.584023,BF-03,,
-1725442,18989821,settlement,Zéguédéguen,Zeguedeguen,official,12.092998,-1.975616,BF-06,,
-1725231,-2419045,settlement,Yélou,Yelou,official,12.06722,-1.726807,BF-07,,
-1725259,-2411408,settlement,Jérifoula,Jerifoula,variant,10.466667,-3.583333,BF-13,,
-1725598,-2419467,hydrographic,Zouli,Zouli,official,12.033333,-0.433333,BF-000,,
-1725453,18978188,settlement,Zila,Zila,official,12.457738,-1.796649,BF-11,,
-1725464,-2419319,settlement,Zennloua,Zennloua,official,11.883333,-1.966667,BF-06,,
-1725438,19017473,settlement,Zéguédéguen,Zeguedeguen,official,12.973676,-1.406037,BF-05,,
-1725108,-2418913,settlement,Yalogo,Yalogo,variant,13.583333,-0.266667,BF-05,,
-1725529,-2419394,settlement,"Zinka Folapouo","Zinka Folapouo",official,10.133333,-2.916667,BF-13,,
-1725343,-2419171,settlement,Zabéré,Zabere,variant,11.1825,-0.632222,BF-04,,
-1725394,-2419235,settlement,Zanfana,Zanfana,variant,11.753088,-5.014802,BF-09,,
-1725095,-2418887,settlement,Yakuta,Yakuta,variant,14.075838,-0.136887,BF-12,,
-1725468,-2419323,settlement,Zérédéguen,Zeredeguen,official,13.073818,-1.145534,BF-05,,
-1725118,-2418911,settlement,Yalogo,Yalogo,official,12.533333,-0.6,BF-000,,
-1725321,-2419143,settlement,Yougoupélé,Yougoupele,official,12.048579,-1.558636,BF-07,,
-1725219,-2419030,settlement,Yégueré,Yeguere,official,10.984059,-4.102422,BF-09,,
-1725066,-2418852,park,"Forêt Classée de Yabo","Foret Classee de Yabo",official,12.988007,-1.505613,BF-000,,
-1725518,-2419383,settlement,Zinedi,Zinedi,official,9.966667,-2.8,BF-13,,
-1725450,18989149,settlement,Zékèmzougou,Zekemzougou,variant,12.315011,-1.919166,BF-06,,
-1725511,-2419374,settlement,Zimtenga,Zimtenga,variant,12.10507,-1.551269,BF-07,,
-1725317,125045,settlement,Yougtenga,Yougtenga,official,12.002892,-1.414802,BF-07,,
-1725061,-2418845,settlement,Ya,Ya,official,11.5,-2.516667,BF-06,,
-1725433,-2419283,settlement,Zayé,Zaye,variant,13.99614831,-2.37326424,BF-10,,
-1725581,-2419446,settlement,Zorgo,Zorgo,official,11.7,-1.333333,BF-07,,
-1725053,-2415119,settlement,Ouotté,Ouotte,variant,12.833333,-3.65,BF-01,,
-1725254,-2419071,settlement,"Yéréfoula Gans","Yerefoula Gans",official,10.45,-3.616667,BF-13,,
-1725102,-2418893,settlement,Yalatenga,Yalatenga,official,12.799034,-1.526071,BF-11,,
-1725415,-2419260,settlement,Zaongo,Zaongo,official,12.216667,-0.383333,BF-04,,
-1725194,-2418998,hydrographic,Yaro,Yaro,official,10.8,-3.45,BF-000,,
-1725122,-2418916,spot,Yalogwèngo,Yalogwengo,official,13.163075,-1.412104,BF-05,,
-1725609,19049169,settlement,Zoundri,Zoundri,official,12.427185,-1.908741,BF-11,,
-1725307,-2419128,settlement,"Yorgo Kosyama","Yorgo Kosyama",variant,12.304567,-1.504424,BF-03,,
-1725313,-2419135,settlement,Youba,Youba,official,13.667832,-2.375357,BF-10,,
-1725349,-2419277,settlement,Zatahoula,Zatahoula,variant,12.329241,-1.625655,BF-03,,
-1725437,-2419288,settlement,Zégédégen,Zegedegen,variant,12.788527,-1.891592,BF-11,,
-1725291,-2419112,settlement,Yokiaré,Yokiare,official,10.85,-3.016667,BF-13,,
-1725313,-2419167,settlement,Yuba,Yuba,variant,13.667832,-2.375357,BF-10,,
-1725065,-2418851,settlement,Yabo,Yabo,official,12.976348,-1.495416,BF-05,,
-1725129,-2418932,hydrographic,Yamoko,Yamoko,variant,11.933333,-1.033333,BF-000,,
-1725038,10533814,settlement,Oumsom,Oumsom,official,13.384258,-2.169867,BF-10,,
-1725436,18997164,settlement,"Zéguédéguen II","Zeguedeguen II",official,12.791762,-1.732747,BF-11,,
-1725486,-2419347,settlement,Ziga,Ziga,official,12.564747,-1.112037,BF-11,,
-1725563,-2408672,settlement,Bonadougou,Bonadougou,variant,11.164972,-4.176875,BF-09,,
-1725110,19017514,settlement,Yargo,Yargo,official,12.949776,-1.264722,BF-05,,
-1725420,-2419267,settlement,Zara,Zara,official,12.733333,-2.75,BF-01,,
-1725491,-2419352,settlement,"Zigla Koulpélé","Zigla Koulpele",official,11.716667,-0.633333,BF-04,,
-1725353,-2419188,settlement,Zakarga,Zakarga,official,12.316667,-0.516667,BF-000,,
-1725442,-2419293,settlement,Zéguédégen,Zeguedegen,variant,12.092998,-1.975616,BF-06,,
-1725349,-2419181,settlement,Zaghtouli,Zaghtouli,variant,12.329241,-1.625655,BF-03,,
-1725404,-2419247,settlement,Zangokala,Zangokala,official,10.85,-5.283333,BF-02,,
-1725227,-2419040,hydrographic,Yélinfoybou,Yelinfoybou,official,12.316667,0.633333,BF-08,,
-1725584,-2419325,settlement,Zergongo,Zergongo,variant,12.266667,-0.8,BF-11,,
-1725300,-2419104,settlement,Yoana,Yoana,variant,12.1,-3.383333,BF-01,,
-1725143,-2418940,settlement,Yandima,Yandima,official,12.666667,0.25,BF-08,,
-1725113,-2418904,settlement,Yalka,Yalka,official,13.490454,-2.568244,BF-10,,
-1725104,-2418895,settlement,Yalé,Yale,official,11.233333,-1.966667,BF-06,,
-1725249,10528390,settlement,"Yansa Gonion","Yansa Gonion",official,13.585742,-2.934223,BF-01,,
-1725068,-2418854,settlement,Yabonso,Yabonso,variant,13.657429,-2.401205,BF-10,,
-1725158,19022429,settlement,Yaoguen,Yaoguen,official,12.790311,-1.027456,BF-05,,
-1725218,-2419029,settlement,"Yébél Bakolanga","Yebel Bakolanga",official,14.0323,0.225342,BF-12,,
-1725140,-2418936,settlement,Yamtohiga,Yamtohiga,official,12.707496,-1.796205,BF-11,,
-1725203,-2419009,settlement,Yarsé,Yarse,official,13.615112,-0.884208,BF-05,,
-1725188,-2418992,settlement,Yargo,Yargo,official,13.631152,-2.642657,BF-10,,
-1725267,-2419086,settlement,Yikoudgo,Yikoudgo,official,13.244752,-0.954325,BF-05,,
-1725402,-2419244,settlement,Zangogho,Zangogho,variant,11.766667,-1.383333,BF-07,,
-1725576,-2419441,settlement,Zonzo,Zonzo,official,10.166667,-2.9,BF-13,,
-1725570,-2419435,settlement,Zongpiguen,Zongpiguen,official,12.25,-0.783333,BF-11,,
-1725339,-2419170,settlement,Zabéadougou,Zabeadougou,official,10.566667,-5.366667,BF-02,,
-1725501,-2409695,settlement,Diamanso,Diamanso,variant,12.666667,-3.616667,BF-01,,
-1725618,-2419489,settlement,Zouta,Zouta,official,13.149077,-1.281974,BF-05,,
-1725282,-2419101,settlement,Yo,Yo,official,11.3,-1,BF-07,,
-1725050,-2418832,settlement,Worokui,Worokui,official,12.316667,-3.516667,BF-01,,
-1725230,-2419044,settlement,Yelmanarlé,Yelmanarle,official,12.783333,-2.45,BF-10,,
-1725135,-2418930,settlement,Yamboumbou,Yamboumbou,official,14.12623,-2.090625,BF-10,,
-1725510,-2419373,settlement,Zimsa,Zimsa,official,13.310841,-1.097233,BF-05,,
-1725379,-2419216,settlement,Zamné,Zamne,official,14.157205,-2.218838,BF-10,,
-1725234,-2419049,settlement,Yenbiro,Yenbiro,official,10.183333,-3.433333,BF-13,,
-1725283,-2419102,settlement,Yo,Yo,official,13.0263,-3.365,BF-01,,
-1725530,-2419395,settlement,Zinkui,Zinkui,official,11.983333,-3.216667,BF-01,,
-1725269,-2419088,settlement,Yilatenga,Yilatenga,variant,12.869528,-1.286772,BF-05,,
-1725096,-2418885,settlement,Yakranyimasso,Yakranyimasso,official,10.616667,-5.283333,BF-02,,
-1725555,-2409906,settlement,Dionkalga,Dionkalga,variant,13.457492,-1.882022,BF-10,,
-1725185,-2418989,settlement,Yargo,Yargo,official,13.172298,-1.856085,BF-10,,
-1725537,-2419402,settlement,Zipélaga,Zipelaga,official,11.066667,-0.483333,BF-04,,
-1725582,9177277,settlement,Zorgho,Zorgho,variant,12.249222,-0.61527,BF-11,,
-1725568,-2419433,settlement,Zongowaétan,Zongowaetan,official,13.791241,0.54774,BF-12,,
-1725168,-2416461,settlement,Sénoulo,Senoulo,variant,13.2123,-4.2199,BF-01,,
-1725368,-2419204,settlement,Zambala,Zambala,official,12.6,-2.466667,BF-06,,
-1725053,-2415118,settlement,Ouoté,Ouote,variant,12.833333,-3.65,BF-01,,
-1725051,-2418833,hydrographic,Woroma,Woroma,official,11.750888,-4.391083,BF-000,,
-1725303,-2419124,settlement,Yoréko,Yoreko,official,11.233333,-0.55,BF-04,,
-1725106,-2418897,settlement,Yalga,Yalga,official,13.267395,-1.436877,BF-05,,
-1725133,14053100,settlement,Yanmba,Yanmba,official,12.297449,0.338641,BF-08,,
-1725445,-2419297,settlement,Zéguédessé,Zeguedesse,official,12.001352,-1.241937,BF-07,,
-1725462,-2419316,settlement,Zénédéré,Zenedere,official,12.766667,-2.2,BF-10,,
-1725436,18998381,settlement,Zéguédéguin,Zeguedeguin,variant,12.791762,-1.732747,BF-11,,
-1725383,-2419223,settlement,Zamsé,Zamse,official,12.533333,-0.716667,BF-11,,
-1725592,-2419462,settlement,Zougouna,Zougouna,variant,13.563353,-2.519964,BF-10,,
-1725319,-2419141,settlement,"Yougoul Mandé","Yougoul Mande",official,12.3,-0.716667,BF-11,,
-1725240,-2419055,settlement,Yenkui,Yenkui,official,12.466667,-3.85,BF-01,,
-1725582,-2419447,settlement,Zorgo,Zorgo,official,12.249222,-0.61527,BF-11,,
-1725047,10534469,settlement,Ouro,Ouro,official,13.857485,-2.117705,BF-10,,
-1725528,-2419393,settlement,Zinka,Zinka,official,10.133333,-2.916667,BF-13,,
-1725117,-2418910,settlement,Yalogen,Yalogen,official,12.816667,-0.583333,BF-05,,
-1725032,-2418806,settlement,Wodbila,Wodbila,variant,12.15738,-1.421268,BF-03,,
-1725206,-2419012,settlement,Yarsi,Yarsi,official,12.866667,-2.066667,BF-10,,
-1725500,-2419361,settlement,Zilatéoun,Zilateoun,official,9.95,-2.85,BF-13,,
-1725249,-2419064,settlement,"Yenza Konion","Yenza Konion",variant,13.585742,-2.934223,BF-01,,
-1725259,-2411285,settlement,Iérifoula,Ierifoula,variant,10.466667,-3.583333,BF-13,,
-1725386,-2419226,settlement,Zamzen,Zamzen,variant,12.209323,-1.943559,BF-06,,
-1725112,-2418903,settlement,Yalka,Yalka,official,13.498495,-1.547524,BF-05,,
-1725261,-2419080,settlement,Yérimbou,Yerimbou,official,12.136058,1.461823,BF-08,,
-1725514,-2419377,settlement,Zinab,Zinab,official,12.783333,-0.983333,BF-05,,
-1725154,18983798,settlement,Yaoghin,Yaoghin,official,12.193766,-1.762789,BF-03,,
-1725349,-2419278,settlement,Zatahulgu,Zatahulgu,variant,12.329241,-1.625655,BF-03,,
-1725596,-2419465,settlement,Zoukoundougou,Zoukoundougou,official,13.472944,-1.828867,BF-05,,
-1725215,-2419026,settlement,Yéaïri,Yeairi,official,13.441609,-2.959696,BF-01,,
-1725180,-2418984,settlement,Yargo,Yargo,official,12.316667,-0.516667,BF-000,,
-1725039,-2418820,settlement,Wonkoro,Wonkoro,official,10.6,-3.65,BF-13,,
-1725607,-2419478,settlement,Zounara,Zounara,official,14.0603,-0.9666,BF-12,,
-1725185,-2411265,settlement,Iarogo,Iarogo,variant,13.172298,-1.856085,BF-10,,
-1725211,-2419018,administrative_region,"Province du Yatenga",ProvinceduYatenga,official,13.583333,-2.416667,BF-10,,
-1725565,-2419430,settlement,Zongo,Zongo,official,13.227452,-2.375957,BF-10,,
-1725124,19023114,settlement,Yalrouéougo,Yalroueougo,variant,12.908223,-1.006473,BF-05,,
-1725164,-2413869,settlement,Moko,Moko,variant,11.788227,-3.29249,BF-01,,
-1725460,-2419220,settlement,Zamparaga,Zamparaga,variant,12.25,-0.733333,BF-11,,
-1725052,-2418834,settlement,Wortoré,Wortore,official,13.6774,0.252331,BF-12,,
-1725593,10533692,settlement,Zongouma,Zongouma,official,13.914085,-2.24711,BF-10,,
-1725035,-2418810,settlement,Wolbyé,Wolbye,official,12.333333,-2.9,BF-01,,
-1725221,-2419032,settlement,Yéhon,Yehon,official,11.3,-3.4,BF-09,,
-1725602,-2419472,settlement,Zouma,Zouma,official,12.59733,-1.602208,BF-03,,
-1725152,-2418952,settlement,"Yanté Digna","Yante Digna",official,14.151208,-2.177784,BF-10,,
-1725349,-2419184,settlement,Zahotoulgou,Zahotoulgou,variant,12.329241,-1.625655,BF-03,,
-1725550,-2419415,settlement,Zogoré,Zogore,official,13.401687,-2.592442,BF-10,,
-1725446,-2419298,settlement,Zéguedessé,Zeguedesse,variant,12.209197,-1.381301,BF-03,,
-1725613,-2419484,settlement,Zoungwa,Zoungwa,official,13.218949,-1.971424,BF-10,,
-1725582,-2419454,settlement,Zorogo,Zorogo,variant,12.249222,-0.61527,BF-11,,
-1725181,-2418985,settlement,Yargo,Yargo,official,12.366667,-0.866667,BF-11,,
-1725125,-2418920,hydrographic,Yalshrika,Yalshrika,official,13.134061,-0.358544,BF-08,,
-1725450,-2419303,settlement,Zékamsougoye,Zekamsougoye,variant,12.315011,-1.919166,BF-06,,
-1725373,-2419210,settlement,Zambor,Zambor,variant,10.81062012,-2.99474804,BF-13,,
-1725579,-2419444,settlement,Zore,Zore,official,12.283333,-0.45,BF-04,,
-1725381,-2419218,settlement,Zamo,Zamo,official,12.016667,-2.716667,BF-06,,
-1725405,-2419249,settlement,Zangwi,Zangwi,official,13.034061,-1.313512,BF-05,,
-1725095,-2418884,settlement,Yakouta,Yakouta,official,14.075838,-0.136887,BF-12,,
-1725350,-2419183,settlement,Zahatenga,Zahatenga,official,12.866667,-0.983333,BF-05,,
-1725442,18991414,settlement,Zéguédéguin,Zeguedeguin,variant,12.092998,-1.975616,BF-06,,
-1725609,-2419480,settlement,Zoundouri,Zoundouri,variant,12.427185,-1.908741,BF-11,,
-1725396,-2419238,settlement,Zanganyiara,Zanganyiara,official,10.516667,-5.366667,BF-02,,
-1725078,-2418864,settlement,Yaguen,Yaguen,official,13.145335,-0.386443,BF-05,,
-1725413,-2419258,settlement,Zanzi,Zanzi,official,13.014726,-1.209854,BF-05,,
-1725264,-2419083,settlement,Yétolo,Yetolo,official,10.55,-5.383333,BF-02,,
-1725272,-2419091,settlement,Yimouga,Yimouga,official,12.683333,-2.45,BF-06,,
-1725149,-2418948,settlement,Yankoro,Yankoro,official,12.016667,-3.35,BF-01,,
-1725164,-2418967,settlement,Yaramoko,Yaramoko,official,11.788227,-3.29249,BF-01,,
-1725347,19022514,settlement,Zéguédéssen,Zeguedessen,official,12.721775,-1.460861,BF-11,,
-1725536,-2419343,settlement,Ziégo,Ziego,variant,11.036111,-0.779167,BF-07,,
-1725347,-2419179,settlement,Zagadésen,Zagadesen,variant,12.721775,-1.460861,BF-11,,
-1725373,-2419231,settlement,Zanbo,Zanbo,variant,10.81062012,-2.99474804,BF-13,,
-1725414,-2419259,settlement,Zao,Zao,official,11.85,-2.116667,BF-06,,
-1725210,-2419016,spot,Yaté,Yate,official,14.170569,-1.708573,BF-12,,
-1725423,-2419270,hypsographic,"Zaran Kipsi","Zaran Kipsi",official,14.683668,-0.892153,BF-12,,
-1725294,-2419115,settlement,Yolonguira,Yolonguira,official,10.1,-3.45,BF-13,,
-1725032,19030790,settlement,Wedbila,Wedbila,official,12.15738,-1.421268,BF-03,,
-1725142,-2418939,settlement,Yandégen,Yandegen,variant,12.260058,-1.974271,BF-06,,
-1725183,-2418987,settlement,Yargo,Yargo,official,12.737595,-1.298654,BF-11,,
-1725451,-2419305,settlement,Zéko,Zeko,official,12.25,-0.583333,BF-11,,
-1725366,-2419202,settlement,Zamakologo,Zamakologo,official,11.584948,-4.722318,BF-09,,
-1725590,-2419458,settlement,Zoudounga,Zoudounga,variant,13.76240817,-2.34134674,BF-10,,
-1725146,-2418943,settlement,Yanga,Yanga,official,12.477863,-1.499537,BF-03,,
-1725232,-2419047,settlement,Yèmbago,Yembago,official,9.683333,-2.933333,BF-13,,
-1725173,-2411751,settlement,Kargatenga,Kargatenga,variant,11.2125,0.005278,BF-04,,
-1725327,-2419150,settlement,Youlabako,Youlabako,official,10.416667,-3.1,BF-13,,
-1725269,19019418,settlement,Yilartenga,Yilartenga,official,12.869528,-1.286772,BF-05,,
-1725108,-2418918,settlement,Yaloro,Yaloro,variant,13.583333,-0.266667,BF-05,,
-1725079,-2418867,settlement,Yahotinga,Yahotinga,official,12.733333,-0.55,BF-05,,
-1725199,18996784,settlement,Toubré,Toubre,official,12.841606,-1.535298,BF-11,,
-1725204,-2419010,settlement,Yarsen,Yarsen,variant,12.747559,-1.771475,BF-11,,
-1725305,-2419126,settlement,Yorgo,Yorgo,official,12.001505,-1.356063,BF-07,,
-1725333,-2419157,settlement,Youngo,Youngo,variant,11.116667,-0.583333,BF-04,,
-1725253,-2419069,settlement,Yéréfé,Yerefe,official,11.333333,-3.033333,BF-13,,
-1725073,-2418859,settlement,Yagabtenga,Yagabtenga,official,12.916667,-0.716667,BF-05,,
-1725542,-2419407,settlement,Zitoessin,Zitoessin,official,13.07456,-2.396487,BF-10,,
-1725101,-2418892,settlement,Yalasso,Yalasso,official,11.2,-3.9,BF-09,,
-1725056,-2418839,settlement,Woulmassoutou,Woulmassoutou,variant,13.699576,0.16695,BF-12,,
-1725172,-2418975,settlement,Yarga,Yarga,official,13.227793,-0.028717,BF-08,,
-1725049,-2418831,settlement,Worobgo,Worobgo,official,12.070616,-1.244294,BF-07,,
-1725103,9176809,settlement,Yelbouga,Yelbouga,official,11.119167,-1.916389,BF-06,,
-1725300,-2419121,settlement,Yona,Yona,official,12.1,-3.383333,BF-01,,
-1725401,-2419243,settlement,Zangendyésé,Zangendyese,variant,12.364715,-1.710607,BF-03,,
-1725560,-2419425,settlement,Zon,Zon,official,13.729012,-1.615308,BF-05,,
-1725250,-2419065,settlement,Yéou,Yeou,official,13.844898,-0.585131,BF-05,,
-1725306,127171,settlement,"Dar Salam","Dar Salam",official,12.361456,-1.639087,BF-03,,
-1725512,-2419375,settlement,Zimyalagé,Zimyalage,variant,12.852327,-1.797512,BF-11,,
-1725549,-2419414,settlement,Zogbéga,Zogbega,official,12.866667,-2.1,BF-10,,
-1725053,-2418837,settlement,Wotte,Wotte,variant,12.833333,-3.65,BF-01,,
-1725093,-2418882,settlement,Yakoné,Yakone,official,13.55413,-0.882264,BF-05,,
-1725243,-2419058,settlement,Yensouti,Yensouti,official,13.318503,0.335452,BF-12,,
-1725278,-2419097,settlement,Yisèpougo,Yisepougo,official,12.716667,-2.75,BF-01,,
-1725229,-2419043,settlement,Yelkoto,Yelkoto,official,13.327265,-1.717444,BF-05,,
-1725425,-2419272,settlement,Zaren,Zaren,official,13.194121,-0.916715,BF-05,,
-1725513,-2419376,settlement,Zina,Zina,official,12.016667,-3.4,BF-01,,
-1725524,-2419389,hydrographic,Zinibéogo,Zinibeogo,official,13.767686,-0.743236,BF-05,,
-1725384,-2419224,settlement,Zamsé,Zamse,official,13.448592,-1.794854,BF-05,,
-1725131,-2418926,hydrographic,Yamanou,Yamanou,official,13.318095,1.100725,S1-000,,
-1725056,-2415083,settlement,Oulmasoutou,Oulmasoutou,official,13.699576,0.16695,BF-12,,
-1725270,-2419089,settlement,Yillialé,Yilliale,official,12.766667,-2.333333,BF-10,,
-1725502,-2419365,settlement,Zimidem,Zimidem,official,12.616667,-2.166667,BF-06,,
-1725559,-2419424,settlement,Zon,Zon,official,11.283333,-1.4,BF-07,,
-1725523,-2419388,settlement,Zinibéogo,Zinibeogo,official,13.866229,-0.737609,BF-05,,
-1725142,18991066,settlement,Yandéguin,Yandeguin,variant,12.260058,-1.974271,BF-06,,
-1725553,10533683,settlement,Zom,Zom,official,13.8301683,-2.40276173,BF-10,,
-1725385,-2419221,settlement,Zamsé,Zamse,official,12.002457,-1.291993,BF-07,,
-1725446,19032877,settlement,Zéguédessé,Zeguedesse,variant,12.209197,-1.381301,BF-03,,
-1725465,-2419320,settlement,Zéoula,Zeoula,official,12.266667,-3.483333,BF-01,,
-1725315,-2419137,settlement,"Youba Naloto","Youba Naloto",official,12.716667,-0.95,BF-05,,
-1725575,-2419440,settlement,Zontibé,Zontibe,official,13.415162,-1.251748,BF-05,,
-1725302,-2419123,settlement,Yonkui,Yonkui,official,12.6,-3.45,BF-01,,
-1725204,18998275,settlement,Yarsin,Yarsin,official,12.747559,-1.771475,BF-11,,
-1725484,10532520,hypsographic,"Zenem Tanga","Zenem Tanga",official,13.714113,-2.623781,BF-10,,
-1725372,-2419208,settlement,Zambanga,Zambanga,official,12.733333,-0.566667,BF-05,,
-1725400,19023025,settlement,Zanguélita,Zanguelita,variant,12.940087,-1.468009,BF-05,,
-1725082,-2418870,settlement,Yaka,Yaka,official,13.203955,0.099859,BF-08,,
-1725311,-2419133,settlement,You,You,official,13.701666,-2.141011,BF-10,,
-1725081,-2418869,settlement,Yaïo,Yaio,official,12.916667,-3.466667,BF-01,,
-1725592,-2419460,settlement,Zougouma,Zougouma,official,13.563353,-2.519964,BF-10,,
-1725214,-2419025,settlement,Yé,Ye,official,12.6,-3.116667,BF-01,,
-1725262,-2419081,settlement,Yéssébé,Yessebe,official,10.316667,-4.016667,BF-02,,
-1725156,18976902,settlement,Yaoguen,Yaoguen,variant,12.329803,-1.607336,BF-03,,
-1725263,-2419082,settlement,Yétégomdé,Yetegomde,variant,12.95802,-1.95694,BF-10,,
-1725144,18993614,settlement,Yanengué,Yanengue,official,12.595069,-1.514925,BF-11,,
-1725161,-2418962,settlement,Yaongou,Yaongou,variant,12.62182,-0.264693,BF-05,,
-1725550,-2409883,settlement,Diogoré,Diogore,variant,13.401687,-2.592442,BF-10,,
-1725588,-2419453,settlement,Zorogo,Zorogo,official,12.25,-0.283333,BF-04,,
-1725287,-2419107,settlement,Yobiri,Yobiri,official,11.766667,1.7,BF-08,,
-1725605,-2409982,settlement,Djimbara,Djimbara,variant,12.883333,-3.15,BF-01,,
-1725346,-2419178,settlement,Zaèltenga,Zaeltenga,official,12.920604,-1.320658,BF-05,,
-1725429,19031301,settlement,Zarsin,Zarsin,official,12.110086,-1.313769,BF-07,,
-1725553,-2419418,settlement,Zomé,Zome,variant,13.8301683,-2.40276173,BF-10,,
-1725274,-2419093,settlement,Yinou,Yinou,official,13.307929,-1.894223,BF-10,,
-1725036,-2418811,settlement,Wolé,Wole,official,13.437707,-0.540913,BF-05,,
-1725119,-2418912,settlement,Yalogo,Yalogo,official,13.480077,-0.822498,BF-05,,
-1725359,-2419195,settlement,Zakui,Zakui,official,12.283333,-3.516667,BF-01,,
-1725120,-2418914,hydrographic,Yalogo,Yalogo,official,12.480751,-1.074799,BF-11,,
-1725043,10532146,settlement,"Ouoré Yarsé","Ouore Yarse",official,13.21193,-2.625776,BF-01,,
-1725454,-2419308,settlement,Zélasié,Zelasie,official,12.45,-2.8,BF-01,,
-1725284,-2419103,settlement,Yoada,Yoada,official,13.735183,-2.170089,BF-10,,
-1725377,-2419214,settlement,Zammsé,Zammse,official,11.55,-1.183333,BF-07,,
-1725361,-2419334,settlement,Ziakui,Ziakui,variant,12.533333,-3.416667,BF-01,,
-1725071,-2418857,settlement,Yada,Yada,official,12.023151,-1.983555,BF-07,,
-1725092,-2418881,hydrographic,Yako,Yako,official,11.6,-1.35,BF-000,,
-1725390,-2419230,settlement,Zanawa,Zanawa,official,10.983333,-3.5,BF-13,,
-1725273,-2419092,settlement,Yinga,Yinga,official,11.583333,-2.266667,BF-06,,
-1725033,-2418807,settlement,Wodo,Wodo,official,10.3,-3.75,BF-13,,
-1725054,-2418836,settlement,"Wotienga Wobila","Wotienga Wobila",variant,13.642695,-2.670002,BF-10,,
-1725259,-2411286,settlement,Ierifula,Ierifula,variant,10.466667,-3.583333,BF-13,,
-1725450,18998868,settlement,Zinkemzougou,Zinkemzougou,official,12.315011,-1.919166,BF-06,,
-1725583,-2419448,settlement,Zorgo,Zorgo,official,13.065889,-0.669194,BF-05,,
-1725216,-2419027,spot,Yébandé,Yebande,official,14.3168,-0.1942,BF-12,,
-1725147,-2418944,settlement,Yanga,Yanga,official,12.73354,-1.312634,BF-11,,
-1725212,-2419019,settlement,Yaya,Yaya,official,12.716667,-2.783333,BF-01,,
-1725089,-2418878,settlement,Yakin,Yakin,official,11.8,-1.15,BF-07,,
-1725458,-2419312,settlement,Zémouapare,Zemouapare,official,10.216667,-2.833333,BF-13,,
-1725605,-2411411,settlement,Jimbara,Jimbara,variant,12.883333,-3.15,BF-01,,
-1725141,-2418938,settlement,Yandaga,Yandaga,official,12.881123,-1.007795,BF-05,,
-1725620,-2419491,settlement,Zyiliwèlè,Zyiliwele,official,12.383333,-2.733333,BF-06,,
-1725115,-2418906,settlement,Yallé,Yalle,official,13.37131,-2.276575,BF-10,,
-1725373,-2416119,settlement,Sambo,Sambo,variant,10.81062012,-2.99474804,BF-13,,
-1725534,-2419399,settlement,Zinyé,Zinye,official,12.25,-0.6,BF-11,,
-1725101,-2418849,settlement,Yabasso,Yabasso,variant,11.2,-3.9,BF-09,,
-1725241,-2419056,settlement,Yènsèndini,Yensendini,official,12.016667,0.2,BF-08,,
-1725344,-2419176,settlement,Zadierla,Zadierla,official,11.848339,-5.096083,BF-09,,
-1725072,-2418858,settlement,Yadoumyéla,Yadoumyela,official,12.75,-2.466667,BF-10,,
-1725394,-2419236,settlement,Zanfara,Zanfara,official,11.753088,-5.014802,BF-09,,
-1725496,-2419357,spot,Ziguibéri,Ziguiberi,official,14.708166,-0.031783,BF-12,,
-1725434,-2419285,settlement,Zébékaha,Zebekaha,official,10.466667,-5.35,BF-02,,
-1725043,-2418824,settlement,Woré,Wore,variant,13.21193,-2.625776,BF-01,,
-1725224,-2419036,settlement,Yélenbidou,Yelenbidou,official,12.816667,-0.216667,BF-000,,
-1725087,-2418876,settlement,Yaké,Yake,official,12.944396,-1.710168,BF-10,,
-1725279,-2419098,settlement,Yitenga,Yitenga,official,12.933333,-0.283333,BF-08,,
-1725511,9047372,settlement,Sabsen,Sabsen,variant,12.10507,-1.551269,BF-07,,
-1725358,-2419194,settlement,Zakouré,Zakoure,official,12.67512,-1.561786,BF-11,,
-1725349,-2419300,settlement,Zehotoulo,Zehotoulo,variant,12.329241,-1.625655,BF-03,,
-1725512,18998283,settlement,Zimyalogué,Zimyalogue,variant,12.852327,-1.797512,BF-11,,
-1725069,-2418855,hydrographic,Yabouinia,Yabouinia,official,10.533333,-5.083333,BF-02,,
-1725382,-2419222,settlement,Zamsé,Zamse,official,12.366667,-0.366667,BF-04,,
-1725552,-2419417,settlement,Zolo,Zolo,official,12.8,-2.566667,BF-06,,
-1725492,-2419353,settlement,"Zigla Pakala","Zigla Pakala",official,11.75,-0.583333,BF-04,,
-1725156,18976903,settlement,Yaoghin,Yaoghin,official,12.329803,-1.607336,BF-03,,
-1725612,-2414768,settlement,Noungou,Noungou,variant,12.144408,-0.531688,BF-11,,
-1725392,-2419233,settlement,Zandkom,Zandkom,official,13.140714,-1.552599,BF-05,,
-1725199,-2419003,settlement,Yarogo,Yarogo,variant,12.841606,-1.535298,BF-11,,
-1725455,-2419309,settlement,Zélemsondé,Zelemsonde,official,13.563168,-0.474246,BF-05,,
-1725375,-2419212,settlement,Zamé,Zame,official,11.083333,-0.566667,BF-04,,
-1725200,-2419004,settlement,Yarogo,Yarogo,official,12.883333,-2.466667,BF-10,,
-1725220,-2419031,settlement,Yéguéresso,Yegueresso,official,11.155005,-4.156216,BF-09,,
-1725490,-2419351,settlement,Zigla,Zigla,official,11.65,-1.016667,BF-07,,
-1725029,-2418802,settlement,Wizini,Wizini,variant,10.92904057,-2.85086683,BF-13,,
-1725213,-2419022,settlement,Yazougou,Yazougou,official,13.33411,-0.090233,BF-08,,
-1725541,-2419406,settlement,Zitenga,Zitenga,official,12.74846,-1.309893,BF-11,,
-1725437,18997051,settlement,"Zéguédéguen I","Zeguedeguen I",official,12.788527,-1.891592,BF-11,,
-1725473,-2419330,settlement,Zétenga,Zetenga,variant,12.066771,-1.421336,BF-07,,
-1725457,-2419311,settlement,Zélougou,Zelougou,official,11.133333,-0.633333,BF-04,,
-1725097,-2418888,settlement,Yakzougou,Yakzougou,official,12.5,-2.183333,BF-06,,
-1725324,-2419147,settlement,Youken,Youken,official,12.216667,-0.05,BF-08,,
-1725531,-2419396,settlement,Zinou,Zinou,official,11.866667,-2.283333,BF-06,,
-1725084,-2418872,settlement,Yakabé,Yakabe,official,12.283333,-0.2,BF-000,,
-1725167,-2418970,settlement,Yaran,Yaran,official,13.428,-4.0018,BF-01,,
-1725307,18977321,settlement,Yorgo-Kossyama,Yorgo-Kossyama,variant,12.304567,-1.504424,BF-03,,
-1725088,-2418877,settlement,Yakin,Yakin,official,11.633333,-1.15,BF-07,,
-1725329,-2419152,settlement,Youlou,Youlou,official,12.283333,-2.9,BF-01,,
-1725480,-2419339,settlement,Zibri,Zibri,official,12.624946,-1.008226,BF-11,,
-1725370,-2419206,hydrographic,Zambalaga,Zambalaga,official,11.2,-0.266667,BF-000,,
-1725503,-2419366,settlement,Zimidi,Zimidi,official,12.8,-2.7,BF-000,,
-1725111,-2418902,hydrographic,Yali,Yali,official,13.523373,0.447669,BF-12,,
-1725159,-2418959,settlement,Yaogo,Yaogo,official,12.566364,1.299294,BF-08,,
-1725373,-2419209,settlement,Zambo,Zambo,official,10.81062012,-2.99474804,BF-13,,
-1725320,-2419142,settlement,Yougounini,Yougounini,official,13.275954,-1.642168,BF-05,,
-1725233,-2419048,settlement,Yemsende,Yemsende,official,13.375663,-1.867832,BF-10,,
-1725352,-2419186,settlement,Zaka,Zaka,official,11.966667,-0.016667,BF-08,,
-1725186,-2418990,settlement,Yargo,Yargo,official,13.398847,-2.604294,BF-10,,
-1725614,-2419485,settlement,Zoura,Zoura,official,13.282605,-1.47644,BF-05,,
-1725440,-2419291,settlement,Zéguédéga,Zeguedega,official,11.916667,-0.383333,BF-04,,
-1725042,19023018,hypsographic,Ouoré,Ouore,official,12.560748,-1.036927,BF-11,,
-1725301,-2419122,spot,Yongono,Yongono,official,14.087784,-2.58305,BF-10,,
-1725179,-2418983,settlement,Yargo,Yargo,official,12.266667,-0.433333,BF-04,,
-1725248,10528413,settlement,Yansa,Yansa,official,13.601289,-2.928041,BF-10,,
-1725164,-2419006,settlement,"Yaro Mokho","Yaro Mokho",variant,11.788227,-3.29249,BF-01,,
-1725577,-2419442,settlement,Zoongo,Zoongo,official,12.85,-0.583333,BF-05,,
-1725476,-2419333,spot,"Zèy Bala","Zey Bala",official,14.98215,-0.614964,BF-12,,
-1725391,-2419232,settlement,Zandékaha,Zandekaha,official,10.616667,-5.2,BF-02,,
-1725591,-2419459,settlement,Zougo,Zougo,official,12.8,-2.633333,BF-10,,
-1725154,18991301,settlement,Yaoguin,Yaoguin,variant,12.193766,-1.762789,BF-03,,
-1725255,-2419072,settlement,Yérégane,Yeregane,official,11.2,-3.05,BF-13,,
-1725068,10533675,settlement,Yabonsongo,Yabonsongo,official,13.657429,-2.401205,BF-10,,
-1725257,-2419076,settlement,Yériba,Yeriba,official,11.466667,-0.633333,BF-07,,
-1725608,-2419479,settlement,Zoundi,Zoundi,official,12.739718,-1.515222,BF-11,,
-1725275,-2419094,settlement,Yirané,Yirane,official,12.713616,-1.208925,BF-11,,
-1725437,18998377,settlement,Zéguédéguin,Zeguedeguin,variant,12.788527,-1.891592,BF-11,,
-1725593,-2419461,settlement,Zougouma,Zougouma,variant,13.914085,-2.24711,BF-10,,
-1725330,-2419153,settlement,Youloupo,Youloupo,official,12.566667,-2.75,BF-000,,
-1725337,-2419168,settlement,Zaba,Zaba,official,12.783333,-3.2,BF-01,,
-1725325,-2419148,hydrographic,Youkoa,Youkoa,official,10.75,-5.116667,BF-000,,
-1725507,-2419370,settlement,Zimkouri,Zimkouri,official,12.85,-0.516667,BF-05,,
-1725447,-2419299,settlement,Zéguédessé,Zeguedesse,variant,12.24661,-1.584023,BF-03,,
-1725505,-2419368,settlement,Zimiouzou,Zimiouzou,official,12.716667,-2.2,BF-10,,
-1725166,-2418969,settlement,Yaran,Yaran,official,12.966667,-3.45,BF-01,,
-1725121,-2418908,settlement,Yalo,Yalo,variant,11.95,-1.916667,BF-07,,
-1725416,-2419261,settlement,Zaongo,Zaongo,official,12.916667,-0.583333,BF-05,,
-1725166,-2418966,settlement,Yara,Yara,variant,12.966667,-3.45,BF-01,,
-1725074,-2418860,settlement,Yagaha,Yagaha,official,13.417868,0.539478,BF-12,,
-1725389,-2419229,settlement,"Zana Mogo","Zana Mogo",official,13.751893,-1.688204,BF-05,,
-1725600,-2419470,settlement,Zouloumtenga,Zouloumtenga,official,12.85,-0.983333,BF-05,,
-1725336,-2419161,settlement,Yoyou,Yoyou,official,11.733333,-2.516667,BF-06,,
-1725177,-2418981,settlement,Yargo,Yargo,official,12.216667,-2.083333,BF-06,,
-1725169,-2418972,settlement,Yarébila,Yarebila,official,12.816667,-2,BF-10,,
-1725611,-2419482,settlement,Zoungo,Zoungo,official,13.286748,-1.146359,BF-05,,
-1725357,-2419187,settlement,Zaka,Zaka,variant,12.033333,-0.15,BF-04,,
-1725400,-2419242,settlement,Zangélita,Zangelita,variant,12.940087,-1.468009,BF-05,,
-1725083,-2418871,settlement,Yaka,Yaka,official,13.390291,-1.268269,BF-05,,
-1725299,-2419120,settlement,Yona,Yona,official,11.966667,-3.383333,BF-01,,
-1725223,-2419035,settlement,Yelémbassé,Yelembasse,official,12.35,-0.283333,BF-04,,
-1725209,-2419015,settlement,Yatako,Yatako,official,14.051427,0.357109,BF-12,,
-1725184,-2418988,settlement,Yargo,Yargo,official,13.050971,-1.374968,BF-05,,
-1725401,18982485,settlement,Zanghindiéssé,Zanghindiesse,official,12.364715,-1.710607,BF-03,,
-1725467,-2419322,settlement,Zérébougou,Zerebougou,official,11,-0.583333,BF-04,,
-1725421,-2419268,settlement,Zarabili,Zarabili,official,11.783333,-1.216667,BF-07,,
-1725197,-2419001,settlement,Yarogo,Yarogo,official,11.816667,-1.283333,BF-07,,
-1725137,-2418933,settlement,Yamotenga,Yamotenga,official,12.566667,-0.8,BF-11,,
-1725617,-2419488,settlement,Zourtenga,Zourtenga,official,12.957407,-1.287452,BF-05,,
-1725110,-2418901,settlement,Yalgo,Yalgo,variant,12.949776,-1.264722,BF-05,,
-1725127,-2418922,settlement,Yama,Yama,official,13.39675,0.925281,BF-12,,
-1725157,-2418957,settlement,Yaogen,Yaogen,variant,12.602677,-1.352773,BF-11,,
-1725277,-2411380,settlement,Irim,Irim,variant,13.25199,-1.777702,BF-10,,
-1725317,-2419139,settlement,Youdoutenga,Youdoutenga,variant,12.002892,-1.414802,BF-07,,
-1725286,-2419106,settlement,Yoba,Yoba,official,13.425372,-1.814385,BF-05,,
-1725438,-2419289,settlement,Zégédégen,Zegedegen,variant,12.973676,-1.406037,BF-05,,
-1725489,19040096,park,"Forêt de Ziga","Foret de Ziga",variant,12.471058,-1.086438,BF-11,,
-1725532,-2419397,settlement,Zintenga,Zintenga,official,11.833333,-0.766667,BF-04,,
-1725222,-2419033,settlement,Yelbissi,Yelbissi,official,11,-0.766667,BF-07,,
-1725401,126767,settlement,Zanguendiessé,Zanguendiesse,variant,12.364715,-1.710607,BF-03,,
-1725417,-2419262,settlement,Zaoro,Zaoro,official,12.15,-0.283333,BF-04,,
-1725157,19016306,settlement,Yaoghin,Yaoghin,official,12.602677,-1.352773,BF-11,,
-1725108,9177328,settlement,Yalgo,Yalgo,official,13.583333,-0.266667,BF-05,,
-1725116,-2418907,settlement,Yallo,Yallo,official,12.983333,-3.933333,BF-01,,
-1725060,-2418843,settlement,Woyboyré,Woyboyre,official,12.783333,-0.016667,BF-08,,
-1725461,-2419315,settlement,Zemtoéga,Zemtoega,official,11.766667,-1.283333,BF-07,,
-1725048,-2415115,park,"Forêt Classée de Ouoro","Foret Classee de Ouoro",variant,12.35,-2.933333,BF-000,,
-1725076,-2418862,settlement,Yagou,Yagou,official,12.233333,0.35,BF-08,,
-1725191,-2418995,settlement,Yarka,Yarka,variant,13.442436,-2.499305,BF-10,,
-1725402,-2419245,settlement,Zangogo,Zangogo,official,11.766667,-1.383333,BF-07,,
-1725285,-2419105,settlement,Yoatenga,Yoatenga,official,12.333333,-0.283333,BF-04,,
-1725338,-2419169,settlement,Zabartanga,Zabartanga,official,12.8,-0.933333,BF-05,,
-1725489,-2419350,park,"Forêt Classée de Ziga","Foret Classee de Ziga",official,12.471058,-1.086438,BF-11,,
-1725077,-2418863,settlement,Yaguéma,Yaguema,official,12.40969,-1.624151,BF-03,,
-1725148,-2418949,settlement,Yankosso,Yankosso,variant,12.205812,-3.199342,BF-01,,
-1725080,-2419020,settlement,Yayika,Yayika,variant,12.2,-0.8,BF-11,,
-1725225,-2419038,settlement,Yéli,Yeli,official,12.6,-2.083333,BF-06,,
-1725463,-2419318,settlement,Zénion,Zenion,variant,11.866667,-2.483333,BF-06,,
-1725479,-2419338,settlement,Zibalko,Zibalko,variant,12.551324,-1.642051,BF-03,,
-1725388,-2419228,settlement,Zana,Zana,official,13.790243,-1.700291,BF-05,,
-1725099,-2418890,settlement,Yalanga,Yalanga,official,14.278458,-1.043581,BF-12,,
-1725340,-2419172,settlement,Zabga,Zabga,official,12.85,-0.533333,BF-05,,
-1725296,-2419117,settlement,Yolontéra,Yolontera,official,10.3,-2.966667,BF-13,,
-1725436,-2419287,settlement,Zégédégen,Zegedegen,variant,12.791762,-1.732747,BF-11,,
-1725067,-2418853,settlement,Yabogo,Yabogo,official,13.375514,-2.568491,BF-10,,
-1725295,-2419116,settlement,Yolonioro,Yolonioro,official,10.733333,-3.4,BF-13,,
-1725266,-2419085,settlement,Yikoudgo,Yikoudgo,official,13.097622,-1.494078,BF-05,,
-1725199,18994402,settlement,Mesma,Mesma,variant,12.841606,-1.535298,BF-11,,
-1725170,-2418973,hypsographic,"Séno Yarèndi","Seno Yarendi",official,14.805049,-0.773941,BF-12,,
-1725260,-2419079,settlement,Yérimbandi,Yerimbandi,official,12.35222,1.402641,BF-08,,
-1725561,-2419426,settlement,Zonankui,Zonankui,official,12.683333,-3.583333,BF-01,,
-1725597,-2419466,settlement,Zoula,Zoula,official,12.25,-2.466667,BF-06,,
-1725124,-2418919,settlement,Yalroueougo,Yalroueougo,variant,12.908223,-1.006473,BF-05,,
-1725155,-2418963,settlement,Yaorin,Yaorin,variant,12.233333,-2.1,BF-06,,
-1725380,-2419217,settlement,Zamnogo,Zamnogo,variant,12.209952,-1.553858,BF-03,,
-1725517,-2416668,settlement,Sindiguessé,Sindiguesse,variant,13.286039,-2.372952,BF-10,,
-1725312,-2419134,settlement,Youba,Youba,official,12.733333,-0.933333,BF-05,,
-1725587,-2419452,settlement,Zoro,Zoro,official,11.1,-2.05,BF-06,,
-1725334,-2413687,settlement,Mantiankui,Mantiankui,variant,13.1247,-4.3111,BF-01,,
-1725428,-2419275,settlement,Zargomé,Zargome,official,11.633333,-0.016667,BF-04,,
-1725086,-2418875,settlement,Yaké,Yake,official,12.928763,-1.759256,BF-10,,
-1725292,-2419113,settlement,Yoldétéoun,Yoldeteoun,official,9.85,-2.933333,BF-13,,
-1725452,-2419306,settlement,Zékounga,Zekounga,official,12.389673,-1.675319,BF-03,,
-1725566,-2419431,settlement,Zongo,Zongo,official,13.424596,-1.225065,BF-05,,
-1725316,19019192,settlement,Youbitenga,Youbitenga,official,12.844231,-1.451411,BF-11,,
-1725037,-2418816,settlement,Wolopékaha,Wolopekaha,official,10.7,-5.383333,BF-02,,
-1725063,-2418847,settlement,Yabansé,Yabanse,official,11.15,-0.683333,BF-04,,
-1725040,-2418821,settlement,Wono,Wono,variant,13.044653,-2.123698,BF-10,,
-1725580,-2419445,settlement,Zorga,Zorga,official,13.020017,-0.668172,BF-05,,
-1725129,-2418924,hydrographic,Yamako,Yamako,official,11.933333,-1.033333,BF-000,,
-1725551,-2419416,settlement,Zolo,Zolo,official,10.816667,-3.05,BF-13,,
-1725610,20331939,administrative_region,Zoundwéogo,Zoundweogo,official,11.583333,-1,BF-07,,
-1725322,-2419144,settlement,Yougoupyongou,Yougoupyongou,official,12.383333,-0.1,BF-08,,
-1725128,-2418923,settlement,Yamagyo,Yamagyo,official,12.6,-2.6,BF-06,,
-1725573,-2419438,settlement,Zono,Zono,official,10.416667,-3.566667,BF-13,,
-1725277,-2419096,settlement,Yirim,Yirim,official,13.25199,-1.777702,BF-10,,
-1725558,-2419423,settlement,Zomouna,Zomouna,official,11.2,-2.466667,BF-06,,
-1725447,18986811,settlement,Zéguédéssé,Zeguedesse,variant,12.24661,-1.584023,BF-03,,
-1725365,-2419201,settlement,Zam,Zam,official,12.35,-0.816667,BF-11,,
-1725168,-2418971,settlement,Yarayé,Yaraye,official,13.2123,-4.2199,BF-01,,
-1725501,-2409696,settlement,Diamen,Diamen,variant,12.666667,-3.616667,BF-01,,
-1725426,-2419273,settlement,Zarfi,Zarfi,official,11.166667,-0.016667,BF-04,,
-1725508,-2419371,settlement,Zimmba,Zimmba,variant,13.504795,-2.43669,BF-10,,
-1725357,-2419192,settlement,Zako,Zako,official,12.033333,-0.15,BF-04,,
-1725335,-2419160,settlement,Yoyo,Yoyo,official,11.183333,-0.016667,BF-04,,
-1725248,-2419063,settlement,Yenza,Yenza,variant,13.601289,-2.928041,BF-10,,
-1725479,18998107,settlement,Ziboko,Ziboko,variant,12.551324,-1.642051,BF-03,,
-1725046,-2418827,settlement,Woro,Woro,official,12.35,-2.9,BF-01,,
-1725604,-2419474,settlement,Zouma,Zouma,official,13.335426,-2.055111,BF-10,,
-1725306,-2419127,settlement,"Yorgo Dar Salam","Yorgo Dar Salam",variant,12.361456,-1.639087,BF-03,,
-1725369,-2419205,settlement,Zambalaga,Zambalaga,official,11.316667,-0.316667,BF-04,,
-1725323,-2419146,settlement,Yougui,Yougui,official,12.666667,-0.25,BF-05,,
-1725174,-2418978,settlement,Yargo,Yargo,official,11.816667,-1.15,BF-07,,
-1725356,-2419191,settlement,Zaken,Zaken,variant,12.357929,-1.372204,BF-03,,
-1725558,-2419254,settlement,Zanouna,Zanouna,variant,11.2,-2.466667,BF-06,,
-1725594,-2419463,settlement,Zougoungo,Zougoungo,official,13.048205,-2.218699,BF-10,,
-1725380,18984098,settlement,Zamnongho,Zamnongho,official,12.209952,-1.553858,BF-03,,
-1725430,-2419279,settlement,Zavara,Zavara,official,11.5,-1.883333,BF-06,,
-1725318,-2419140,settlement,Youga,Youga,official,11.065371,-0.451962,BF-04,,
-1725201,-2419005,settlement,Yarogo,Yarogo,variant,12.964153,-1.917831,BF-10,,
-1725466,-2419321,settlement,Zéoulé,Zeoule,official,12.266667,-3.533333,BF-01,,
-1725259,-2419078,settlement,Yérifoula,Yerifoula,official,10.466667,-3.583333,BF-13,,
-1725276,-2419095,settlement,Yiribou,Yiribou,variant,13.519212,-2.150778,BF-10,,
-1725245,-2419060,hydrographic,"Yèntougoy Ekio","Yentougoy Ekio",official,14.32613,0.143795,BF-12,,
-1725326,-2419149,settlement,Youkouka,Youkouka,official,11.05,-0.5,BF-04,,
-1725585,-2419450,hydrographic,Zori,Zori,official,11.3,-3.95,BF-000,,
-1725196,18988459,settlement,Yaroguin,Yaroguin,official,12.393886,-1.983856,BF-11,,
-1725148,-2418946,settlement,Yangasso,Yangasso,variant,12.205812,-3.199342,BF-01,,
-1725101,-2418848,settlement,Yabaso,Yabaso,variant,11.2,-3.9,BF-09,,
-1725268,-2419087,settlement,Yikoudougo,Yikoudougo,official,12.433333,-0.716667,BF-11,,
-1725460,-2419314,settlement,Zèmpasgo,Zempasgo,official,12.25,-0.733333,BF-11,,
-1725349,-2419182,settlement,Zagtouli,Zagtouli,official,12.329241,-1.625655,BF-03,,
-1725244,-2419059,settlement,Yèntènga,Yentenga,official,12.033333,-0.066667,BF-08,,
-1725386,18989641,settlement,Zamren,Zamren,official,12.209323,-1.943559,BF-06,,
-1725444,9177385,settlement,Zeguedeghen,Zeguedeghen,variant,12.957351,-0.454988,BF-05,,
-1725481,-2419340,hydrographic,"Zibri Koulibila","Zibri Koulibila",official,12.625701,-1.049291,BF-11,,
-1725175,-2418979,settlement,Yargo,Yargo,official,12.066667,-0.283333,BF-04,,
-1725493,-2419354,settlement,"Zigla Polosé","Zigla Polose",official,11.7,-0.633333,BF-04,,
-1725586,-2419451,settlement,Zorkoum,Zorkoum,official,13.148883,-1.165842,BF-05,,
-1725477,10534074,settlement,Zambélé,Zambele,official,13.014244,-2.214259,BF-10,,
-1725133,-2418928,settlement,Yamba,Yamba,variant,12.297449,0.338641,BF-08,,
-1725354,-2419189,settlement,Zaké,Zake,official,12.183333,-2.416667,BF-06,,
-1725504,-2419367,settlement,Zimidou,Zimidou,official,13.18678,-1.262298,BF-05,,
-1725271,-2419090,settlement,Yilou,Yilou,official,13.011279,-1.54665,BF-05,,
-1725345,-2419177,settlement,Zado,Zado,official,12.133333,-2.666667,BF-06,,
-1725098,-2418889,settlement,Yalaga,Yalaga,variant,13.863112,-2.25399305,BF-10,,
-1725132,-2418927,settlement,Yamanyé,Yamanye,official,13.18377,-1.733042,BF-05,,
-1725509,-2419372,settlement,Zimou,Zimou,official,13.085371,-2.911401,BF-01,,
-1725085,-2418873,settlement,Yakala,Yakala,official,11.516667,-0.716667,BF-07,,
-1725515,-2419378,settlement,Zinado,Zinado,official,12.183333,-0.666667,BF-11,,
-1725360,-2419196,settlement,Zakui,Zakui,official,13.0369,-4.1495,BF-01,,
-1725385,-2419219,settlement,Zamoé,Zamoe,variant,12.002457,-1.291993,BF-07,,
-1725444,-2419294,settlement,Zéguédéguen,Zeguedeguen,official,12.957351,-0.454988,BF-05,,
-1725178,-2418982,settlement,Yargo,Yargo,official,12.233333,-0.366667,BF-04,,
-1725470,-2419327,settlement,Zerkoum,Zerkoum,official,12.383333,-2.066667,BF-06,,
-1725048,-2418830,park,"Forêt Classée de Woro","Foret Classee de Woro",official,12.35,-2.933333,BF-000,,
-1725130,-2418925,settlement,Yamana,Yamana,official,12.810657,-1.320256,BF-11,,
-1725525,-2419390,settlement,Zinigen,Zinigen,official,13,-2.283333,BF-10,,
-1725557,-2419422,settlement,Zomnogo,Zomnogo,official,13.251118,-0.457823,BF-05,,
-1725158,19023286,settlement,Yaoguin,Yaoguin,variant,12.790311,-1.027456,BF-05,,
-1725469,-2419326,settlement,Zerkom,Zerkom,official,12.236159,-1.953171,BF-06,,
-1725512,18994152,settlement,Saben,Saben,official,12.852327,-1.797512,BF-11,,
-1725105,-2418896,hypsographic,Yaléma,Yalema,official,14.626498,-1.245652,BF-12,,
-1725123,-2418917,settlement,Yaloré,Yalore,official,13.236637,-0.435131,BF-05,,
-1725189,-2418993,settlement,Yargou,Yargou,official,12.683333,0.483333,BF-08,,
-1725452,-2419193,settlement,Zakou,Zakou,variant,12.389673,-1.675319,BF-03,,
-1725107,-2418898,settlement,Yalga,Yalga,official,13.485381,0.705227,BF-12,,
-1725572,-2419437,spot,Zonkom,Zonkom,official,14.60803,0.043391,BF-12,,
-1725595,-2419464,settlement,Zougountenga,Zougountenga,official,13.435277,-0.61691,BF-05,,
-1725031,-2418805,settlement,Wobzonguen,Wobzonguen,official,12.083333,-0.066667,BF-04,,
-1725207,-2419013,settlement,Yartenga,Yartenga,official,11.716667,-0.15,BF-04,,
-1725139,-2418935,settlement,Yamtenga,Yamtenga,official,12.348489,-1.447664,BF-03,,
-1725526,-2419391,settlement,Zinigma,Zinigma,official,13.409046,-1.718026,BF-05,,
-1725367,-2419203,hydrographic,Zamarkoy,Zamarkoy,official,14.829,-0.5187,BF-12,,
-1725158,-2418958,settlement,Yaogen,Yaogen,variant,12.790311,-1.027456,BF-05,,
-1725517,-2419382,settlement,Zindiguessé,Zindiguesse,official,13.286039,-2.372952,BF-10,,
-1725501,-2419363,settlement,Zimasso,Zimasso,official,12.666667,-3.616667,BF-01,,
-1725484,-2419345,hypsographic,"Ziénème Tanga","Zieneme Tanga",variant,13.714113,-2.623781,BF-10,,
-1725163,-2418965,settlement,Yapala,Yapala,official,11.083333,-0.483333,BF-04,,
-1725182,-2418986,settlement,Yargo,Yargo,official,12.65,-0.583333,BF-05,,
-1725280,-2419099,settlement,Yô,Yo,official,11.05,-3.05,BF-13,,
-1725599,-2419469,hydrographic,Zoulougou,Zoulougou,official,12.116667,-1.983333,BF-000,,
-1725429,-2419276,settlement,Zarzen,Zarzen,variant,12.110086,-1.313769,BF-07,,
-1725601,-2419471,settlement,Zoum,Zoum,official,12.766667,-3.983333,BF-01,,
-1725386,18989642,settlement,Zamzin,Zamzin,variant,12.209323,-1.943559,BF-06,,
-1725506,-2419369,settlement,Zimkorom,Zimkorom,official,12.4,-0.166667,BF-04,,
-1725403,-2419246,settlement,Zangogo,Zangogo,official,11.866667,-1.2,BF-07,,
-1725435,-2419286,settlement,Zécco,Zecco,official,11.033333,-0.85,BF-07,,
-1725488,-2419349,settlement,Ziga,Ziga,official,13.416039,-2.31252,BF-10,,
-1725511,9047463,settlement,Sabsin,Sabsin,official,12.10507,-1.551269,BF-07,,
-1725459,-2419313,settlement,Zémpana,Zempana,official,12.8,-3.5,BF-01,,
-1725498,-2419359,settlement,Zikomtenga,Zikomtenga,official,12.239401,-1.455203,BF-03,,
-1725247,-2419062,settlement,Yenvédougou,Yenvedougou,official,12.933333,-3.966667,BF-01,,
-1725371,-2419207,settlement,Zambanaga,Zambanaga,official,12.234494,-1.682077,BF-03,,
-1725328,-2419151,settlement,Youlo,Youlo,official,10.583333,-3.083333,BF-13,,
-1725235,-2419050,settlement,Yendéré,Yendere,official,10.2,-4.966667,BF-02,,
-1725540,-2419405,settlement,Zisségré,Zissegre,official,12.666667,-0.383333,BF-05,,
-1725228,-2419041,settlement,Yélintara,Yelintara,official,9.983333,-3.416667,BF-13,,
-1725429,19031336,settlement,Zarsen,Zarsen,variant,12.110086,-1.313769,BF-07,,
-1725196,-2419000,settlement,Yarogen,Yarogen,variant,12.393886,-1.983856,BF-11,,
-1725422,-2419269,settlement,Zarahougo,Zarahougo,official,11.883333,-1.283333,BF-07,,
-1725136,-2418931,settlement,Yamganguen,Yamganguen,official,12.066667,-0.433333,BF-11,,
-1725246,-2419061,settlement,Yèntyaori,Yentyaori,official,13.021325,0.142374,BF-08,,
-1725290,-2419111,settlement,Yoi,Yoi,official,13.807201,0.123166,BF-12,,
-1725187,-2418991,settlement,Yargo,Yargo,official,13.467347,-1.555194,BF-05,,
-1725171,-2418974,settlement,Yaréyoumé,Yareyoume,official,12.3,-0.066667,BF-08,,
-1725473,19031499,settlement,Gounghin,Gounghin,official,12.066771,-1.421336,BF-07,,
-1725154,18989795,settlement,Yaoguen,Yaoguen,variant,12.193766,-1.762789,BF-03,,
-1725144,18998617,settlement,Yanégué,Yanegue,variant,12.595069,-1.514925,BF-11,,
-1725062,-2418846,settlement,Yaba,Yaba,official,12.870285,-2.857128,BF-01,,
-1725536,-2419401,settlement,Ziou,Ziou,official,11.036111,-0.779167,BF-07,,
-1725578,-2419443,settlement,Zorbo,Zorbo,official,13.532701,-0.978236,BF-05,,
-1725054,10531405,settlement,"Ouokinga Ouobilo","Ouokinga Ouobilo",official,13.642695,-2.670002,BF-10,,
-1725483,-2419342,settlement,Ziédougou,Ziedougou,official,10.416667,-5.05,BF-02,,
-1725331,-2419155,settlement,Youmbara,Youmbara,official,10.516667,-3.1,BF-13,,
-1725049,19031940,settlement,Ouorobgo,Ouorobgo,variant,12.070616,-1.244294,BF-07,,
-1725432,-2419282,settlement,Zawara,Zawara,official,11.783333,-2.583333,BF-06,,
-1725091,-2418880,settlement,Yako,Yako,official,12.959101,-2.260746,BF-10,,
-1725341,-2419173,settlement,Zablou,Zablou,official,13.140776,-1.123026,BF-05,,
-1725161,-2418961,settlement,Yaongo,Yaongo,official,12.62182,-0.264693,BF-05,,
-1725094,-2418883,hydrographic,Yakouba,Yakouba,official,11.460451,-4.270945,BF-09,,
-1725040,10534212,settlement,Ouonon,Ouonon,official,13.044653,-2.123698,BF-10,,
-1725316,-2419138,settlement,Youbilinga,Youbilinga,variant,12.844231,-1.451411,BF-11,,
-1725100,-2418891,settlement,Yalankoro,Yalankoro,official,13.2683,-3.9172,BF-01,,
-1725499,-2419360,settlement,Zilaoro,Zilaoro,official,13.03309,-1.886294,BF-10,,
-1725034,-2418809,settlement,Wolankoto,Wolankoto,official,11.289872,-4.368685,BF-09,,
-1725463,-2419317,settlement,Zénin,Zenin,official,11.866667,-2.483333,BF-06,,
-1725154,-2418954,settlement,Yaogen,Yaogen,variant,12.193766,-1.762789,BF-03,,
-1725256,-2419075,settlement,Yèrgué,Yergue,official,14.08045,-2.191117,BF-10,,
-1725456,-2419310,settlement,Zélogo,Zelogo,official,10.966667,-0.883333,BF-07,,
-1725108,-2418899,settlement,Yalgho,Yalgho,variant,13.583333,-0.266667,BF-05,,
-1725355,-2419190,settlement,Zaken,Zaken,official,12.3,-2.333333,BF-06,,
-1725090,-2418879,settlement,Yakin,Yakin,official,11.997068,-1.561801,BF-07,,
-1725201,18993942,settlement,Yargo,Yargo,official,12.964153,-1.917831,BF-10,,
-1725351,-2419185,settlement,Zainzain,Zainzain,official,11.2,-0.35,BF-04,,
-1725308,-2419129,settlement,Yoro,Yoro,official,11.066667,-2.366667,BF-06,,
-1725487,-2419348,settlement,Ziga,Ziga,official,12.610746,-0.833114,BF-05,,
-1725191,10532568,settlement,Yalka,Yalka,official,13.442436,-2.499305,BF-10,,
-1725155,-2418955,settlement,Yaogen,Yaogen,official,12.233333,-2.1,BF-06,,
-1725347,19023290,settlement,Zagadéssin,Zagadessin,variant,12.721775,-1.460861,BF-11,,
-1725474,-2419331,settlement,Zétgomdé,Zetgomde,official,12.5,-0.716667,BF-11,,
-1725605,-2419475,settlement,Zoumbara,Zoumbara,official,12.883333,-3.15,BF-01,,
-1725281,-2419100,settlement,Yo,Yo,official,11.25,-0.966667,BF-07,,
-1725539,-2419404,settlement,Ziré,Zire,official,13.273276,-2.11149,BF-10,,
-1725495,-2419356,settlement,Ziguénoguen,Ziguenoguen,official,12.333333,-0.716667,BF-11,,
-1725150,-2418950,settlement,Yansaré,Yansare,official,12.094811,-1.435151,BF-07,,
-1725418,-2419264,settlement,Zaouna,Zaouna,official,13.066618,-1.538867,BF-05,,
-1725482,-2419341,settlement,Zibtenga,Zibtenga,official,12.883333,-0.9,BF-05,,
-1725479,-2419337,settlement,Zibako,Zibako,official,12.551324,-1.642051,BF-03,,
-1725521,-2419386,settlement,Zinguina,Zinguina,official,11.903471,-4.967878,BF-09,,
-1725439,-2419290,settlement,Zégèdnogo,Zegednogo,official,13.223381,-1.315842,BF-05,,
-1725256,-2419073,settlement,Yérègue,Yeregue,variant,14.08045,-2.191117,BF-10,,
-1725045,-2418826,settlement,Woro,Woro,official,12,-2.416667,BF-06,,
-1725307,127297,settlement,Yargo,Yargo,official,12.304567,-1.504424,BF-03,,
-1725160,-2418960,settlement,Yaogué,Yaogue,official,13.159968,-1.605291,BF-05,,
-1725432,-2409671,settlement,Diaberé,Diabere,variant,11.783333,-2.583333,BF-06,,
-1725438,19023027,settlement,Zéguédéguin,Zeguedeguin,variant,12.973676,-1.406037,BF-05,,
-1725471,-2419328,settlement,Zérounda,Zerounda,official,12.869848,-1.939154,BF-10,,
-1725432,-2419280,settlement,Zavera,Zavera,variant,11.783333,-2.583333,BF-06,,
-1725080,-2418868,settlement,Yaika,Yaika,official,12.2,-0.8,BF-11,,
-1725374,-2419211,settlement,Zamdogo,Zamdogo,official,13.081499,-2.020485,BF-10,,
-1725533,-2419398,settlement,Zintio,Zintio,official,11.316667,-3.2,BF-13,,
-1725485,-2419346,settlement,Ziga,Ziga,official,12.366667,-3.8,BF-01,,
-1725208,-2419014,settlement,Yasso,Yasso,official,12.363378,-4.029181,BF-01,,
-1725134,-2418929,settlement,Yamba,Yamba,official,12.522052,-1.498204,BF-03,,
-1725522,-2419362,settlement,Zimaré,Zimare,variant,12.581862,-1.297104,BF-11,,
-1725385,-2419225,settlement,Zamzé,Zamze,variant,12.002457,-1.291993,BF-07,,
-1725070,-2418856,settlement,Yactenga,Yactenga,variant,12.598345,-1.827064,BF-11,,
-1725619,-2419490,settlement,Zyanko,Zyanko,official,12.783333,-0.416667,BF-05,,
-1725236,-2419051,park,"Forêt Classée de Yendéré","Foret Classee de Yendere",official,10.15,-5.066667,BF-02,,
-1725516,-2419380,settlement,Zinaziélla,Zinaziella,official,11.233333,-0.65,BF-04,,
-1725562,-2419427,settlement,Zoner,Zoner,official,11.216667,-2.833333,BF-13,,
-1725198,-2419002,settlement,Yarogo,Yarogo,official,12.714106,-1.721303,BF-11,,
-1725114,-2418905,settlement,Yalkoum,Yalkoum,official,13.49276,-0.118756,BF-08,,
-1725030,-2418803,settlement,"Wizin Kpopéri",WizinKpoperi,variant,10.95288108,-2.86037195,BF-13,,
-1725321,-2419145,settlement,Yougpelsé,Yougpelse,variant,12.048579,-1.558636,BF-07,,
-1725314,18997240,settlement,Youbga,Youbga,official,12.773233,-1.701442,BF-11,,
-1725446,128898,settlement,Zengressé,Zengresse,official,12.209197,-1.381301,BF-03,,
-1725148,-2418947,settlement,Yankasso,Yankasso,official,12.205812,-3.199342,BF-01,,
-1725042,-2418823,hypsographic,Woré,Wore,variant,12.560748,-1.036927,BF-11,,
-1725433,10533689,settlement,Zay,Zay,variant,13.99614831,-2.37326424,BF-10,,
-1725450,-2419304,settlement,Zékémzougou,Zekemzougou,variant,12.315011,-1.919166,BF-06,,
-1725064,-2418850,settlement,Yabé,Yabe,official,11.583333,-3.783333,BF-09,,
-1725538,-2419403,settlement,Zipélé,Zipele,official,12.779652,-1.737374,BF-11,,
-1725556,-2419421,settlement,Zomnogo,Zomnogo,official,12.616667,-0.383333,BF-05,,
-1725520,-2419385,settlement,Zingédagen,Zingedagen,official,12.183333,-2.1,BF-06,,
-1725173,-2418976,settlement,Yargatenga,Yargatenga,official,11.2125,0.005278,BF-04,,
-1725237,-2419052,settlement,Yèndiboré,Yendibore,official,12.656676,1.974689,BF-08,,
-1725314,-2419136,settlement,Youbaga,Youbaga,variant,12.773233,-1.701442,BF-11,,
-1725342,-2419174,settlement,Zabo,Zabo,official,11.366667,-3.85,BF-09,,
-1725401,18991060,settlement,Zanguendyéssé,Zanguendyesse,variant,12.364715,-1.710607,BF-03,,
-1725431,-2419281,settlement,Zawadoro,Zawadoro,official,12.083333,-0.25,BF-04,,
-1725263,18993941,settlement,Zétégomdé,Zetegomde,official,12.95802,-1.95694,BF-10,,
-1725584,-2419449,settlement,Zorgongo,Zorgongo,official,12.266667,-0.8,BF-11,,
-1725398,19016423,settlement,Zangbéga,Zangbega,official,12.586431,-1.316358,BF-11,,
-1725055,-2418838,settlement,Woula,Woula,official,13.096,-4.0533,BF-01,,
-1725567,-2419432,hypsographic,Zongopika,Zongopika,official,12.216667,-0.633333,BF-11,,
-1725356,19026778,settlement,Zakin,Zakin,official,12.357929,-1.372204,BF-03,,
-1725517,-2419381,settlement,Zindigué,Zindigue,variant,13.286039,-2.372952,BF-10,,
-1723201,-2416638,settlement,Silmissi,Silmissi,variant,12.2094,-1.566881,BF-03,,
-1724364,-2418010,settlement,Tintoura,Tintoura,official,10.066667,-3.333333,BF-13,,
-1723460,-2416944,settlement,Soroden,Soroden,official,13.255405,-1.107686,BF-05,,
-1724235,10721148,hydrographic,"Tyékel Koutol","Tyekel Koutol",official,14.28525,0.167045,BF-12,,
-1724629,-2418325,settlement,"Touka Ouropila","Touka Ouropila",official,14.19879,-0.249081,BF-12,,
-1723144,-2416576,settlement,Siguinoguen,Siguinoguen,official,13.325129,-1.160114,BF-05,,
-1722790,-2416236,settlement,Sankpouéri,Sankpoueri,variant,12.433434,1.345257,BF-08,,
-1724094,-2417692,settlement,Tengo,Tengo,official,12.765785,-1.024286,BF-05,,
-1724786,-2418504,settlement,Tyo,Tyo,variant,12.864283,-1.819017,BF-11,,
-1723714,-2417259,settlement,Tampouré,Tampoure,official,12.8,-2.233333,BF-10,,
-1724417,-2418076,settlement,Tirpo,Tirpo,official,10.35,-2.983333,BF-13,,
-1723926,-2417497,settlement,Tanpor,Tanpor,official,9.883333,-2.916667,BF-13,,
-1723420,-2416902,settlement,Songnaba,Songnaba,official,12.716667,-0.8,BF-05,,
-1724493,-2418171,settlement,"Toï Yako","Toi Yako",official,11.766667,-0.933333,BF-07,,
-1724221,-2417837,spot,Tidmaren,Tidmaren,official,14.468189,-0.317666,BF-12,,
-1722985,-2416386,spot,Ségoum,Segoum,official,14.07364,-2.086857,BF-10,,
-1722929,-2416321,settlement,Sarédougou,Saredougou,official,11.159,-5.1875,BF-09,,
-1722997,-2416401,settlement,Séguénéga,Seguenega,official,13.441667,-1.966944,BF-10,,
-1724534,-2418220,settlement,Tongogodèn,Tongogoden,official,12.63829,2.017357,BF-08,,
-1723266,-2416716,settlement,Sio,Sio,official,11.95,-3.283333,BF-01,,
-1723464,-2416948,settlement,Sorogo,Sorogo,official,13.344499,-2.267638,BF-10,,
-1722952,-2416347,settlement,Saterna,Saterna,official,10.416667,-4.733333,BF-02,,
-1723365,-2417012,settlement,Soukouraba,Soukouraba,variant,10.85,-5.183333,BF-09,,
-1722942,-2416337,settlement,Sasa,Sasa,official,12.733333,-2.266667,BF-10,,
-1723457,18994126,settlement,Séguéden,Segueden,official,12.908324,-1.978903,BF-10,,
-1722848,-2416221,hypsographic,Sangyè,Sangye,official,12.333333,-2.566667,BF-06,,
-1723979,-2417557,settlement,Tanzéogo,Tanzeogo,official,13.1239,-1.460793,BF-05,,
-1723716,-2417262,settlement,Tampouy,Tampouy,official,12.127586,-1.674871,BF-03,,
-1723925,-2417496,settlement,Tanpogotenga,Tanpogotenga,official,13.216619,-0.567152,BF-05,,
-1724770,18994144,settlement,Tiéma,Tiema,official,12.890955,-1.87158,BF-10,,
-1723423,-2416906,settlement,Songo,Songo,official,11.110556,-1.063333,BF-07,,
-1724695,-2418395,settlement,Tourni,Tourni,variant,10.766667,-5.15,BF-02,,
-1723406,-2416884,settlement,Somyaléguèm,Somyaleguem,official,12.666667,-2.35,BF-10,,
-1722781,-2416143,settlement,Samohiri,Samohiri,variant,10.933333,-5.116667,BF-09,,
-1724625,-2418437,settlement,Tuka,Tuka,variant,14.187373,-0.23875,BF-12,,
-1724055,-2417729,settlement,Téré,Tere,variant,13.041447,-0.718076,BF-05,,
-1724164,-2417774,settlement,Tialgo,Tialgo,official,12.233333,-2.583333,BF-06,,
-1723694,19023288,settlement,Tamliguéssé,Tamliguesse,variant,12.672097,-1.023777,BF-11,,
-1723226,-2416667,settlement,Sindié,Sindie,variant,13.602634,-2.994387,BF-01,,
-1722800,-2416163,settlement,San,San,variant,11.553391,-4.995846,BF-09,,
-1723151,-2416571,settlement,Siguimououssi,Siguimououssi,variant,13.247087,-1.435615,BF-05,,
-1723413,-2416893,settlement,Sonaway,Sonaway,official,12.551693,-1.154526,BF-11,,
-1724661,-2418359,settlement,Toun,Toun,official,11.9,-3.65,BF-01,,
-1723383,-2416857,settlement,Solzi,Solzi,official,13.116084,-1.497427,BF-05,,
-1722830,-2416199,settlement,Sanga,Sanga,official,11.1,-2.016667,BF-06,,
-1723133,-2416562,settlement,Sigoré,Sigore,official,12.183333,-2.416667,BF-06,,
-1723695,10534073,settlement,Tampouré,Tampoure,official,13.068181,-2.211374,BF-10,,
-1724912,-2418666,hydrographic,Wanga,Wanga,official,13.4839,-0.232314,BF-08,,
-1723405,-2416883,settlement,Somtingré,Somtingre,official,13.089712,-2.032471,BF-10,,
-1724348,-2417994,settlement,Tinko,Tinko,official,10.583333,-3.133333,BF-13,,
-1722990,18977941,settlement,Séguédin,Seguedin,official,12.49372,-1.811501,BF-06,,
-1724170,-2417780,settlement,Tiankoura,Tiankoura,official,10.76634,-3.255875,BF-13,,
-1724195,-2417810,settlement,Tiben,Tiben,official,12.316667,-0.683333,BF-11,,
-1724893,-2418647,settlement,Waléme,Waleme,official,11.216667,-1.3,BF-07,,
-1724854,18991022,settlement,"Vossin Manéfyam","Vossin Manefyam",variant,12.472689,-1.743724,BF-11,,
-1723471,-2416957,settlement,Soroumbara,Soroumbara,official,10.483333,-3.166667,BF-13,,
-1723575,-2417094,settlement,Soussou,Soussou,official,13.518646,-2.351655,BF-10,,
-1722822,-2416191,settlement,Sandro,Sandro,variant,12.597577,-1.477798,BF-11,,
-1723574,-2417093,settlement,Soussié,Soussie,official,10.366667,-3.933333,BF-02,,
-1725028,-2418801,settlement,Witenga,Witenga,variant,12.790617,-1.748402,BF-11,,
-1724347,-2417993,settlement,Tinkiro,Tinkiro,official,10.116667,-3.416667,BF-13,,
-1724774,-2418492,settlement,Tyènkilibi,Tyenkilibi,official,12.595964,1.885755,BF-08,,
-1722770,-2416128,settlement,Samèné,Samene,official,13.930971,-2.561536,BF-10,,
-1724067,-2417661,settlement,"Télédougou Kanyi","Teledougou Kanyi",official,11,-5.083333,BF-09,,
-1724199,-2417814,settlement,Tiben,Tiben,official,12.866667,-0.733333,BF-05,,
-1723603,-2417134,settlement,Tadani,Tadani,official,13.484352,-0.106359,BF-08,,
-1724266,-2417897,settlement,Tiérékou,Tierekou,official,12.116667,-3.016667,BF-01,,
-1722988,18982482,settlement,Séguédin,Seguedin,official,12.34704,-1.742813,BF-03,,
-1722771,-2416129,settlement,Samétienga,Sametienga,official,13.536235,-2.313473,BF-10,,
-1723147,-2416579,settlement,Siguinvousé,Siguinvouse,variant,12.251328,-1.71248,BF-03,,
-1724994,-2418758,settlement,Wèndou,Wendou,official,14.03761,-0.063081,BF-12,,
-1723802,19017518,settlement,Tanguin,Tanguin,variant,12.993162,-1.225091,BF-05,,
-1723154,-2416586,settlement,Sihissène,Sihissene,variant,13.681131,-2.422333,BF-10,,
-1723881,18992039,settlement,Tanlilli,Tanlilli,official,12.639179,-1.824119,BF-11,,
-1724982,-2418746,settlement,"Wélé Wélé","Wele Wele",official,10.333333,-3.283333,BF-13,,
-1723813,-2417373,settlement,Tangouko,Tangouko,official,12.68808,-1.487262,BF-11,,
-1722938,-2416333,settlement,Sartenbilé,Sartenbile,official,12.616667,-0.733333,BF-11,,
-1724340,-2417984,settlement,Tinhira,Tinhira,official,9.966667,-3.166667,BF-13,,
-1723039,9190936,administrative_region,Séno,Seno,variant,13.916667,-0.05,BF-12,,
-1724850,19030527,park,"Forêt Classée du Nakambé","Foret Classee du Nakambe",variant,12.114943,-1.115467,BF-000,,
-1724872,-2418619,settlement,Wa,Wa,official,12.8619,-4.1874,BF-01,,
-1724642,-2418338,hydrographic,Toulfé,Toulfe,official,14.738967,-1.340565,S1-000,,
-1724049,-2417640,hypsographic,Téagou,Teagou,official,13.228671,0.199647,BF-08,,
-1724376,-2418026,settlement,Tiokpolotiona,Tiokpolotiona,official,10.133333,-3.283333,BF-13,,
-1724519,-2418201,settlement,Tomwaka,Tomwaka,official,13.317055,-1.754417,BF-05,,
-1724202,-2417913,settlement,Tigba,Tigba,variant,12.169167,0.0575,BF-08,,
-1722871,-2416249,settlement,Sanpiti,Sanpiti,official,12.43515,1.890497,BF-08,,
-1723300,-2416759,settlement,Sissilé,Sissile,official,13.184622,-2.745158,BF-01,,
-1723159,-2416591,settlement,Sikiré,Sikire,official,14.311551,-0.731552,BF-12,,
-1723663,18989169,settlement,Tambéten,Tambeten,variant,12.317735,-1.807565,BF-03,,
-1723175,-2416608,settlement,Silébilé,Silebile,official,13.493641,-0.784255,BF-05,,
-1723613,-2417144,hypsographic,Tagangal,Tagangal,official,14.988347,-0.006112,BF-12,,
-1724885,-2414912,settlement,Ouakirimabougou,Ouakirimabougou,variant,10.383333,-5.45,BF-02,,
-1722878,-2416257,settlement,Sanso,Sanso,official,12.766667,-3.85,BF-01,,
-1724511,-2418347,settlement,Touma,Touma,official,12.6415,-4.4015,BF-01,,
-1724838,-2418570,settlement,Vindifollo,Vindifollo,official,13.350565,0.691877,BF-12,,
-1722781,-2416142,settlement,Samogo-Iri,Samogo-Iri,variant,10.933333,-5.116667,BF-09,,
-1724505,-2418185,settlement,Tolkaboua,Tolkaboua,official,10.183333,-2.95,BF-13,,
-1723129,19022901,settlement,Sinioguen,Sinioguen,official,12.560635,-1.18917,BF-11,,
-1724828,-2418557,settlement,Vili,Vili,official,12.283333,-2.216667,BF-06,,
-1722774,-2416132,hydrographic,Sami,Sami,official,10.866667,-5.1,BF-000,,
-1723164,-2416596,settlement,Sikorosso,Sikorosso,official,12.183333,-3.166667,BF-01,,
