wgdPlaceId,wgdId,type,name,fullName,nameType,latitude,longitude,administrationGroup,isHistorical,isCapital
-3750740,-4988025,hypsographic,Antillen,Antillen,variant,18.733333,-69.15,S1-000,,
-3750740,-4988024,hypsographic,Antillas,Antillas,variant,18.733333,-69.15,S1-000,,
-3750740,-4988026,hypsographic,Antilles,Antilles,colloquial,18.733333,-69.15,S1-000,,
-1544444,-2196990,hypsographic,Antillas,Antillas,variant,19.383333,-71.216667,S1-000,,
-1544444,-2196991,hypsographic,Antilles,Antilles,variant,19.383333,-71.216667,S1-000,,
-1544444,-2199262,hypsographic,West-Indië,West-Indie,variant,19.383333,-71.216667,S1-000,,
-1544444,-2199263,hypsographic,"West Indies","West Indies",colloquial,19.383333,-71.216667,S1-000,,
-1360751,-1959211,hydrographic,"Salt Water River","Salt Water River",official,10.128578,-61.10089,TT-MRC,,
-1360954,-1959496,hypsographic,"Virgin Hill","Virgin Hill",official,10.120661,-61.080559,TT-MRC,,
-1359920,-1958096,settlement,Esperance,Esperance,official,10.246505,-61.452796,TT-PED,,
-1359823,-1957965,administrative_region,"Cunupia Ward","Cunupia Ward",variant,10.55,-61.333333,TT-CTT,,
-1360727,-1959164,settlement,"Saint Joseph","Saint Joseph",official,10.284479,-61.446972,TT-SFO,,
-1360190,-1958456,hydrographic,"La Tinta Bay","La Tinta Bay",official,10.682561,-61.759749,TT-DMN,,
-1360492,20032434,hydrographic,Oropuna,Oropuna,official,10.607713,-61.361362,TT-TUP,,
-1359796,-1959028,hydrographic,"Quare River","Quare River",variant,10.606251,-61.107088,TT-SGE,,
-1360116,-1958352,hydrographic,"Iguana Bay","Iguana Bay",official,11.339903,-60.544415,TT-TOB,,
-1360808,-1959284,hydrographic,"Serpents Mouth","Serpents Mouth",official,10.04549,-61.935507,TT-000,,
-1360719,-1959152,administrative_region,"Saint George West","Saint George West",variant,10.666667,-61.416667,TT-000,1,
-1360870,14629627,hydrographic,L’Etang,L'Etang,official,10.396474,-61.163141,TT-MRC,,
-1360228,-1958503,hydrographic,"Ravine Lizard","Ravine Lizard",variant,10.149904,-61.026094,TT-MRC,,
-1360843,20032369,hydrographic,Stetin,Stetin,official,11.289157,-60.672465,TT-TOB,,
-1360974,-1959523,park,"Windbelt Reserve","Windbelt Reserve",official,10.599885,-61.031518,TT-SGE,,
-1360746,-1959198,hypsographic,"Morne Salé","Morne Sale",official,10.780342,-61.28503,TT-TUP,,
-1360717,-1959183,hypsographic,"Saint Mary’s Point","Saint Mary's Point",variant,10.083333,-61.85,TT-SIP,,
-1360353,-1958670,settlement,"Mc Bean Village","Mc Bean Village",variant,10.447672,-61.452153,TT-CTT,,
-1360639,-1959043,hypsographic,"Point Radix","Point Radix",official,10.333545,-60.97517,TT-MRC,,
-1360816,-1959293,hypsographic,"Signal Hill","Signal Hill",official,11.166667,-60.766667,TT-TOB,,
-1360455,-1958803,hydrographic,"Navette River","Navette River",official,10.18229,-61.002841,TT-MRC,,
-1360295,-1958587,hypsographic,Manati,Manati,variant,10.416667,-61.033333,TT-MRC,,
-1360794,20032375,hydrographic,Savaneta,Savaneta,official,10.387863,-61.482158,TT-CTT,,
-1360676,-1959092,hypsographic,"Point Rouge","Point Rouge",official,10.146626,-61.789613,TT-SIP,,
-1360100,20032529,hydrographic,Homard,Homard,official,10.830991,-61.064317,TT-SGE,,
-1360124,-1958363,hydrographic,"Irois River","Irois River",official,10.148755,-61.763556,TT-SIP,,
-1360330,20032469,hydrographic,Matapane,Matapane,official,10.566667,-61.2,TT-SGE,,
-1360534,-1958902,hypsographic,"Pelican Rock","Pelican Rock",variant,10.213967,-61.634028,TT-SIP,,
-1360663,-1959077,settlement,Riseland,Riseland,official,11.166667,-60.783333,TT-TOB,,
-1360771,-1959236,settlement,"Sangre Grande Oropuche","Sangre Grande Oropuche",official,10.594448,-61.078379,TT-SGE,,
-1360885,-1959391,hydrographic,"Têteron Bay","Teteron Bay",official,10.684434,-61.665078,TT-DMN,,
-1360458,-1958806,hydrographic,"Neg River","Neg River",official,10.218482,-61.587847,TT-SIP,,
-1359832,-1957975,settlement,Curucaye,Curucaye,official,10.669118,-61.450232,TT-SJL,,
-1360024,20032552,hydrographic,"Grand Fond","Grand Fond",official,10.832642,-60.97369,TT-SGE,,
-1359998,-1958201,hydrographic,"Anse Goulême","Anse Gouleme",variant,11.316314,-60.520441,TT-TOB,,
-1360937,14629620,settlement,"Upper Carapichaima","Upper Carapichaima",official,10.445562,-61.396342,TT-CTT,,
-1360288,-1958577,settlement,Mamon,Mamon,official,10.475792,-61.162168,TT-SGE,,
-1360955,-1959497,settlement,"Vista Bella","Vista Bella",variant,10.289202,-61.45414,TT-SFO,,
-1359784,-1957913,hydrographic,"Covigne River","Covigne River",official,10.7,-61.6,TT-DMN,,
-1360544,-1958917,hydrographic,"Petit Bay","Petit Bay",official,10.841206,-61.008754,TT-SGE,,
-1360545,-1958918,settlement,"Petit Bourg","Petit Bourg",official,10.65,-61.45,TT-SJL,,
-1359837,13729159,settlement,D’Abadie,D'Abadie,official,10.627254,-61.313149,TT-TUP,,
-1360095,-1958327,hydrographic,"Hillsborough East River","Hillsborough East River",official,11.193734,-60.688189,TT-TOB,,
-1360926,-1959454,settlement,"Tunapuna Village","Tunapuna Village",variant,10.652449,-61.388778,TT-TUP,,
-1360375,-1958700,hydrographic,"Mission River","Mission River",official,10.832065,-60.952948,TT-SGE,,
-1360860,-1959362,administrative_region,"Tacarigua Ward","Tacarigua Ward",variant,10.666667,-61.383333,TT-TUP,,
-1360433,-1958773,settlement,Mucurapo,Mucurapo,official,10.662526,-61.536965,TT-POS,,
-1360900,-1959410,hydrographic,"Toco Bay","Toco Bay",official,10.835841,-60.947681,TT-SGE,,
-1359904,-1958073,hypsographic,"El Tucuche","El Tucuche",official,10.740138,-61.409932,TT-SJL,,
-1360450,-1958058,park,"Ecclesville Windbelt Forest Reserve","Ecclesville Windbelt Forest Reserve",variant,10.36186,-61.089667,TT-MRC,,
-1360382,-1958709,settlement,"Monkey Town","Monkey Town",official,10.266667,-61.333333,TT-PRT,,
-1360505,-1958866,settlement,Palmyra,Palmyra,official,10.281441,-61.427529,TT-PRT,,
-1360372,-1958692,hypsographic,"Minister Point","Minister Point",variant,11.173625,-60.702786,TT-TOB,,
-1360940,-1959330,hydrographic,"Spring River","Spring River",variant,10.482164,-61.398987,TT-CTT,,
-1360643,20032401,hydrographic,Rampanalgas,Rampanalgas,official,10.731784,-60.982477,TT-SGE,,
-1359766,-1957887,hypsographic,"Coromandel Hill","Coromandel Hill",official,10.119491,-61.803754,TT-SIP,,
-1360277,-1958566,hydrographic,"Mahoe River","Mahoe River",variant,10.288034,-61.000801,TT-MRC,,
-1360054,-1958272,hydrographic,"Guapo River","Guapo River",official,10.116667,-61.683333,TT-SIP,,
-1360632,-1959035,hypsographic,"Queen’s Island","Queen's Island",official,11.239054,-60.558207,TT-TOB,,
-1360990,-2017520,hypsographic,Chacachacare,Chacachacare,official,10.688447,-61.754619,TT-DMN,,
-1359889,-1958050,settlement,Easterfield,Easterfield,official,11.225773,-60.681866,TT-TOB,,
-1360126,-1958369,hypsographic,"Isolote Point","Isolote Point",variant,10.075048,-61.780035,TT-SIP,,
-1360323,-1958629,hydrographic,"Marianne River","Marianne River",official,10.794295,-61.302642,TT-TUP,,
-1360731,-1959170,settlement,"Saint Julien Village","Saint Julien Village",variant,10.271086,-61.358843,TT-PRT,,
-1360400,-1958733,hypsographic,"Moriquite Point","Moriquite Point",official,10.08411,-61.278901,TT-PRT,,
-1360159,-1958416,hydrographic,"Lageon River","Lageon River",variant,10.139231,-61.100527,TT-MRC,,
-1360144,-1958389,hydrographic,"King Bay","King Bay",variant,11.261815,-60.549639,TT-TOB,,
-1360124,20032521,hydrographic,Irois,Irois,official,10.148755,-61.763556,TT-SIP,,
-1359790,-1957919,hydrographic,"Creosote River","Creosote River",official,10.105155,-61.177222,TT-MRC,,
-1360128,-1958370,settlement,"James Smart","James Smart",official,10.55,-61.083333,TT-SGE,,
-1360571,-1958951,hypsographic,"Piarco Savanna","Piarco Savanna",official,10.583333,-61.333333,TT-TUP,,
-1360968,20032344,hydrographic,White,White,official,10.068556,-61.479289,TT-PED,,
-1359935,-1958118,hydrographic,"Anse Flamengo","Anse Flamengo",variant,11.25,-60.716667,TT-TOB,,
-1360002,-1958206,settlement,Grafton,Grafton,official,11.183333,-60.783333,TT-TOB,,
-1360695,-1959116,settlement,Sadhoowa,Sadhoowa,official,10.131359,-61.433489,TT-PED,,
-1360587,-1958973,hypsographic,"Pitch Lake of La Brea","Pitch Lake of La Brea",variant,10.233734,-61.628252,TT-SIP,,
-1360813,-1959290,park,"Shirvan Park","Shirvan Park",official,11.158874,-60.79742,TT-TOB,,
-1360059,-1958278,hydrographic,"Guaracarite River","Guaracarite River",official,10.316166,-61.397986,TT-PRT,,
-1360096,20032530,hydrographic,"Hillsborough West","Hillsborough West",official,11.191866,-60.69368,TT-TOB,,
-1360324,20032471,hydrographic,"Marie Douleur","Marie Douleur",official,10.298263,-61.433772,TT-SFO,,
-1360765,-1958082,settlement,Erin,Erin,variant,10.076085,-61.653408,TT-SIP,,
-1360896,-1959402,administrative_region,Tobago,Tobago,official,11.25,-60.666667,TT-TOB,,
-1360051,-1958268,hydrographic,"Guanapure River","Guanapure River",official,10.333333,-61.316667,TT-CTT,,
-1360574,-1958955,hypsographic,"Piedra Blanca","Piedra Blanca",official,10.75,-61.466667,TT-SJL,,
-1360829,-1959316,hypsographic,"Smith Islet","Smith Islet",variant,11.183147,-60.650287,TT-TOB,,
-1360880,-1959386,hydrographic,"Trou Tazar","Trou Tazar",official,10.728855,-61.638204,TT-DMN,,
-1360548,-1958921,hydrographic,"Petite l’Anse","Petite l'Anse",official,10.752386,-60.963327,TT-SGE,,
-1360150,-1958397,administrative_region,"La Brea","La Brea",variant,10.166667,-61.65,TT-SIP,,
-1360789,-1959260,hydrographic,"Santiago Bay","Santiago Bay",official,10.818781,-61.120981,TT-SGE,,
-1360925,-1959451,hydrographic,"Tumpuna River","Tumpuna River",official,10.580565,-61.28307,TT-CTT,,
-1359849,-1957996,hypsographic,"Delgada Point","Delgada Point",official,10.680581,-61.667243,TT-DMN,,
-1360062,20032539,hydrographic,Guatacare,Guatacare,official,10.366667,-61.05,TT-MRC,,
-1360466,-1958814,hydrographic,"L’Anse Nicolas","L'Anse Nicolas",official,10.833034,-60.989978,TT-SGE,,
-1359798,-1957930,hydrographic,"Cuche River","Cuche River",official,10.450327,-61.108516,TT-MRC,,
-1360282,-1958570,hypsographic,Majorca,Majorca,variant,10.433214,-61.037448,TT-MRC,,
-1359930,-1958110,settlement,Filette,Filette,official,10.80576,-61.35897,TT-SJL,,
-1360034,-1958247,hydrographic,"Great River Shoal","Great River Shoal",official,11.2,-60.616667,TT-TOB,,
-1360971,-1959519,hydrographic,"Wild Dog River","Wild Dog River",official,11.238032,-60.620938,TT-TOB,,
-1360517,-1958873,hydrographic,"Panawatee River","Panawatee River",variant,10.186796,-61.366036,TT-PRT,,
-1359880,-1958037,hydrographic,Drachenschlund,Drachenschlund,variant,10.711058,-61.76041,TT-000,,
-1360136,20032517,hydrographic,Kaifungi,Kaifungi,official,10.226462,-61.188979,TT-MRC,,
-1360473,-1958823,hypsographic,"North Point","North Point",official,11.33689,-60.557521,TT-TOB,,
-1360426,-1958763,settlement,"Mount Harris","Mount Harris",official,10.499253,-61.116473,TT-SGE,,
-1359880,-1958039,hydrographic,"Dragons Mouths","Dragons Mouths",official,10.711058,-61.76041,TT-000,,
-1360751,20032387,hydrographic,"Salt Water","Salt Water",official,10.128578,-61.10089,TT-MRC,,
-1359885,-1958046,hypsographic,"Dunmore Hill","Dunmore Hill",official,10.268893,-61.33701,TT-PRT,,
-1360068,-1958288,administrative_region,Guayaguayare,Guayaguayare,variant,10.2,-61.05,TT-MRC,,
-1360050,-1958267,hydrographic,"Guanapo River","Guanapo River",official,10.583333,-61.266667,TT-TUP,,
-1360057,-1958276,settlement,"Guaracara Junction Village","Guaracara Junction Village",variant,10.3797,-61.325409,TT-CTT,,
-1360793,-1959267,administrative_region,"Savana Grande Ward","Savana Grande Ward",variant,10.3,-61.366667,TT-PRT,,
-1359818,20032591,hydrographic,Cunapo,Cunapo,official,10.179551,-61.525645,TT-SIP,,
-1360122,-1958360,settlement,Irois,Irois,official,10.133673,-61.747023,TT-SIP,,
-1359969,-1958159,hypsographic,"Point Galeota","Point Galeota",variant,10.13882,-60.988582,TT-MRC,,
-1360671,-1959085,hypsographic,"Rocky Point","Rocky Point",official,11.198487,-60.797568,TT-TOB,,
-1360688,-1959109,hydrographic,"Rusts Bay","Rusts Bay",official,10.682033,-61.739567,TT-DMN,,
-1360795,-1959271,hydrographic,"Savonetta Channel","Savonetta Channel",official,10.4,-61.5,TT-CTT,,
-1360220,17902391,park,"Port Point Lisas","Port Point Lisas",official,10.383333,-61.483333,TT-CTT,,
-1359956,-1958144,hydrographic,"Freemans Bay","Freemans Bay",official,10.233333,-61.533333,TT-000,,
-1360430,-1958769,settlement,"Mount Saint George Village","Mount Saint George Village",variant,11.194976,-60.682601,TT-TOB,,
-1359880,-1957590,hydrographic,"Boca de Dragos","Boca de Dragos",variant,10.711058,-61.76041,TT-000,,
-1360911,-1959430,administrative_region,"Trinidad and Tobago Colony","Trinidad and Tobago Colony",variant,11,-61,TT-000,,
-1360349,-1958665,hypsographic,"Mayaro Point","Mayaro Point",official,10.324546,-60.975026,TT-MRC,,
-1360408,-1958742,hydrographic,"Morne l’Enfer River","Morne l'Enfer River",official,10.192425,-61.571329,TT-SIP,,
-1360559,-1958937,hypsographic,"Petit Negre Rock","Petit Negre Rock",official,10.833333,-61.05,TT-SGE,,
-1359962,-1958150,settlement,Friendship,Friendship,official,11.148751,-60.804423,TT-TOB,,
-1360498,-1958857,hydrographic,"Otaheite Bay","Otaheite Bay",official,10.233333,-61.55,TT-000,,
-1360870,-1959373,hydrographic,"Tambou l’Etang River","Tambou l'Etang River",variant,10.396474,-61.163141,TT-MRC,,
-1359790,20032600,hydrographic,Creosote,Creosote,official,10.105155,-61.177222,TT-MRC,,
-1360609,-1959001,spot,"Poole Station","Poole Station",official,10.319501,-61.232456,TT-MRC,,
-1360758,-1959219,hypsographic,Sandhill,Sandhill,official,10.166667,-61.116667,TT-MRC,,
-1360853,20032367,hydrographic,Tabaquite,Tabaquite,official,10.316667,-61.283333,TT-CTT,,
-1360239,-1958516,settlement,Lopinot,Lopinot,official,10.688873,-61.325768,TT-TUP,,
-1360913,-1959437,administrative_region,"Trinity Ward","Trinity Ward",variant,10.191854,-61.154939,TT-MRC,,
-1360044,-1958259,park,"Guaico-Valencia Reserve","Guaico-Valencia Reserve",official,10.634464,-61.14108,TT-SGE,,
-1360862,-1959361,hydrographic,"Tacarigua River","Tacarigua River",official,10.619081,-61.400173,TT-TUP,,
-1360926,-1959452,settlement,Tunapuna,Tunapuna,official,10.652449,-61.388778,TT-TUP,,
-1360210,20032500,hydrographic,Leriche,Leriche,official,10.533333,-61.366667,TT-CTT,,
-1360101,-1959031,hydrographic,"Quebrada Honda River","Quebrada Honda River",variant,10.083333,-61.583333,TT-SIP,,
-1360312,-1958610,hydrographic,"Maraca Bay River","Maraca Bay River",variant,10.757689,-61.444957,TT-SJL,,
-1360226,-1958500,hydrographic,"Little Rockly Bay","Little Rockly Bay",official,11.164841,-60.762065,TT-TOB,,
-1359829,20032584,hydrographic,Curampo,Curampo,official,10.180899,-61.481988,TT-SIP,,
-1360261,-1958540,hypsographic,"Macaw Island","Macaw Island",official,10.39527,-61.023412,TT-MRC,,
-1360906,-1959418,settlement,Tortuga,Tortuga,official,10.371503,-61.392811,TT-CTT,,
-1360409,-1958743,hydrographic,"Morne Poui Bay","Morne Poui Bay",official,10.793067,-61.277382,TT-TUP,,
-1360059,20032541,hydrographic,Guaracarite,Guaracarite,official,10.316166,-61.397986,TT-PRT,,
-1360404,-1958737,settlement,"Morne Diablo","Morne Diablo",official,10.109151,-61.446118,TT-PED,,
-1360725,-1959161,settlement,"Saint John","Saint John",official,10.247513,-61.418342,TT-PRT,,
-1360958,-1959503,settlement,Warren,Warren,official,10.582117,-61.400702,TT-TUP,,
-1360647,-1959055,settlement,Redhead,Redhead,official,10.791742,-60.945289,TT-SGE,,
-1359848,-1957994,hydrographic,"Delaford Bay","Delaford Bay",official,11.263205,-60.553639,TT-TOB,,
-1360331,-1958640,settlement,Matelot,Matelot,official,10.819204,-61.126271,TT-SGE,,
-1359814,-1957948,park,"Cumuto Reserve","Cumuto Reserve",official,10.602818,-61.19272,TT-SGE,,
-1360752,-1959212,settlement,Salybia,Salybia,official,10.701491,-61.03053,TT-SGE,,
-1360708,-1959134,settlement,"Saint Clair","Saint Clair",official,10.670393,-61.521685,TT-POS,,
-1360413,-1958747,hypsographic,"Point Morro","Point Morro",variant,10.775262,-61.442255,TT-SJL,,
-1360358,-1958676,hypsographic,"Point Mêlée","Point Melee",official,10.740356,-61.620772,TT-DMN,,
-1360977,-1957892,hydrographic,"Corsair Bay","Corsair Bay",variant,10.661718,-61.656037,TT-DMN,,
-1360230,-1958406,hydrographic,"La Charro River","La Charro River",variant,10.086147,-61.596196,TT-SIP,,
-1359749,-1957868,hydrographic,"Colenso River","Colenso River",official,10.335351,-61.162677,TT-MRC,,
-1359895,-1958060,settlement,"Eckel Village","Eckel Village",official,10.322148,-61.380761,TT-PRT,,
-1360687,-1959108,settlement,Rushville,Rushville,official,10.128977,-61.055637,TT-MRC,,
-1360950,-1959488,settlement,Vessigny,Vessigny,official,10.224264,-61.629104,TT-SIP,,
-1360619,-1959017,hydrographic,"Prince’s Bay","Prince's Bay",official,11.246231,-60.575756,TT-TOB,,
-1360579,-1958963,settlement,Pierreville,Pierreville,official,10.295309,-61.00784,TT-MRC,,
-1360525,-1958893,hydrographic,"Parlatuvier Bay","Parlatuvier Bay",official,11.299539,-60.654265,TT-TOB,,
-1360503,-1958862,hydrographic,"Palmiste Ravine","Palmiste Ravine",variant,10.8,-61.15,TT-SGE,,
-1360504,-1958865,hypsographic,"Palmist Point","Palmist Point",official,10.069972,-61.520128,TT-SIP,,
-1359971,-1958165,hypsographic,"Galpha Point","Galpha Point",variant,10.071723,-61.843139,TT-SIP,,
-1360162,20032510,hydrographic,"Lagon Mahaut","Lagon Mahaut",official,10.3,-61.016667,TT-MRC,,
-1360082,-1958311,settlement,Hasnally,Hasnally,variant,10.562551,-61.196601,TT-SGE,,
-1359870,-1958023,settlement,Dinsley,Dinsley,official,10.638789,-61.360282,TT-TUP,,
-1360217,-1958492,hypsographic,"Lisas Point","Lisas Point",variant,10.37895,-61.492988,TT-CTT,,
-1359969,-1958160,hypsographic,"Galeota Point","Galeota Point",official,10.13882,-60.988582,TT-MRC,,
-1360335,-1958644,administrative_region,Matura,Matura,variant,10.7,-61.066667,TT-SGE,,
-1360918,-1959441,hypsographic,"Trou Bouilli-Riz Point","Trou Bouilli-Riz Point",official,10.796237,-61.219254,TT-TUP,,
-1359859,-1958008,settlement,Diamond,Diamond,official,10.23654,-61.44273,TT-PED,,
-1360576,-1959342,hypsographic,"Stoney Point","Stoney Point",variant,10.320884,-61.467749,TT-CTT,,
-1360637,-1959040,hydrographic,"Quinam River","Quinam River",official,10.072091,-61.509797,TT-PED,,
-1360407,-1958741,park,"Morne l’Enfer Reserve","Morne l'Enfer Reserve",official,10.162457,-61.605571,TT-SIP,,
-1360429,-1958767,settlement,"Mount Pleasant","Mount Pleasant",official,11.163991,-60.792565,TT-TOB,,
-1359758,-1957877,hydrographic,"L’Anse Contré","L'Anse Contre",official,10.831547,-60.910317,TT-SGE,,
-1359910,-1958079,hypsographic,"Entrada Point","Entrada Point",official,10.710652,-61.67155,TT-DMN,,
-1360150,-1958402,administrative_region,"La Brea Ward","La Brea Ward",variant,10.166667,-61.65,TT-SIP,,
-1360258,20032494,hydrographic,Macajuel,Macajuel,official,10.267158,-61.124167,TT-MRC,,
-1360534,-1958903,hypsographic,"Pelican Rocks","Pelican Rocks",official,10.213967,-61.634028,TT-SIP,,
-1360360,-1958681,settlement,Mesopotamia,Mesopotamia,official,11.195037,-60.691019,TT-TOB,,
-1360247,-1958524,settlement,Lothian,Lothian,official,10.256378,-61.381223,TT-PRT,,
-1360559,-1958926,hypsographic,"Petite Negre Rock","Petite Negre Rock",variant,10.833333,-61.05,TT-SGE,,
-1360111,-1958346,hydrographic,"Huila River","Huila River",official,10.466667,-61.083333,TT-SGE,,
-1359833,20032583,hydrographic,Curucaye,Curucaye,official,10.66939,-61.451009,TT-SJL,,
-1360752,-1959201,settlement,Salibea,Salibea,variant,10.701491,-61.03053,TT-SGE,,
-1360419,-1958754,hydrographic,"Moruga River","Moruga River",official,10.08308,-61.266263,TT-PRT,,
-1359827,-1957968,hydrographic,"Curaguate River","Curaguate River",official,10.772795,-61.399358,TT-SJL,,
-1360277,-1958563,hydrographic,"Mahaut River","Mahaut River",official,10.288034,-61.000801,TT-MRC,,
-1359799,20032597,hydrographic,Cuesa,Cuesa,official,10.687854,-61.611165,TT-DMN,,
-1360753,-1959213,hydrographic,"Salybia Bay","Salybia Bay",official,10.835719,-60.920902,TT-SGE,,
-1360007,-1958211,hydrographic,"Boca Grande","Boca Grande",official,10.664096,-61.829153,TT-000,,
-1360134,20032518,hydrographic,Jordan,Jordan,official,10.780196,-61.250855,TT-TUP,,
-1360691,-1959112,hydrographic,"Ravine Sable","Ravine Sable",official,10.620007,-61.068216,TT-SGE,,
-1360031,-1958242,hydrographic,"Granville Bay","Granville Bay",official,10.136347,-61.810454,TT-SIP,,
-1360787,-1959258,settlement,"Santa Cruz","Santa Cruz",official,10.722774,-61.469814,TT-SJL,,
-1360768,-1959230,hydrographic,"Sangre Chiquita River","Sangre Chiquita River",official,10.59082,-61.093692,TT-SGE,,
-1360403,-1958736,settlement,"Morne Cabrite","Morne Cabrite",official,10.803447,-60.939731,TT-SGE,,
-1360986,20032340,hydrographic,Zagaya,Zagaya,official,10.810269,-61.031186,TT-SGE,,
-1360955,13728256,settlement,Vistabella,Vistabella,official,10.289202,-61.45414,TT-SFO,,
-1360808,-1957603,hydrographic,"Bocas de Serpientes","Bocas de Serpientes",variant,10.04549,-61.935507,TT-000,,
-1359911,20032563,hydrographic,Erasmus,Erasmus,official,11.3,-60.616667,TT-TOB,,
-1360306,20032479,hydrographic,Mapepire,Mapepire,official,10.826957,-61.047405,TT-SGE,,
-1360552,-1958927,hydrographic,"Petite Pilote River","Petite Pilote River",official,10.140479,-61.118163,TT-MRC,,
-1359767,-1957888,settlement,"Coromandel Settlement","Coromandel Settlement",official,10.100843,-61.800999,TT-SIP,,
-1360213,-1958484,hypsographic,"Les Frères Rocks","Les Freres Rocks",official,10.828684,-61.085344,TT-SGE,,
-1359755,-1957874,hydrographic,"Compere Canal","Compere Canal",official,10.227534,-61.52078,TT-000,,
-1360556,-1958933,hypsographic,"Petite Vallée","Petite Vallee",official,10.7,-61.533333,TT-DMN,,
-1360372,-1958696,hypsographic,"Minster Point","Minster Point",official,11.173625,-60.702786,TT-TOB,,
-1360829,-1959317,hypsographic,"Smiths Island","Smiths Island",variant,11.183147,-60.650287,TT-TOB,,
-1360634,-1958527,hydrographic,"Louis d’Or River","Louis d'Or River",variant,11.245821,-60.562883,TT-TOB,,
-1359989,-1958192,spot,"Golden Grove","Golden Grove",official,10.61075,-61.346731,TT-TUP,,
-1360827,-1959313,settlement,"Sixth Company Village","Sixth Company Village",variant,10.26259,-61.345186,TT-PRT,,
-1359859,-1958013,settlement,"Diamond Village","Diamond Village",variant,10.23654,-61.44273,TT-PED,,
-1360165,-1958424,hydrographic,"La Horquette River","La Horquette River",official,10.778607,-61.206238,TT-TUP,,
-1359768,-1957889,hydrographic,"Coroyal River","Coroyal River",official,10.135727,-61.693504,TT-SIP,,
-1360120,-1958357,hydrographic,"Inniss River","Inniss River",official,10.10667,-61.242339,TT-PRT,,
-1360506,-1958868,hypsographic,"Point Paloma","Point Paloma",official,10.574189,-61.020163,TT-SGE,,
-1360342,20032466,hydrographic,Matura,Matura,official,10.70744,-61.355941,TT-TUP,,
-1359778,-1957903,settlement,Couva,Couva,official,10.42321,-61.461836,TT-CTT,,
-1359942,-1958127,hydrographic,"Forest River","Forest River",official,10.146754,-61.771614,TT-SIP,,
-1360564,-1958943,settlement,"Petit Trou","Petit Trou",official,10.832622,-60.936412,TT-SGE,,
-1360228,-1958485,hydrographic,"Lézard River","Lezard River",variant,10.149904,-61.026094,TT-MRC,,
-1360399,-1958732,settlement,Morichal,Morichal,official,10.361833,-61.352036,TT-CTT,,
-1360127,-1958368,hypsographic,"Ismael Hill","Ismael Hill",official,10.500886,-61.150304,TT-SGE,,
-1360643,-1959048,hydrographic,"Rampanagas Ravine","Rampanagas Ravine",variant,10.731784,-60.982477,TT-SGE,,
-1359936,-1958120,settlement,"Flanagin Town","Flanagin Town",official,10.431729,-61.315762,TT-CTT,,
-1360557,-1958935,hydrographic,"Petit Lézard River","Petit Lezard River",official,10.166667,-61.05,TT-MRC,,
-1359879,-1958034,settlement,Dowe,Dowe,official,10.403528,-61.470809,TT-CTT,,
-1360850,-1959346,settlement,Success,Success,official,10.65,-61.483333,TT-SJL,,
-1360171,-1958431,hypsographic,"La Mâchoire Point","La Machoire Point",official,10.832962,-60.958184,TT-SGE,,
-1360752,-1959207,settlement,"Salibia Village","Salibia Village",variant,10.701491,-61.03053,TT-SGE,,
-1360016,-1958229,settlement,"Grande Riviere Village","Grande Riviere Village",variant,10.825158,-61.050949,TT-SGE,,
-1360538,-1958910,settlement,"Pepper Village","Pepper Village",official,10.403222,-61.356376,TT-CTT,,
-1359907,-1958076,settlement,"Englishman’s Bay","Englishman's Bay",official,11.285587,-60.674075,TT-TOB,,
-1359823,-1957961,administrative_region,"Ward of Cunupia","Ward of Cunupia",official,10.55,-61.333333,TT-CTT,,
-1360326,-1958634,settlement,"Mary’s Hill","Mary's Hill",official,11.204806,-60.755567,TT-TOB,,
-1360202,-1958470,hypsographic,"Point L’Eglise","Point L'Eglise",official,10.792921,-61.260465,TT-TUP,,
-1360436,-1958777,hydrographic,"Murphy Bay","Murphy Bay",official,10.793185,-61.248748,TT-TUP,,
-1360537,-1958908,settlement,"Peñal Village","Penal Village",variant,10.169454,-61.454217,TT-PED,,
-1359904,-1959444,hypsographic,Tucuche,Tucuche,variant,10.740138,-61.409932,TT-SJL,,
-1360660,20032399,hydrographic,Richmond,Richmond,official,11.221286,-60.608457,TT-TOB,,
-1360263,-1958544,hypsographic,"Machapure Rock","Machapure Rock",official,10.8,-61.283333,TT-TUP,,
-1360984,20032341,hydrographic,Yarra,Yarra,official,10.805489,-61.348213,TT-000,,
-1360536,-1958906,hydrographic,"Pembroke River","Pembroke River",official,11.218704,-60.614415,TT-TOB,,
-1360371,-1958694,hypsographic,"Minorca Island","Minorca Island",official,10.425196,-61.035062,TT-MRC,,
-1360022,-1958233,park,"Grand Fond","Grand Fond",official,10.266667,-61.133333,TT-MRC,,
-1359819,-1957952,hydrographic,"Cunapa River","Cunapa River",variant,10.582439,-61.106737,TT-SGE,,
-1360499,-1958858,hypsographic,"Othoe Point","Othoe Point",variant,10.077627,-61.324469,TT-PRT,,
-1360344,-1958658,hydrographic,"Maturita River","Maturita River",official,10.616667,-61.25,TT-TUP,,
-1360388,-1958717,settlement,Montgomery,Montgomery,official,11.185215,-60.790842,TT-TOB,,
-1360551,-1958924,hydrographic,"Petite Marianne River","Petite Marianne River",official,10.778775,-61.301843,TT-TUP,,
-1360405,20032450,hydrographic,"Morne Diablo","Morne Diablo",official,10.128321,-61.491844,TT-PED,,
-1360720,-1959154,hypsographic,"Saint Giles Islands","Saint Giles Islands",official,11.355038,-60.521742,TT-TOB,,
-1360285,-1958574,hydrographic,"Mal d’Estomac Bay","Mal d'Estomac Bay",official,10.755266,-61.502016,TT-DMN,,
-1360845,-1959340,hydrographic,"Stone River","Stone River",official,10.124486,-61.183304,TT-000,,
-1360660,-1958244,hydrographic,"Great Dog River","Great Dog River",variant,11.221286,-60.608457,TT-TOB,,
-1360268,20032490,hydrographic,"Madame Françoise","Madame Francoise",official,10.150913,-61.032201,TT-MRC,,
-1359801,-1957934,settlement,Culloden,Culloden,official,11.246611,-60.736511,TT-TOB,,
-1360755,-1959215,hydrographic,"Salybia River","Salybia River",official,10.833158,-60.922182,TT-SGE,,
-1360855,20032366,hydrographic,Tabateau,Tabateau,official,10.719473,-60.995764,TT-SGE,,
-1360334,-1958645,settlement,Matura,Matura,official,10.675732,-61.058972,TT-SGE,,
-1360316,20032477,hydrographic,Maracas,Maracas,official,10.658681,-61.411312,TT-TUP,,
-1360125,-1958364,hydrographic,"Islot Bay","Islot Bay",variant,10.084018,-61.804962,TT-SIP,,
-1360287,-1958576,hydrographic,"Maloney River","Maloney River",official,10.247168,-61.025075,TT-MRC,,
-1360303,-1958598,hypsographic,"Manzanilla Point","Manzanilla Point",official,10.521481,-61.013882,TT-SGE,,
-1360484,-1958835,park,"Orange Hill","Orange Hill",official,11.190945,-60.755593,TT-TOB,,
-1360783,-1959254,hydrographic,"Sans Souci Bay","Sans Souci Bay",official,10.838843,-61.001256,TT-SGE,,
-1360410,-1958744,settlement,"Morne Quiton","Morne Quiton",official,11.186363,-60.726141,TT-TOB,,
-1360027,-1958238,hypsographic,"Grand Matelot Point","Grand Matelot Point",official,10.821199,-61.141413,TT-SGE,,
-1360499,14623546,hypsographic,"Otho Point","Otho Point",official,10.077627,-61.324469,TT-PRT,,
-1359900,-1958581,hydrographic,"Manacal Ravine","Manacal Ravine",variant,10.707745,-61.356448,TT-TUP,,
-1359780,-1957907,spot,"Couva Production Platform","Couva Production Platform",official,10.471305,-61.548115,TT-000,,
-1360147,-1958395,settlement,"La Basse","La Basse",official,10.65,-61.5,TT-SJL,,
-1360927,-1959455,administrative_region,Turure,Turure,variant,10.5,-61.116667,TT-SGE,,
-1360852,-1959350,settlement,"Tabaquite Village","Tabaquite Village",variant,10.38824,-61.297045,TT-CTT,,
-1359843,13728575,settlement,Debe,Debe,official,10.208456,-61.452735,TT-PED,,
-1359994,-1958197,hydrographic,"Goldsborough River","Goldsborough River",official,11.207621,-60.627453,TT-TOB,,
-1360202,-1958063,hypsographic,"Point Eglise","Point Eglise",variant,10.792921,-61.260465,TT-TUP,,
-1360826,-1959311,hypsographic,"Sisters Rocks","Sisters Rocks",official,11.33225,-60.644584,TT-TOB,,
-1360785,20032377,hydrographic,"Sans Souci","Sans Souci",official,10.837776,-61.004115,TT-SGE,,
-1360080,20032532,hydrographic,Harris,Harris,official,10.783333,-60.983333,TT-SGE,,
-1360039,-1958254,hypsographic,"Gros Morne","Gros Morne",official,10.126187,-61.08858,TT-MRC,,
-1360720,-1958679,hypsographic,"Melville Islets","Melville Islets",variant,11.355038,-60.521742,TT-TOB,,
-1360445,-1958791,administrative_region,"County of Nariva","County of Nariva",official,10.366667,-61.166667,TT-000,1,
-1360697,-1959120,administrative_region,"Saint Andrew","Saint Andrew",official,11.183333,-60.75,TT-TOB,,
-1360113,-1958348,hypsographic,"Icacos Point","Icacos Point",official,10.066667,-61.866667,TT-SIP,,
-1360576,-1958958,hypsographic,"Point a Pierre","Point a Pierre",variant,10.320884,-61.467749,TT-CTT,,
-1360289,-1958579,settlement,Mamural,Mamural,variant,10.448952,-61.290827,TT-CTT,,
-1360482,-1958833,hypsographic,"Pointe d’Or","Pointe d'Or",official,10.246075,-61.612784,TT-SIP,,
-1360692,-1959113,hypsographic,"Saca Manteca","Saca Manteca",official,10.45,-61.3,TT-CTT,,
-1360150,-1958399,administrative_region,"Ward of La Brea","Ward of La Brea",official,10.166667,-61.65,TT-SIP,,
-1359842,-1957986,hydrographic,"Dead Bay River","Dead Bay River",official,11.3,-60.633333,TT-TOB,,
-1359831,-1957974,settlement,"Curepe Village","Curepe Village",variant,10.633333,-61.4,TT-TUP,,
-1360836,-1959326,hypsographic,"Point Sove","Point Sove",official,10.810571,-60.920175,TT-SGE,,
-1360112,-1958347,settlement,Icacos,Icacos,official,10.047316,-61.912268,TT-SIP,,
-1360765,-1959227,settlement,"San Francique","San Francique",official,10.076085,-61.653408,TT-SIP,,
-1359744,-1957862,hypsographic,"Cocoyal Hill","Cocoyal Hill",variant,10.300691,-61.385982,TT-PRT,,
-1360207,-1958477,settlement,"Lengua Village","Lengua Village",variant,10.254917,-61.367247,TT-PRT,,
-1359764,-1957885,settlement,"Corbeaux Town","Corbeaux Town",official,10.65,-61.516667,TT-POS,,
-1359928,-1958108,hydrographic,"Fernando Ravine","Fernando Ravine",variant,10.827451,-61.053745,TT-SGE,,
-1360152,-1958403,settlement,"La Carrière","La Carriere",official,10.323288,-61.453967,TT-CTT,,
-1359785,-1957914,hydrographic,"Cow Foot River","Cow Foot River",official,11.239392,-60.62487,TT-TOB,,
-1360907,-1959419,hydrographic,"Totuma Ravine","Totuma Ravine",variant,10.522679,-61.185771,TT-SGE,,
-1360642,-1959049,settlement,"Rampanagas Village","Rampanagas Village",variant,10.735122,-60.983572,TT-SGE,,
-1360826,-1959310,hypsographic,"The Sisters","The Sisters",variant,11.33225,-60.644584,TT-TOB,,
-1359901,-1958070,settlement,"El Quemado","El Quemado",official,10.483333,-61.25,TT-CTT,,
-1359900,-1958069,hydrographic,"El Manacal River","El Manacal River",official,10.707745,-61.356448,TT-TUP,,
-1360177,-1958437,hypsographic,"La Palie","La Palie",official,10.704098,-60.998639,TT-SGE,,
-1359970,-1958161,hypsographic,"Point Galera","Point Galera",variant,10.83401,-60.90928,TT-SGE,,
-1360754,-1959214,hydrographic,"Salybia River","Salybia River",official,10.704098,-61.025376,TT-SGE,,
-1359762,-1957883,hydrographic,"Coora River","Coora River",official,10.190438,-61.47653,TT-SIP,,
-1360323,20032472,hydrographic,Marianne,Marianne,official,10.794295,-61.302642,TT-TUP,,
-1359816,-1957950,hydrographic,"Cumuto River","Cumuto River",official,10.590425,-61.236202,TT-SGE,,
-1360628,20032406,hydrographic,Quarahoon,Quarahoon,official,10.083483,-61.746796,TT-SIP,,
-1359995,-1958198,settlement,Goodwood,Goodwood,official,11.204209,-60.63678,TT-TOB,,
-1360026,-1958237,hydrographic,"Grand Lagon River","Grand Lagon River",official,10.249299,-61.001988,TT-MRC,,
-1360322,-1958628,hydrographic,"Marianne River","Marianne River",official,10.116667,-61.1,TT-MRC,,
-1360075,-1958301,hydrographic,"Gucharon River","Gucharon River",official,10.199867,-61.465819,TT-PED,,
-1360867,-1959368,administrative_region,"Ward of Tamana","Ward of Tamana",official,10.533333,-61.183333,TT-SGE,,
-1360576,-1958960,hypsographic,Pointe-à-Pierre,Pointe-a-Pierre,official,10.320884,-61.467749,TT-CTT,,
-1360342,-1958652,hydrographic,"Matura Ravine","Matura Ravine",variant,10.70744,-61.355941,TT-TUP,,
-1359908,-1958077,hydrographic,"Englishman’s Bay River","Englishman's Bay River",official,11.288465,-60.670768,TT-TOB,,
-1359791,-1957920,hypsographic,"Morne Croix","Morne Croix",official,10.686826,-61.166114,TT-SGE,,
-1360235,-1958512,hypsographic,"Long Mountain","Long Mountain",official,10.402149,-61.302328,TT-CTT,,
-1360863,14628739,hydrographic,"Tyrico Bay","Tyrico Bay",official,10.761421,-61.426566,TT-SJL,,
-1359892,-1958054,hypsographic,"East Rocks","East Rocks",variant,10.136747,-60.98842,TT-MRC,,
-1360491,-1958842,hydrographic,"River Oropuche","River Oropuche",variant,10.615833,-61.027844,TT-SGE,,
-1359781,-1957904,hydrographic,"Rio de Couva","Rio de Couva",variant,10.419889,-61.498552,TT-CTT,,
-1359894,-1958057,settlement,"Ecclesville Village","Ecclesville Village",variant,10.323655,-61.13737,TT-MRC,,
-1360905,-1959417,hydrographic,"Tortue Bay","Tortue Bay",official,10.688077,-61.717577,TT-DMN,,
-1359967,-1958157,hydrographic,"Galap Ravine","Galap Ravine",official,10.583333,-61.216667,TT-SGE,,
-1360636,-1959039,hydrographic,"Quinam Bay","Quinam Bay",official,10.068866,-61.509423,TT-000,,
-1360310,-1958618,settlement,"Maracas Village","Maracas Village",variant,10.710587,-61.419648,TT-TUP,,
-1360930,-1959462,hydrographic,"Tyrrel’s Bay","Tyrrel's Bay",official,11.298689,-60.530691,TT-TOB,,
-1360560,20032418,hydrographic,"Petit Platanal","Petit Platanal",official,10.735758,-61.147986,TT-SGE,,
-1360103,-1958336,settlement,Hope,Hope,official,11.192321,-60.698181,TT-TOB,,
-1360265,-1958548,hydrographic,"Madamas Bay","Madamas Bay",official,10.797236,-61.193118,TT-TUP,,
-1360584,-1958970,settlement,"Piparo Settlement","Piparo Settlement",variant,10.339746,-61.341187,TT-PRT,,
-1359815,20032593,hydrographic,Cumuto,Cumuto,official,10.188066,-61.366388,TT-PRT,,
-1359954,-1958142,settlement,"Frederick Village","Frederick Village",official,10.605472,-61.394942,TT-TUP,,
-1359959,-1958147,hydrographic,"Frenchmans River","Frenchmans River",official,11.269377,-60.546731,TT-TOB,,
-1360881,20032359,hydrographic,"Teak Hill","Teak Hill",official,10.251673,-61.144766,TT-MRC,,
-1359886,-1958047,hydrographic,"Durity River","Durity River",official,10.166667,-61.383333,TT-PRT,,
-1360715,-1959172,settlement,"Saint Madeleine","Saint Madeleine",variant,10.271885,-61.429728,TT-PRT,,
-1360982,-1959531,settlement,Woodlands,Woodlands,official,11.249734,-60.722625,TT-TOB,,
-1360413,13728120,hypsographic,"Morro Point","Morro Point",official,10.775262,-61.442255,TT-SJL,,
-1360423,-1958760,hypsographic,"Mountain Hill","Mountain Hill",official,11.316667,-60.533333,TT-TOB,,
-1360368,-1958689,hydrographic,"Milford Bay","Milford Bay",official,11.160826,-60.844034,TT-TOB,,
-1360596,-1958982,settlement,Plum,Plum,official,10.5,-61.066667,TT-SGE,,
-1360810,-1959287,hypsographic,"Sheerbirds Point","Sheerbirds Point",official,11.171648,-60.824426,TT-TOB,,
-1360155,20032512,hydrographic,"La Cuesa","La Cuesa",official,10.5,-61.483333,TT-CTT,,
-1360681,-1959098,hydrographic,"Roussillac River","Roussillac River",official,10.233892,-61.579547,TT-SIP,,
-1360294,-1958586,hydrographic,"Manantial Bay","Manantial Bay",official,10.841265,-61.037388,TT-SGE,,
-1360415,-1958750,settlement,Moruga,Moruga,official,10.087779,-61.280719,TT-PRT,,
-1360715,-1959146,settlement,"Sainte Madeleine Village","Sainte Madeleine Village",variant,10.271885,-61.429728,TT-PRT,,
-1360507,-1958871,settlement,"Palo Seco Village","Palo Seco Village",variant,10.093446,-61.589204,TT-SIP,,
-1360797,-1959270,hydrographic,"Savanetta River","Savanetta River",variant,10.418296,-61.426914,TT-CTT,,
-1360344,20032465,hydrographic,Maturita,Maturita,official,10.616667,-61.25,TT-TUP,,
-1360008,-1959030,hydrographic,"Quebrada Grande River","Quebrada Grande River",variant,10.466667,-61.333333,TT-CTT,,
-1360943,-1959481,administrative_region,"Valencia Ward","Valencia Ward",variant,10.682327,-61.166804,TT-SGE,,
-1359821,20032589,hydrographic,Cunaripa,Cunaripa,official,10.574681,-61.153269,TT-SGE,,
-1360075,20032533,hydrographic,Gucharon,Gucharon,official,10.199867,-61.465819,TT-PED,,
-1360508,-1958870,hydrographic,"Palo Seco Bay","Palo Seco Bay",official,10.070278,-61.573638,TT-SIP,,
-1359968,-1958158,hypsographic,"Point Galba","Point Galba",official,10.24121,-61.638969,TT-SIP,,
-1360641,-1959047,settlement,"Rambert Village","Rambert Village",variant,10.238822,-61.47441,TT-PED,,
-1359949,-1958135,settlement,"Four Roads","Four Roads",official,10.486924,-61.217607,TT-CTT,,
-1359748,14630280,settlement,Golconda,Golconda,official,10.25,-61.433333,TT-PED,,
-1359810,20032594,hydrographic,Cumana,Cumana,official,10.791589,-60.944,TT-SGE,,
-1359778,-1957909,settlement,"Couva Savannah Village","Couva Savannah Village",variant,10.42321,-61.461836,TT-CTT,,
-1360418,-1958753,park,"Moruga Reserve","Moruga Reserve",official,10.166667,-61.15,TT-MRC,,
-1359928,20032560,hydrographic,Ferdinand,Ferdinand,official,10.827451,-61.053745,TT-SGE,,
-1360626,-1959025,hydrographic,"Pure River","Pure River",official,10.316667,-61.3,TT-PRT,,
-1359983,-1958182,settlement,"George Village","George Village",official,10.279405,-61.319864,TT-PRT,,
-1360909,-1959424,hydrographic,"Anse Tringuant","Anse Tringuant",official,10.674808,-61.601574,TT-DMN,,
-1359886,20032570,hydrographic,Durity,Durity,official,10.166667,-61.383333,TT-PRT,,
-1359812,-1957946,hypsographic,"Cumberland Hill","Cumberland Hill",official,10.700666,-61.535452,TT-DMN,,
-1360447,20032441,hydrographic,Nariva,Nariva,official,10.391607,-61.020066,TT-MRC,,
-1359939,-1958124,settlement,"Fonrose Village","Fonrose Village",variant,10.287084,-61.238653,TT-MRC,,
-1360814,-1959291,settlement,"Shore Park","Shore Park",official,11.257888,-60.537838,TT-TOB,,
-1359783,-1957912,settlement,Cove,Cove,official,11.141446,-60.796419,TT-TOB,,
-1360267,20032491,hydrographic,"Madame Espagnole","Madame Espagnole",official,10.542371,-61.461608,TT-000,,
-1360207,-1958475,settlement,Lengua,Lengua,official,10.254917,-61.367247,TT-PRT,,
-1360434,-1958774,hypsographic,"Mucurapo Point","Mucurapo Point",official,10.658078,-61.53263,TT-POS,,
-1359914,-1958086,hypsographic,"Erin Bouffe","Erin Bouffe",official,10.061885,-61.628481,TT-SIP,,
-1360415,-1958756,settlement,"Moruga Village","Moruga Village",variant,10.087779,-61.280719,TT-PRT,,
-1360483,-1958834,spot,"Orange Grove","Orange Grove",official,10.616667,-61.366667,TT-TUP,,
-1360522,-1958889,park,"Paria Reserve","Paria Reserve",official,10.766846,-61.235242,TT-TUP,,
-1360700,-1959123,hypsographic,"Saint Anne Point","Saint Anne Point",official,10.113985,-61.83135,TT-SIP,,
-1360231,-1958508,hypsographic,"London Bridge Rock","London Bridge Rock",official,11.354542,-60.533266,TT-TOB,,
-1360438,-1958780,administrative_region,Naparima,Naparima,variant,10.233333,-61.45,TT-PED,,
-1360052,-1958269,settlement,Guapo,Guapo,official,10.19505,-61.656639,TT-PTF,,
-1360934,-1959468,settlement,"Union Village","Union Village",variant,10.302124,-61.440426,TT-SFO,,
-1359924,-1958102,settlement,Exchange,Exchange,official,10.421546,-61.453159,TT-CTT,,
-1360580,-1958964,hypsographic,"Pigeon Peak","Pigeon Peak",official,11.3,-60.55,TT-TOB,,
-1360951,-1959489,hydrographic,"Vessigny River","Vessigny River",official,10.219691,-61.633446,TT-SIP,,
-1360456,-1958804,hydrographic,"Boca de Navios","Boca de Navios",official,10.692106,-61.732224,TT-DMN,,
-1360186,-1958450,hydrographic,"La Seiva River","La Seiva River",official,10.633964,-61.143212,TT-SGE,,
-1360251,-1958530,settlement,"Lower Quarter","Lower Quarter",official,11.206022,-60.765116,TT-TOB,,
-1360060,20032540,hydrographic,Guarapiche,Guarapiche,official,10.303891,-61.289221,TT-PRT,,
-1360639,-1959045,hypsographic,"Radix Point","Radix Point",variant,10.333545,-60.97517,TT-MRC,,
-1360196,-1958464,settlement,"La Veronica","La Veronica",official,10.7,-61.35,TT-TUP,,
-1360164,20032509,hydrographic,"La Guiria","La Guiria",official,10.630578,-61.048137,TT-SGE,,
-1360502,-1958863,hydrographic,"Palmiste River","Palmiste River",official,10.218614,-61.005262,TT-MRC,,
-1359943,20032558,hydrographic,Forest,Forest,official,10.163782,-61.650033,TT-SIP,,
-1360931,-1959463,settlement,"Tyson Hall","Tyson Hall",official,11.154868,-60.818195,TT-TOB,,
-1360373,-1958697,hypsographic,"Minster Rock","Minster Rock",official,11.166667,-60.7,TT-TOB,,
-1360585,20032414,hydrographic,Piparo,Piparo,official,10.32621,-61.36699,TT-PRT,,
-1360665,20032398,hydrographic,Rivulet,Rivulet,official,10.410417,-61.43636,TT-CTT,,
-1360428,-1958766,settlement,"Mount Pleasant","Mount Pleasant",official,10.713191,-61.609989,TT-DMN,,
-1359903,-1958072,settlement,"El Socorro","El Socorro",official,10.637397,-61.455418,TT-SJL,,
-1360009,-1958213,hydrographic,"Quebrada Grande","Quebrada Grande",official,10.723824,-61.098571,TT-SGE,,
-1360883,-1959193,hydrographic,"Saint Peter’s Bay","Saint Peter's Bay",variant,10.67505,-61.590797,TT-DMN,,
-1359750,-1957869,hydrographic,"Columbus Bay","Columbus Bay",official,10.076517,-61.917999,TT-SIP,,
-1360747,-1959200,hydrographic,"La Rivière Salée","La Riviere Salee",official,10.795902,-61.291206,TT-TUP,,
-1359880,-1957599,hydrographic,"Bocas de Dragon","Bocas de Dragon",variant,10.711058,-61.76041,TT-000,,
-1360361,-1958682,hydrographic,"Trou Michel","Trou Michel",official,10.81163,-61.163063,TT-SGE,,
-1360422,-1958759,hydrographic,"Mosquito Creek","Mosquito Creek",official,10.246018,-61.511534,TT-PED,,
-1360598,-1958985,hydrographic,"Plum River","Plum River",official,10.134686,-61.255189,TT-PRT,,
-1359971,-1958163,hypsographic,"Galfa Point","Galfa Point",official,10.071723,-61.843139,TT-SIP,,
-1360230,-1958506,hydrographic,"Lo Charro River","Lo Charro River",official,10.086147,-61.596196,TT-SIP,,
-1360174,-1958434,hydrographic,"Lambeau River","Lambeau River",official,11.169018,-60.752854,TT-TOB,,
-1360046,20032547,hydrographic,Guanacuna,Guanacuna,official,10.316669,-61.397347,TT-CTT,,
-1360268,-1958552,hydrographic,"Madame Francoise Ravine","Madame Francoise Ravine",variant,10.150913,-61.032201,TT-MRC,,
-1359775,-1957898,settlement,Courland,Courland,official,11.210346,-60.772885,TT-TOB,,
-1359772,-1957894,settlement,Coryal,Coryal,official,10.484784,-61.43425,TT-CTT,,
-1359930,-1958112,settlement,"Filette Village","Filette Village",variant,10.80576,-61.35897,TT-SJL,,
-1360086,-1958317,settlement,Hermitage,Hermitage,official,10.235486,-61.461155,TT-PED,,
-1360527,20032426,hydrographic,"Parlatuvier West","Parlatuvier West",official,11.298452,-60.649323,TT-TOB,,
-1360460,-1958808,hypsographic,Nelson,Nelson,official,10.656201,-61.600658,TT-DMN,,
-1359742,-1957860,hydrographic,"Cocorite River","Cocorite River",official,10.78583,-61.190197,TT-TUP,,
-1360638,-1959042,hypsographic,"Quoin Cliff","Quoin Cliff",official,10.080539,-61.687873,TT-SIP,,
-1360927,-1959459,administrative_region,"Turure Ward","Turure Ward",variant,10.5,-61.116667,TT-SGE,,
-1359868,20032575,hydrographic,"Diego Martin","Diego Martin",official,10.674703,-61.560483,TT-DMN,,
-1360675,-1959090,hydrographic,"Roseau River","Roseau River",official,10.277706,-61.173074,TT-MRC,,
-1360750,20032388,hydrographic,Salt,Salt,official,10.25,-61.083333,TT-MRC,,
-1359757,-1957876,settlement,Concordia,Concordia,official,11.218003,-60.725269,TT-TOB,,
-1360520,-1958886,hydrographic,"Paria Falls","Paria Falls",official,10.766667,-61.25,TT-TUP,,
-1360537,-1958907,settlement,Peñal,Penal,variant,10.169454,-61.454217,TT-PED,,
-1360393,-1958704,hydrographic,"Mocra River","Mocra River",variant,10.166667,-61.466667,TT-PED,,
-1360282,-1958571,hypsographic,"Majorca Island","Majorca Island",official,10.433214,-61.037448,TT-MRC,,
-1360424,-1958761,settlement,"Mount Dillon River","Mount Dillon River",official,11.266667,-60.7,TT-TOB,,
-1360624,-1959023,hydrographic,"Puerto Grande","Puerto Grande",official,10.077536,-61.671412,TT-SIP,,
-1359872,20032574,hydrographic,Doctors,Doctors,official,11.3,-60.533333,TT-TOB,,
-1360396,20032454,hydrographic,Mora,Mora,official,10.241306,-61.151846,TT-MRC,,
-1359823,-1957959,administrative_region,Cunupia,Cunupia,variant,10.55,-61.333333,TT-CTT,,
-1359978,-1958174,settlement,Gasparillo,Gasparillo,official,10.317041,-61.426026,TT-CTT,,
-1360582,-1958966,hydrographic,"Pilote River","Pilote River",official,10.143005,-61.066843,TT-MRC,,
-1359933,-1958116,spot,"Five Rivers Estate","Five Rivers Estate",official,10.65,-61.35,TT-TUP,,
-1360820,-1959299,park,Siparia,Siparia,official,10.133333,-61.5,TT-SIP,,
-1359931,-1958111,hypsographic,"Filette Point","Filette Point",official,10.810386,-61.353975,TT-SJL,,
-1360317,20032476,hydrographic,Marac,Marac,official,10.072346,-61.35245,TT-PRT,,
-1360599,-1958986,settlement,Plymouth,Plymouth,official,11.22209,-60.778491,TT-TOB,,
-1359792,-1957921,hypsographic,Cronstadt,Cronstadt,variant,10.656876,-61.63202,TT-DMN,,
-1360057,-1958275,settlement,"Guaracara Junction","Guaracara Junction",official,10.3797,-61.325409,TT-CTT,,
-1360808,-1958036,hydrographic,"Drachen Schlund","Drachen Schlund",variant,10.04549,-61.935507,TT-000,,
-1360279,-1958565,hydrographic,"Mahaut River","Mahaut River",official,10.828839,-61.072231,TT-SGE,,
-1360791,-1959262,hydrographic,"Saut d’Eau Cave","Saut d'Eau Cave",official,10.75,-61.516667,TT-DMN,,
-1360181,-1958442,hydrographic,"The Large Canal","The Large Canal",official,10.45,-61.083333,TT-MRC,,
-1360825,20032371,hydrographic,Siras,Siras,official,10.727984,-60.9856,TT-SGE,,
-1359893,-1958055,hydrographic,"Eau Claire River","Eau Claire River",official,10.133333,-61.083333,TT-MRC,,
-1360084,-1958314,hypsographic,"Hawk’s Bill","Hawk's Bill",official,11.207108,-60.78559,TT-TOB,,
-1360312,-1958613,hydrographic,"Maracas Bay River","Maracas Bay River",official,10.757689,-61.444957,TT-SJL,,
-1359744,14630870,hypsographic,"Corial Hill","Corial Hill",official,10.300691,-61.385982,TT-PRT,,
-1360953,-1959493,administrative_region,"County of Victoria","County of Victoria",official,10.25,-61.333333,TT-000,1,
-1360718,-1959149,administrative_region,"Saint George","Saint George",official,11.216667,-60.7,TT-TOB,,
-1360777,-1959453,hydrographic,"Tunapuna River","Tunapuna River",variant,10.620772,-61.422516,TT-000,,
-1359785,20032605,hydrographic,"Cow Foot","Cow Foot",official,11.239392,-60.62487,TT-TOB,,
-1360290,-1958066,hydrographic,"El Mamoral River","El Mamoral River",variant,10.45,-61.316667,TT-CTT,,
-1360712,-1959133,hydrographic,"Saint Cité Bay","Saint Cite Bay",variant,10.754268,-61.526624,TT-DMN,,
-1360195,-1958463,hydrographic,"Laventille Swamp","Laventille Swamp",official,10.633333,-61.483333,TT-SJL,,
-1360104,20032527,hydrographic,Hope,Hope,official,10.09945,-61.585562,TT-SIP,,
-1360119,-1958355,settlement,"Indian Walk","Indian Walk",official,10.27474,-61.330159,TT-PRT,,
-1360135,-1958379,hypsographic,"Peña de Juangalo","Pena de Juangalo",official,10.716667,-61.383333,TT-TUP,,
-1360111,20032525,hydrographic,Huila,Huila,official,10.466667,-61.083333,TT-SGE,,
-1360858,-1959356,hypsographic,"Mount Tabor","Mount Tabor",official,10.672957,-61.397097,TT-TUP,,
-1360583,-1958967,hydrographic,"Pinfold Bay","Pinfold Bay",official,11.188683,-60.65345,TT-TOB,,
-1360805,-1959076,hydrographic,"Rio Seco River","Rio Seco River",variant,10.707542,-61.031559,TT-SGE,,
-1360322,20032473,hydrographic,Marianne,Marianne,official,10.116667,-61.1,TT-MRC,,
-1360679,-1959096,hydrographic,"Rouge River","Rouge River",official,10.816667,-60.916667,TT-SGE,,
-1359742,20032615,hydrographic,Cocorite,Cocorite,official,10.78583,-61.190197,TT-TUP,,
-1360280,-1958567,hypsographic,"Main Ridge","Main Ridge",official,11.266667,-60.633333,TT-TOB,,
-1360863,-1959363,hydrographic,"Tairico Bay","Tairico Bay",variant,10.761421,-61.426566,TT-SJL,,
-1360584,-1958968,settlement,Piparo,Piparo,official,10.339746,-61.341187,TT-PRT,,
-1360737,-1958838,settlement,Oropuche,Oropuche,variant,10.223294,-61.542508,TT-SIP,,
-1360777,20032378,hydrographic,"San Miguel","San Miguel",official,10.620772,-61.422516,TT-000,,
-1360091,-1958323,hydrographic,"Hilaire River","Hilaire River",variant,10.127279,-61.055248,TT-MRC,,
-1360345,20032464,hydrographic,Mausica,Mausica,official,10.587679,-61.314068,TT-000,,
-1360640,-1959044,hydrographic,"Radix Lagoon River","Radix Lagoon River",official,10.26986,-61.000971,TT-MRC,,
-1360772,-1959237,hydrographic,"Sangre Grande River","Sangre Grande River",official,10.581821,-61.107033,TT-SGE,,
-1360937,-1959470,settlement,"Upper Carapichima","Upper Carapichima",variant,10.445562,-61.396342,TT-CTT,,
-1360175,-1957444,settlement,"Anse Noire","Anse Noire",variant,10.834787,-60.97888,TT-SGE,,
-1360314,-1958620,hydrographic,"Maracus Falls","Maracus Falls",variant,10.733333,-61.4,TT-TUP,,
-1359999,-1958203,hypsographic,"Point Gourde","Point Gourde",official,10.665182,-61.622884,TT-DMN,,
-1360781,-1959252,settlement,"Sans Souci","Sans Souci",official,10.83415,-61.001535,TT-SGE,,
-1360838,-1959329,settlement,Spring,Spring,official,10.420963,-61.426238,TT-CTT,,
-1360720,-1958183,hypsographic,"Giles Island","Giles Island",variant,11.355038,-60.521742,TT-TOB,,
-1360014,-1958220,hydrographic,"Grande l’Anse","Grande l'Anse",official,10.832508,-60.953905,TT-SGE,,
-1360378,20032456,hydrographic,Momuripo,Momuripo,official,10.616667,-61.466667,TT-SJL,,
-1360262,-1958542,hypsographic,Machapoorie,Machapoorie,variant,10.45,-61.233333,TT-CTT,,
-1360761,20032383,hydrographic,Sandy,Sandy,official,10.25,-61.116667,TT-MRC,,
-1359813,-1957951,settlement,"Cumuto Village","Cumuto Village",variant,10.586586,-61.207835,TT-SGE,,
-1359966,-1958156,settlement,"Fyzabad Village","Fyzabad Village",variant,10.1811,-61.545776,TT-SIP,,
-1359896,-1958062,hydrographic,"Edith Falls","Edith Falls",official,10.728433,-61.625937,TT-DMN,,
-1360068,-1958290,administrative_region,"Ward of Guayaguayare","Ward of Guayaguayare",official,10.2,-61.05,TT-MRC,,
-1360297,-1957841,hydrographic,"Clarkes Bay","Clarkes Bay",variant,11.222234,-60.599863,TT-TOB,,
-1360042,-1958257,hydrographic,"Guaico River","Guaico River",official,10.593732,-61.096977,TT-SGE,,
-1360487,-1958841,hypsographic,"El Cerro del Oropuche","El Cerro del Oropuche",official,10.763116,-61.15726,TT-SGE,,
-1360968,-1959516,hydrographic,"White River","White River",official,10.068556,-61.479289,TT-PED,,
-1359977,-1958172,hypsographic,"Gaspar Grande","Gaspar Grande",official,10.664638,-61.656786,TT-DMN,,
-1360427,-1958764,hydrographic,"Mount Irvine Bay","Mount Irvine Bay",official,11.18966,-60.799157,TT-TOB,,
-1360453,-1957607,hydrographic,"Bois Neuf River","Bois Neuf River",variant,10.370326,-61.062051,TT-MRC,,
-1360830,-1959319,park,"Soldado Marine Oilfield","Soldado Marine Oilfield",official,10.2,-61.9,TT-000,,
-1360841,-1959335,settlement,Starwood,Starwood,official,11.328585,-60.527041,TT-TOB,,
-1360632,-1959033,hypsographic,"Queen Islet","Queen Islet",variant,11.239054,-60.558207,TT-TOB,,
-1360897,-1959405,park,"Tobago Forest Reserve","Tobago Forest Reserve",official,11.27016,-60.636339,TT-TOB,,
-1359992,-1958195,settlement,Goldsborough,Goldsborough,official,11.215288,-60.629513,TT-TOB,,
-1360821,-1959306,settlement,"Siparia Village","Siparia Village",variant,10.145253,-61.507399,TT-SIP,,
-1360901,-1959412,settlement,"Todds Road","Todds Road",variant,10.481042,-61.333265,TT-CTT,,
-1360016,-1958223,settlement,"Grande Riviere","Grande Riviere",official,10.825158,-61.050949,TT-SGE,,
-1360808,-1957594,hydrographic,"Boca del Sierpe","Boca del Sierpe",variant,10.04549,-61.935507,TT-000,,
-1360432,-1958772,settlement,"Mount Thomas","Mount Thomas",official,11.238573,-60.737814,TT-TOB,,
-1360767,-1959118,settlement,"Sagre Chiquita","Sagre Chiquita",variant,10.566982,-61.111545,TT-SGE,,
-1360310,-1958611,settlement,Maracas,Maracas,official,10.710587,-61.419648,TT-TUP,,
-1360211,-1958481,hypsographic,"Les Boquets Islands","Les Boquets Islands",official,10.760652,-61.495758,TT-SJL,,
-1360877,-1959498,hydrographic,"Vistabella River","Vistabella River",variant,10.285029,-61.450212,TT-SFO,,
-1360118,-1958354,settlement,"Indian Chain","Indian Chain",official,10.396453,-61.411932,TT-CTT,,
-1359898,-1958065,settlement,"El Dorado","El Dorado",official,10.639815,-61.380499,TT-TUP,,
-1360539,-1958911,hydrographic,"Pero Seco River","Pero Seco River",official,10.683333,-61.05,TT-SGE,,
-1359776,-1957899,hypsographic,"Courland Point","Courland Point",official,11.219738,-60.780877,TT-TOB,,
-1360496,20032433,hydrographic,Ortoire,Ortoire,official,10.334915,-60.994183,TT-000,,
-1360745,-1959197,settlement,"Saint Thomas Village","Saint Thomas Village",variant,10.519742,-61.423408,TT-CHA,,
-1359880,-1957602,hydrographic,"Bocas del Dragón","Bocas del Dragon",variant,10.711058,-61.76041,TT-000,,
-1360158,-1958413,hypsographic,"La Fontaine Pointe","La Fontaine Pointe",variant,10.096701,-61.1101,TT-MRC,,
-1360363,-1959395,hydrographic,"Third Channel","Third Channel",variant,10.05,-61.966667,TT-000,,
-1359979,-1958175,hypsographic,"Gasparillo Island","Gasparillo Island",official,10.674418,-61.654651,TT-DMN,,
-1360551,20032422,hydrographic,"Petite Marianne","Petite Marianne",official,10.778775,-61.301843,TT-TUP,,
-1360894,-1959401,hydrographic,"Tintin River","Tintin River",official,10.510366,-61.18641,TT-SGE,,
-1359890,-1958051,hydrographic,"Eastern Channel","Eastern Channel",official,10.05,-61.933333,TT-000,,
-1360522,-1958887,park,"Paria Forest Reserve","Paria Forest Reserve",variant,10.766846,-61.235242,TT-TUP,,
-1360072,-1958300,hydrographic,"Guaymare River","Guaymare River",variant,10.589462,-61.405832,TT-TUP,,
-1360444,20032442,hydrographic,Naranjo,Naranjo,official,10.791455,-60.978395,TT-SGE,,
-1360467,-1958815,hypsographic,"Point Noire","Point Noire",official,10.567805,-61.020133,TT-SGE,,
-1359958,-1958146,hypsographic,"French Hill","French Hill",official,11.183333,-60.716667,TT-TOB,,
-1360769,-1959233,settlement,"Sangre Grande","Sangre Grande",official,10.587123,-61.132198,TT-SGE,,
-1360538,-1958909,settlement,Pepper,Pepper,variant,10.403222,-61.356376,TT-CTT,,
-1360554,-1958931,hydrographic,"Petite Rivière","Petite Riviere",official,10.813449,-61.153501,TT-SGE,,
-1360805,-1959281,hydrographic,"Rio Seco","Rio Seco",official,10.707542,-61.031559,TT-SGE,,
-1360907,-1959420,hydrographic,"Totuma River","Totuma River",official,10.522679,-61.185771,TT-SGE,,
-1359913,-1958316,hydrographic,"Herine Bay","Herine Bay",variant,10.078144,-61.722207,TT-SIP,,
-1360807,-1959283,hydrographic,"Sena Bay","Sena Bay",official,10.723585,-60.985432,TT-SGE,,
-1360827,-1959312,settlement,"Sixth Company","Sixth Company",official,10.26259,-61.345186,TT-PRT,,
-1360855,-1959352,hydrographic,"Tabateau River","Tabateau River",official,10.719473,-60.995764,TT-SGE,,
-1360707,-1959132,hydrographic,"Ravine Saint Blaise","Ravine Saint Blaise",official,10.138283,-61.183333,TT-000,,
-1360818,-1959296,hydrographic,"Boca Sin Entrada","Boca Sin Entrada",official,10.699598,-61.719195,TT-DMN,,
-1360974,-1958602,park,"Manzanilla Windbelt Reserve","Manzanilla Windbelt Reserve",variant,10.599885,-61.031518,TT-SGE,,
-1359789,-1957918,hydrographic,"Crayfish River","Crayfish River",official,10.697397,-61.195572,TT-SGE,,
-1360719,-1959148,administrative_region,"Saint George","Saint George",variant,10.666667,-61.416667,TT-000,1,
-1360391,-1958724,administrative_region,"Montserrat Ward","Montserrat Ward",variant,10.416667,-61.35,TT-CTT,,
-1360714,-1959143,settlement,"Saint Elizabeth","Saint Elizabeth",official,10.683333,-61.5,TT-SJL,,
-1360157,-1958411,settlement,"La Finette","La Finette",official,10.731383,-61.51606,TT-DMN,,
-1360976,-1959525,settlement,Windsor,Windsor,official,11.212799,-60.652064,TT-TOB,,
-1359834,-1957977,hydrographic,"Curumpalo River","Curumpalo River",official,10.665812,-61.45013,TT-SJL,,
-1359849,-1957995,hypsographic,"Punta Delgada","Punta Delgada",variant,10.680581,-61.667243,TT-DMN,,
-1360025,20032551,hydrographic,"Grand Goudron","Grand Goudron",official,10.130279,-61.164429,TT-MRC,,
-1359798,20032598,hydrographic,Cuche,Cuche,official,10.450327,-61.108516,TT-MRC,,
-1360494,-1958850,administrative_region,Ortoire,Ortoire,variant,10.266667,-61.316667,TT-PRT,,
-1360356,-1958673,park,"Melajo Forest Reserve","Melajo Forest Reserve",variant,10.633923,-61.082457,TT-SGE,,
-1360414,-1958748,hypsographic,"Punta del Morro","Punta del Morro",official,10.141439,-61.800995,TT-SIP,,
-1360183,-1958444,hydrographic,"Las Cuavas Bay","Las Cuavas Bay",variant,10.780463,-61.398652,TT-SJL,,
-1360939,-1959472,settlement,"Upper Manzanilla","Upper Manzanilla",official,10.52291,-61.062141,TT-SGE,,
-1360027,-1958642,hypsographic,"Matelot Point","Matelot Point",variant,10.821199,-61.141413,TT-SGE,,
-1360396,-1958728,hydrographic,"Mora River","Mora River",official,10.241306,-61.151846,TT-MRC,,
-1360589,-1958975,hydrographic,"Pitch Shoal","Pitch Shoal",official,10.266667,-61.533333,TT-000,,
-1360625,-1959024,hypsographic,"Pulteney Hill","Pulteney Hill",official,11.247526,-60.622912,TT-TOB,,
-1360734,-1959176,settlement,"Saint Margaret","Saint Margaret",official,10.345159,-61.452767,TT-CTT,,
-1360934,-1959466,settlement,Union,Union,official,10.302124,-61.440426,TT-SFO,,
-1360659,-1959070,hypsographic,"Richmond Islet","Richmond Islet",variant,11.217485,-60.593669,TT-TOB,,
-1360744,-1959192,hydrographic,"Saint Peter’s Bay","Saint Peter's Bay",official,10.682717,-61.59448,TT-DMN,,
-1360550,-1958916,hydrographic,"Petit Anse River","Petit Anse River",variant,10.754005,-60.964045,TT-SGE,,
-1360064,-1958284,hypsographic,"Guatuaro Point","Guatuaro Point",official,10.339774,-60.968099,TT-MRC,,
-1360346,-1958661,hypsographic,"Mausica Savanna","Mausica Savanna",official,10.6,-61.316667,TT-TUP,,
-1360677,-1959093,hypsographic,"Point Rouge","Point Rouge",official,10.225268,-61.637848,TT-SIP,,
-1360729,-1959166,settlement,"Saint Joseph","Saint Joseph",official,10.655817,-61.418126,TT-TUP,,
-1359887,-1958094,settlement,Erthig,Erthig,variant,10.666667,-61.5,TT-SJL,,
-1360983,-1959533,park,"Yarra Forest Reserve","Yarra Forest Reserve",variant,10.768457,-61.328832,TT-TUP,,
-1359824,-1957962,hydrographic,"Cunupia River","Cunupia River",official,10.560864,-61.447071,TT-CHA,,
-1360682,-1959100,hydrographic,"Roussillac Swamp","Roussillac Swamp",official,10.231614,-61.587076,TT-SIP,,
-1360705,-1959129,hydrographic,"Saint Ann’s River","Saint Ann's River",official,10.684192,-61.506888,TT-SJL,,
-1360790,-1959261,hydrographic,"Saut Bay","Saut Bay",official,10.833983,-60.974658,TT-SGE,,
-1360457,-1958805,hypsographic,"Negra Point","Negra Point",official,10.069262,-61.385129,TT-PED,,
-1360472,-1958822,settlement,"North Manzanilla","North Manzanilla",official,10.516667,-61.033333,TT-SGE,,
-1360156,-1958409,hypsographic,"La Fabiana","La Fabiana",official,10.096039,-61.658697,TT-SIP,,
-1360670,20032397,hydrographic,Rock,Rock,official,10.135044,-61.25653,TT-PRT,,
-1360045,-1958262,settlement,Guamal,Guamal,official,10.75,-61.366667,TT-SJL,,
-1360725,-1959163,settlement,"Saint John Village","Saint John Village",variant,10.247513,-61.418342,TT-PRT,,
-1360071,-1958296,hypsographic,"Guayamare Point","Guayamare Point",variant,10.764817,-60.948305,TT-SGE,,
-1360250,-1958529,settlement,"Lower Manzanilla","Lower Manzanilla",official,10.516667,-61.05,TT-SGE,,
-1360684,-1959103,hydrographic,"Roxborough River","Roxborough River",official,11.247037,-60.582401,TT-TOB,,
-1360735,-1959178,hypsographic,"Saint Marie Point","Saint Marie Point",official,10.095651,-61.854285,TT-SIP,,
-1360613,-1959009,hydrographic,"L’Anse Pouchet","L'Anse Pouchet",official,10.665631,-61.54943,TT-000,,
-1360796,-1959272,hypsographic,"Savonetta Point","Savonetta Point",official,10.406065,-61.495326,TT-CTT,,
-1360341,20032467,hydrographic,Matura,Matura,official,10.656236,-61.038555,TT-SGE,,
-1360394,-1958726,settlement,Moos,Moos,official,10.270155,-61.2828,TT-PRT,,
-1360867,-1959366,administrative_region,Tamana,Tamana,variant,10.533333,-61.183333,TT-SGE,,
-1359932,-1958443,hypsographic,"Las Cotorras","Las Cotorras",variant,10.658168,-61.599208,TT-DMN,,
-1360726,-1959162,hydrographic,"Saint Johns Canal","Saint Johns Canal",official,10.203263,-61.509969,TT-SIP,,
-1360896,-1959404,administrative_region,"Ward of Tobago","Ward of Tobago",official,11.25,-60.666667,TT-TOB,,
-1360392,-1958722,hypsographic,"Montserrat Hills","Montserrat Hills",official,10.386651,-61.34365,TT-CTT,,
-1360793,-1959265,administrative_region,"Savana Grande","Savana Grande",variant,10.3,-61.366667,TT-PRT,,
-1360720,-1959156,hypsographic,"Saint Giles’s Islands","Saint Giles's Islands",variant,11.355038,-60.521742,TT-TOB,,
-1360515,-1958880,hypsographic,"Point Parasol","Point Parasol",official,10.793771,-61.265645,TT-TUP,,
-1360871,-1959375,hydrographic,"Tapana River","Tapana River",official,10.746665,-61.227762,TT-TUP,,
-1360184,-1958447,hypsographic,"Las Cuevas Point","Las Cuevas Point",official,10.782681,-61.410665,TT-SJL,,
-1359945,-1958270,hypsographic,"Point Guapo","Point Guapo",variant,10.18431,-61.692523,TT-PTF,,
-1359949,-1958137,settlement,"Four Roads Village","Four Roads Village",variant,10.486924,-61.217607,TT-CTT,,
-1360153,-1958405,hydrographic,"La Ceiba River","La Ceiba River",official,10.680366,-61.524598,TT-SJL,,
-1360328,20032470,hydrographic,Mason,Mason,official,10.226673,-61.318306,TT-PRT,,
-1359749,20032613,hydrographic,Colenso,Colenso,official,10.335351,-61.162677,TT-MRC,,
-1360047,-1957954,settlement,Cunapo,Cunapo,variant,10.597411,-61.268186,TT-TUP,,
-1360129,-1958372,hydrographic,"Japlicooper River","Japlicooper River",official,10.231668,-61.231137,TT-PRT,,
-1360519,-1958885,hydrographic,"Paria Bay","Paria Bay",official,10.792214,-61.25588,TT-TUP,,
-1360058,20032542,hydrographic,Guaracara,Guaracara,official,10.308584,-61.464546,TT-000,,
-1360139,-1958383,settlement,"Kelly Village","Kelly Village",official,10.586884,-61.359246,TT-TUP,,
-1360067,-1958289,settlement,Guayaguayare,Guayaguayare,official,10.14717,-61.03214,TT-MRC,,
-1360300,-1958594,hydrographic,"Manticool River","Manticool River",official,10.251096,-61.25306,TT-PRT,,
-1360502,20032432,hydrographic,Palmiste,Palmiste,official,10.218614,-61.005262,TT-MRC,,
-1359891,-1958052,hypsographic,"East Island","East Island",official,10.782743,-61.416513,TT-SJL,,
-1360541,-1958913,settlement,Peru,Peru,official,10.663639,-61.5358,TT-POS,,
-1360055,-1958273,hydrographic,"Guapo River","Guapo River",official,10.189573,-61.671871,TT-PTF,,
-1360079,-1958307,hypsographic,"Morne Harrison","Morne Harrison",official,10.7,-61.65,TT-DMN,,
-1360087,-1958318,settlement,Hermitage,Hermitage,official,10.35,-61.433333,TT-CTT,,
-1360667,-1959081,park,"Rochard Douglas Forest Reserve","Rochard Douglas Forest Reserve",official,10.15105,-61.346511,TT-PRT,,
-1360090,14628815,hydrographic,"Quebrada del Hierro River","Quebrada del Hierro River",official,10.777133,-61.404634,TT-SJL,,
-1359743,-1957861,hydrographic,"Cocos Bay","Cocos Bay",official,10.429889,-61.027857,TT-000,,
-1360598,20032412,hydrographic,Plum,Plum,official,10.134686,-61.255189,TT-PRT,,
-1359877,-1958031,hydrographic,"Doubloon River","Doubloon River",official,10.466667,-61.05,TT-000,,
-1360356,-1958674,park,"Melajo Reserve","Melajo Reserve",official,10.633923,-61.082457,TT-SGE,,
-1360411,20032446,hydrographic,Morocupano,Morocupano,official,10.166667,-61.483333,TT-SIP,,
-1360768,20032381,hydrographic,"Sangre Chiquita","Sangre Chiquita",official,10.59082,-61.093692,TT-SGE,,
-1360161,20032511,hydrographic,"Lagon Doux","Lagon Doux",official,10.259114,-61.001281,TT-MRC,,
-1360778,-1959246,hypsographic,"San Nicolas Point","San Nicolas Point",official,10.082401,-61.145377,TT-MRC,,
-1360932,-1959464,hypsographic,"Umbrella Rock","Umbrella Rock",official,10.696707,-61.713527,TT-DMN,,
-1359786,-1957915,hydrographic,"Cranmore River","Cranmore River",official,11.222292,-60.642288,TT-TOB,,
-1360401,20032451,hydrographic,Moriquite,Moriquite,official,10.085192,-61.276433,TT-PRT,,
-1360098,-1958330,hydrographic,"Hollis Reservoir","Hollis Reservoir",official,10.694784,-61.192273,TT-SGE,,
-1360306,-1958606,hydrographic,"Mapipire Ravine","Mapipire Ravine",variant,10.826957,-61.047405,TT-SGE,,
-1360768,-1959231,hydrographic,"Sangre Chiquite River","Sangre Chiquite River",variant,10.59082,-61.093692,TT-SGE,,
-1360175,-1958817,settlement,"Noire Bay","Noire Bay",variant,10.834787,-60.97888,TT-SGE,,
-1360199,20032502,hydrographic,L’Ebranche,L'Ebranche,official,10.514193,-61.039104,TT-SGE,,
-1359852,20032576,hydrographic,Depot,Depot,official,10.55,-61.366667,TT-CHA,,
-1359930,-1958113,settlement,Fillette,Fillette,variant,10.80576,-61.35897,TT-SJL,,
-1360286,-1958575,hypsographic,"Malheur Lulieu Point","Malheur Lulieu Point",official,10.829437,-61.050085,TT-SGE,,
-1360929,20032349,hydrographic,Turure,Turure,official,10.61389,-61.149132,TT-SGE,,
-1360030,-1958241,settlement,Granville,Granville,official,10.132562,-61.80412,TT-SIP,,
-1360221,-1958494,hypsographic,L’Islette,L'Islette,official,10.821249,-61.128352,TT-SGE,,
-1360383,-1958711,hypsographic,Monos,Monos,official,10.693151,-61.686044,TT-DMN,,
-1359843,-1957987,settlement,Débé,Debe,variant,10.208456,-61.452735,TT-PED,,
-1360284,-1958573,hypsographic,"Morne Mal d’Estomac","Morne Mal d'Estomac",official,10.739377,-61.516619,TT-DMN,,
-1360615,-1959011,hydrographic,"Poui River","Poui River",official,10.229542,-61.166667,TT-MRC,,
-1360005,-1958209,settlement,"Gran Couva","Gran Couva",official,10.403933,-61.374498,TT-CTT,,
-1360145,-1958393,settlement,"King’s Bay","King's Bay",official,11.272419,-60.551777,TT-TOB,,
-1360749,-1959209,hydrographic,"Saline Bay","Saline Bay",official,10.699761,-61.027428,TT-SGE,,
-1360713,-1959141,settlement,"Sainte Croix","Sainte Croix",official,10.26291,-61.368663,TT-PRT,,
-1360205,-1958473,hypsographic,L’Enfer,L'Enfer,official,10.833333,-61.05,TT-SGE,,
-1360383,-1958713,hypsographic,"Monos Island","Monos Island",variant,10.693151,-61.686044,TT-DMN,,
-1360023,-1958234,hydrographic,"Grand Fond Bay","Grand Fond Bay",official,10.683918,-61.686865,TT-DMN,,
-1360957,-1959502,settlement,"Warners Village","Warners Village",variant,10.573028,-61.417083,TT-SJL,,
-1360740,-1959186,hypsographic,"Morne Saint Michel","Morne Saint Michel",official,10.797513,-61.165206,TT-000,,
-1360942,-1959476,settlement,Valencia,Valencia,official,10.649883,-61.199926,TT-SGE,,
-1360146,20032515,hydrographic,"Kings Bay","Kings Bay",official,11.266667,-60.547639,TT-TOB,,
-1360852,-1959348,settlement,Tabaquite,Tabaquite,official,10.38824,-61.297045,TT-CTT,,
-1359804,-1957937,hydrographic,"Cumaca River","Cumaca River",official,10.69787,-61.139138,TT-SGE,,
-1360685,-1959104,hypsographic,"Roxborough Rock","Roxborough Rock",official,11.233333,-61.583333,TT-TOB,,
-1360990,-1957790,hypsographic,"Island of Chacachacare","Island of Chacachacare",variant,10.688447,-61.754619,TT-DMN,,
-1360944,-1959479,hydrographic,"Valencia River","Valencia River",official,10.639155,-61.204561,TT-SGE,,
-1359841,20032579,hydrographic,"Darrell Spring","Darrell Spring",official,11.182719,-60.736857,TT-TOB,,
-1360054,20032544,hydrographic,Guapo,Guapo,official,10.116667,-61.683333,TT-SIP,,
-1360883,-1959389,hydrographic,"Anse Tembladora","Anse Tembladora",official,10.67505,-61.590797,TT-DMN,,
-1360604,-1958994,settlement,"Point Ligoure","Point Ligoure",official,10.166667,-61.666667,TT-PTF,,
-1360925,20032351,hydrographic,Tumpuna,Tumpuna,official,10.580565,-61.28307,TT-CTT,,
-1360094,-1958326,spot,"Hillsborough Dam","Hillsborough Dam",official,11.225586,-60.669563,TT-TOB,,
-1360233,-1958510,park,"Longdenville Forest Reserve","Longdenville Forest Reserve",official,10.515115,-61.35411,TT-CTT,,
-1360406,-1958739,hydrographic,"Morne d’Or River","Morne d'Or River",official,11.237976,-60.621682,TT-TOB,,
-1360693,-1959114,hypsographic,"The Saddle","The Saddle",official,10.716667,-61.5,TT-DMN,,
-1360811,20032372,hydrographic,Sherry,Sherry,official,10.797155,-61.314898,TT-TUP,,
-1360845,20032368,hydrographic,Stone,Stone,official,10.124486,-61.183304,TT-000,,
-1360651,-1959060,hypsographic,"Reefs Point","Reefs Point",official,10.843334,-60.938787,TT-SGE,,
-1360366,20032460,hydrographic,Miguel,Miguel,official,10.749927,-61.209806,TT-TUP,,
-1360291,-1958583,settlement,"Manahambre Village","Manahambre Village",variant,10.266778,-61.384817,TT-PRT,,
-1360737,-1959180,settlement,"Saint Mary’s","Saint Mary's",official,10.223294,-61.542508,TT-SIP,,
-1359880,-1957600,hydrographic,"Bocas de Dragos","Bocas de Dragos",variant,10.711058,-61.76041,TT-000,,
-1360179,-1958439,settlement,"La Pastora","La Pastora",official,10.716667,-61.466667,TT-SJL,,
-1360231,-1958507,hypsographic,"London Bridge","London Bridge",variant,11.354542,-60.533266,TT-TOB,,
-1360155,-1958408,hydrographic,"La Cuesa River","La Cuesa River",official,10.5,-61.483333,TT-CTT,,
-1360585,-1958969,hydrographic,"Piparo River","Piparo River",official,10.32621,-61.36699,TT-PRT,,
-1359841,-1957985,hydrographic,"Darrell Spring River","Darrell Spring River",official,11.182719,-60.736857,TT-TOB,,
-1359988,-1958191,settlement,Colconda,Colconda,variant,10.253491,-61.438714,TT-PED,,
-1360882,-1959388,hydrographic,"Telephone Bay","Telephone Bay",official,10.668996,-61.621795,TT-DMN,,
-1360166,-1958426,spot,"La Laja","La Laja",official,10.720384,-61.275526,TT-TUP,,
-1360100,-1958332,hydrographic,"Homard River","Homard River",official,10.830991,-61.064317,TT-SGE,,
-1360153,-1958451,hydrographic,"La Seiva River","La Seiva River",variant,10.680366,-61.524598,TT-SJL,,
-1360163,-1958421,hydrographic,"La Guira","La Guira",official,11.14709,-60.821529,TT-TOB,,
-1360532,-1958900,hypsographic,"Pedro Point","Pedro Point",official,11.255295,-60.535695,TT-TOB,,
-1359746,20032614,hydrographic,Coffee,Coffee,official,11.262168,-60.716256,TT-TOB,,
-1360658,-1959068,hydrographic,"Richmond Bay","Richmond Bay",official,11.220222,-60.608229,TT-TOB,,
-1360784,-1959255,hypsographic,"Sans Souci Point","Sans Souci Point",official,10.842014,-61.008653,TT-SGE,,
-1360719,-1959150,administrative_region,"County of Saint George","County of Saint George",official,10.666667,-61.416667,TT-000,1,
-1360668,-1959082,hypsographic,Rock,Rock,official,10.656417,-61.602754,TT-000,,
-1360132,13728126,settlement,"Jermingham Junction","Jermingham Junction",official,10.548824,-61.399367,TT-CHA,,
-1360273,-1958340,hypsographic,Hospedales,Hospedales,variant,10.366667,-61.383333,TT-CTT,,
-1359858,-1958007,hypsographic,"Mount Diablo","Mount Diablo",variant,10.083333,-61.466667,TT-PED,,
-1359806,-1957939,hydrographic,"Cumana Bay","Cumana Bay",official,10.664713,-61.56654,TT-DMN,,
-1360951,-1959490,hydrographic,"Vessiny River","Vessiny River",variant,10.219691,-61.633446,TT-SIP,,
-1360362,-1958683,park,"Middle America","Middle America",official,21,-86,TT-000,,
-1360489,-1958844,hydrographic,"Oropuche Lagoon","Oropuche Lagoon",official,10.231413,-61.509337,TT-000,,
-1360470,-1958820,hypsographic,"Northern Range","Northern Range",official,10.733333,-61.25,TT-TUP,,
-1360453,-1958801,hydrographic,"Navet River","Navet River",official,10.370326,-61.062051,TT-MRC,,
-1360501,-1958860,hydrographic,"L’Anse Pa Jean","L'Anse Pa Jean",official,10.83268,-60.958823,TT-SGE,,
-1360840,-1959333,hydrographic,"Stanislas Bay","Stanislas Bay",official,10.679773,-61.755813,TT-DMN,,
-1360586,-1958971,hydrographic,"Pirates Bay","Pirates Bay",official,11.329674,-60.551601,TT-TOB,,
-1359845,-1957990,hypsographic,"Defour Point","Defour Point",official,10.836622,-60.999112,TT-SGE,,
-1360055,20032543,hydrographic,Guapo,Guapo,official,10.189573,-61.671871,TT-PTF,,
-1360357,20032461,hydrographic,Melajo,Melajo,official,10.620507,-61.056447,TT-SGE,,
-1360416,-1958749,administrative_region,Moruga,Moruga,variant,10.111733,-61.285849,TT-PRT,,
-1360340,-1958653,park,"Matura Reserve","Matura Reserve",official,10.712511,-61.123666,TT-SGE,,
-1360542,-1958914,settlement,Peters,Peters,official,10.5,-61.15,TT-SGE,,
-1360822,-1959298,administrative_region,Siparia,Siparia,official,10.129167,-61.641667,TT-SIP,,
-1360856,-1959354,hypsographic,"Punta Tablas","Punta Tablas",official,10.090059,-61.125757,TT-MRC,,
-1359976,-1958171,hypsographic,"Morne Gasparee","Morne Gasparee",official,10.75876,-61.318546,TT-TUP,,
-1360438,-1958784,administrative_region,"Naparima Ward","Naparima Ward",variant,10.233333,-61.45,TT-PED,,
-1360167,-1958427,hypsographic,"La Lue Point","La Lue Point",official,10.699637,-61.750108,TT-DMN,,
-1360786,-1959257,spot,"Santa Cruz","Santa Cruz",official,10.716667,-61.466667,TT-SJL,,
-1360091,13728772,hydrographic,"Saint Hilaire River","Saint Hilaire River",official,10.127279,-61.055248,TT-MRC,,
-1360493,-1958848,settlement,Ortinola,Ortinola,official,10.7,-61.316667,TT-TUP,,
-1359991,-1958194,settlement,"Golden Lane","Golden Lane",official,11.242538,-60.734562,TT-TOB,,
-1360384,-1958712,hydrographic,"Boca de Monos","Boca de Monos",official,10.683408,-61.671908,TT-DMN,,
-1360246,-1958523,hydrographic,"Los Iros Bay","Los Iros Bay",official,10.056653,-61.63792,TT-SIP,,
-1360681,20032394,hydrographic,Roussillac,Roussillac,official,10.233892,-61.579547,TT-SIP,,
-1359923,-1957510,hypsographic,"Point Baleine","Point Baleine",variant,10.664398,-61.667816,TT-DMN,,
-1360340,-1958649,park,"Matura Forest Reserve","Matura Forest Reserve",variant,10.712511,-61.123666,TT-SGE,,
-1360032,-1958243,hydrographic,"Great Courland Bay","Great Courland Bay",official,11.216061,-60.780693,TT-TOB,,
-1360347,-1958663,administrative_region,"County of Mayaro","County of Mayaro",official,10.166667,-61.083333,TT-000,1,
-1360698,-1959121,settlement,"Saint Andrew","Saint Andrew",official,10.422499,-61.478597,TT-CTT,,
-1360921,20032353,hydrographic,Tucuragua,Tucuragua,official,10.680638,-61.36244,TT-TUP,,
-1360800,-1959276,hydrographic,"Scorpion Ledge","Scorpion Ledge",official,10.651863,-61.654244,TT-000,,
-1359912,-1958081,administrative_region,Erin,Erin,variant,10.083333,-61.633333,TT-SIP,,
-1360674,-1959088,hypsographic,"Point Romain","Point Romain",official,10.671574,-61.743953,TT-DMN,,
-1360946,-1959483,settlement,"Vance River","Vance River",official,10.201726,-61.631167,TT-SIP,,
-1360081,-1958309,settlement,"Hart’s Cut","Hart's Cut",official,10.683333,-61.616667,TT-DMN,,
-1360217,-1958489,hypsographic,"Point Lisas","Point Lisas",official,10.37895,-61.492988,TT-CTT,,
-1360481,-1958832,hypsographic,"Morne d’Or","Morne d'Or",official,11.246491,-60.634786,TT-TOB,,
-1360835,-1959325,hypsographic,"South Rock","South Rock",official,11.283333,-60.5,TT-TOB,,
-1360164,-1958422,hydrographic,"La Guiria Ravine","La Guiria Ravine",variant,10.630578,-61.048137,TT-SGE,,
-1360548,-1958934,hydrographic,"Petit l’Anse","Petit l'Anse",variant,10.752386,-60.963327,TT-SGE,,
-1360003,-1958207,hypsographic,"Granby Point","Granby Point",official,11.185018,-60.660874,TT-TOB,,
-1360108,-1958342,hypsographic,Huevos,Huevos,official,10.696394,-61.715562,TT-DMN,,
-1360903,-1959413,hydrographic,"River Tompire","River Tompire",variant,10.780344,-60.946288,TT-SGE,,
-1359963,-1958152,hydrographic,"Fromager Bay","Fromager Bay",official,11.235641,-60.756164,TT-TOB,,
-1360720,-1959155,hypsographic,"Saint Giles Islets","Saint Giles Islets",variant,11.355038,-60.521742,TT-TOB,,
-1360684,20032393,hydrographic,Roxborough,Roxborough,official,11.247037,-60.582401,TT-TOB,,
-1360911,-1959429,administrative_region,"United Colony of Trinidad and Tobago","United Colony of Trinidad and Tobago",variant,11,-61,TT-000,,
-1359997,-1958200,settlement,"Gordon Settlement","Gordon Settlement",short,10.3,-61.4,TT-PRT,,
-1360131,-1958374,hypsographic,"Morne Jean","Morne Jean",official,10.730768,-61.583764,TT-DMN,,
-1360534,-1957558,hypsographic,"Black Islands","Black Islands",variant,10.213967,-61.634028,TT-SIP,,
-1360802,20032373,hydrographic,Scotts,Scotts,official,10.5,-61.266667,TT-CTT,,
-1360208,-1958476,hydrographic,"Lengua River","Lengua River",official,10.18831,-61.365928,TT-PRT,,
-1360620,-1959018,settlement,"Princess Town","Princess Town",variant,10.271836,-61.371031,TT-PRT,,
-1360298,-1958593,hydrographic,"Man-o’-War Bay","Man-o'-War Bay",variant,11.326958,-60.560502,TT-TOB,,
-1360563,-1958942,hydrographic,"Petit Trou","Petit Trou",official,11.141935,-60.780511,TT-TOB,,
-1360952,-1959495,settlement,"Victoria Village","Victoria Village",variant,10.261194,-61.45474,TT-SFO,,
-1360641,-1959046,settlement,Rambert,Rambert,official,10.238822,-61.47441,TT-PED,,
-1360865,-1959365,hydrographic,"Talparo River","Talparo River",official,10.522904,-61.272656,TT-CTT,,
-1360306,-1958605,hydrographic,"Mapepire River","Mapepire River",official,10.826957,-61.047405,TT-SGE,,
-1359788,20032602,hydrographic,Crapaud,Crapaud,official,10.220113,-61.316006,TT-PRT,,
-1360305,20032480,hydrographic,Mapepire,Mapepire,official,10.667028,-61.326151,TT-TUP,,
-1360496,-1958849,hydrographic,"Ortire River","Ortire River",variant,10.334915,-60.994183,TT-000,,
-1360575,-1958957,hypsographic,"Mount Pierre","Mount Pierre",variant,10.734614,-61.592836,TT-DMN,,
-1360731,-1959169,settlement,"Saint Julien","Saint Julien",official,10.271086,-61.358843,TT-PRT,,
-1359821,-1958303,hydrographic,"Gunaripa River","Gunaripa River",variant,10.574681,-61.153269,TT-SGE,,
-1360666,-1959080,settlement,Robert,Robert,official,10.271094,-61.288674,TT-PRT,,
-1360437,-1958779,settlement,"Nancoo Village","Nancoo Village",official,10.563579,-61.32467,TT-CTT,,
-1360300,20032481,hydrographic,Manticool,Manticool,official,10.251096,-61.25306,TT-PRT,,
-1359921,-1958098,hydrographic,"Esperance River","Esperance River",official,10.124663,-61.826668,TT-SIP,,
-1360593,20032413,hydrographic,Platanal,Platanal,official,10.715694,-61.150166,TT-SGE,,
-1360516,-1958881,hypsographic,"Point Parasol","Point Parasol",official,10.783374,-61.415051,TT-SJL,,
-1360927,-1959456,administrative_region,"Ward of Turure","Ward of Turure",official,10.5,-61.116667,TT-SGE,,
-1360141,-1958387,park,Kilgwyn,Kilgwyn,official,11.150844,-60.815614,TT-TOB,,
-1360755,20032385,hydrographic,Salybia,Salybia,official,10.833158,-60.922182,TT-SGE,,
-1360797,20032374,hydrographic,Savonetta,Savonetta,official,10.418296,-61.426914,TT-CTT,,
-1359852,-1958000,hydrographic,"Depot River","Depot River",official,10.55,-61.366667,TT-CHA,,
-1360277,20032486,hydrographic,Mahaut,Mahaut,official,10.288034,-61.000801,TT-MRC,,
-1360268,-1958553,hydrographic,"Madame Françoise River","Madame Francoise River",official,10.150913,-61.032201,TT-MRC,,
-1360416,-1958751,administrative_region,"Ward of Moruga","Ward of Moruga",official,10.111733,-61.285849,TT-PRT,,
-1359770,14630219,hypsographic,"Coral Point","Coral Point",official,10.062125,-61.927737,TT-SIP,,
-1359874,-1958179,hydrographic,"Geoffroy Bay","Geoffroy Bay",variant,10.683103,-61.699541,TT-DMN,,
-1360561,-1959002,hydrographic,"Pool River","Pool River",variant,10.462207,-61.077867,TT-MRC,,
-1360750,-1959210,hydrographic,"Salt River","Salt River",official,10.25,-61.083333,TT-MRC,,
-1360431,-1958770,settlement,"Mount Stewart","Mount Stewart",official,10.289926,-61.406072,TT-PRT,,
-1360630,-1959032,hydrographic,"Quebrada River","Quebrada River",official,10.182117,-61.476741,TT-PED,,
-1360121,20032522,hydrographic,Inverawe,Inverawe,official,11.233333,-60.6,TT-TOB,,
-1360576,-1958997,hypsographic,Ponte-à-Pierre,Ponte-a-Pierre,variant,10.320884,-61.467749,TT-CTT,,
-1360773,-1959240,spot,"San José","San Jose",official,10.709916,-61.328827,TT-TUP,,
-1359960,-1958148,settlement,Friendsfield,Friendsfield,official,11.193896,-60.711541,TT-TOB,,
-1359865,-1958015,hypsographic,"Diego Islands","Diego Islands",official,10.65766,-61.629841,TT-DMN,,
-1360185,-1958449,park,"Las Cuevas Undemarcated Forest Reserve","Las Cuevas Undemarcated Forest Reserve",variant,10.770381,-61.374438,TT-SJL,,
-1359945,-1958130,hypsographic,"Point Fortin","Point Fortin",official,10.18431,-61.692523,TT-PTF,,
-1360149,-1958398,settlement,"La Brea","La Brea",official,10.242345,-61.613268,TT-SIP,,
-1359765,-1957886,spot,"Corinth Station","Corinth Station",official,10.25,-61.45,TT-PED,,
-1360185,-1958448,park,"Las Cuevas Reserve","Las Cuevas Reserve",variant,10.770381,-61.374438,TT-SJL,,
-1360616,-1959012,settlement,Preau,Preau,official,10.202574,-61.316137,TT-PRT,,
-1360720,-1958677,hypsographic,"Melville Island","Melville Island",variant,11.355038,-60.521742,TT-TOB,,
-1360973,-1959521,settlement,Williamsville,Williamsville,official,10.312832,-61.382959,TT-PRT,,
-1360540,-1958912,hydrographic,"Perruquier Bay","Perruquier Bay",official,10.683872,-61.755567,TT-DMN,,
-1360240,-1958517,spot,"Los Armadillos","Los Armadillos",official,10.483333,-61.183333,TT-SGE,,
-1360261,-1958541,hypsographic,"Macaw Reserve","Macaw Reserve",variant,10.39527,-61.023412,TT-MRC,,
-1359802,-1957935,hydrographic,"Culloden Bay","Culloden Bay",official,11.245525,-60.748669,TT-TOB,,
-1359928,-1958107,hydrographic,"Ferdinand River","Ferdinand River",official,10.827451,-61.053745,TT-SGE,,
-1360966,-1959512,hypsographic,"White Cliff","White Cliff",official,10.084644,-61.73683,TT-SIP,,
-1360646,-1959054,hypsographic,"Red Cliff","Red Cliff",official,10.084665,-61.717013,TT-SIP,,
-1360165,20032508,hydrographic,"La Horquette","La Horquette",official,10.778607,-61.206238,TT-TUP,,
-1360283,-1958572,settlement,"Malabar Settlement","Malabar Settlement",official,10.625307,-61.281397,TT-ARI,,
-1360683,-1959101,settlement,Roxborough,Roxborough,official,11.249454,-60.575969,TT-TOB,,
-1359839,20032580,hydrographic,Damien,Damien,official,10.800097,-61.332708,TT-TUP,,
-1360720,-1958678,hypsographic,"Melville Islands","Melville Islands",variant,11.355038,-60.521742,TT-TOB,,
-1359986,-1958188,hypsographic,"Goat Island","Goat Island",official,11.300625,-60.519083,TT-TOB,,
-1360291,-1958582,settlement,Manahambre,Manahambre,official,10.266778,-61.384817,TT-PRT,,
-1360822,13448377,administrative_region,"Region of Siparia","Region of Siparia",official,10.129167,-61.641667,TT-SIP,,
-1360511,-1958876,hypsographic,"Papelon Point","Papelon Point",official,10.067795,-61.399233,TT-PED,,
-1360369,-1958690,hypsographic,"Military Hill","Military Hill",official,11.233333,-60.6,TT-TOB,,
-1360353,-1958669,settlement,"Mc Bean","Mc Bean",official,10.447672,-61.452153,TT-CTT,,
-1360581,-1958965,hypsographic,"Pigeon Point","Pigeon Point",official,11.173188,-60.838191,TT-TOB,,
-1359982,-1958181,spot,"Fort George","Fort George",variant,11.177766,-60.726972,TT-TOB,,
-1360019,-1958226,hydrographic,"Grande Rivière","Grande Riviere",official,10.828088,-61.049237,TT-SGE,,
-1360216,-1958488,spot,Limon,Limon,official,10.727893,-61.332748,TT-TUP,,
-1360126,-1958367,hypsographic,"Islot Point","Islot Point",variant,10.075048,-61.780035,TT-SIP,,
-1359809,20032595,hydrographic,Cumana,Cumana,official,10.666667,-61.566667,TT-DMN,,
-1360749,-1959203,hydrographic,"Salibia Bay","Salibia Bay",variant,10.699761,-61.027428,TT-SGE,,
-1360469,-1958818,hypsographic,"North East Rock","North East Rock",official,11.283333,-60.5,TT-TOB,,
-1360969,-1959517,hypsographic,"White Rock","White Rock",official,11.283333,-60.7,TT-TOB,,
-1359867,-1958018,administrative_region,"Ward of Diego Martin","Ward of Diego Martin",variant,10.716667,-61.583333,TT-DMN,,
-1360561,-1958929,hydrographic,"Petite Pool River","Petite Pool River",variant,10.462207,-61.077867,TT-MRC,,
-1360297,-1958590,hydrographic,"Mangrove Bay","Mangrove Bay",official,11.222234,-60.599863,TT-TOB,,
-1360354,20032462,hydrographic,"Mc Rae","Mc Rae",official,11.239171,-60.650463,TT-TOB,,
-1360040,-1958255,hydrographic,"Gros Tuero River","Gros Tuero River",official,10.383333,-61.1,TT-MRC,,
-1360453,20032439,hydrographic,Navet,Navet,official,10.370326,-61.062051,TT-MRC,,
-1360335,-1958656,administrative_region,"Matura Ward","Matura Ward",variant,10.7,-61.066667,TT-SGE,,
-1359866,-1958017,settlement,"Diego Martin","Diego Martin",official,10.720815,-61.566156,TT-DMN,,
-1360287,20032484,hydrographic,Maloney,Maloney,official,10.247168,-61.025075,TT-MRC,,
-1360289,-1958578,settlement,Mamoral,Mamoral,official,10.448952,-61.290827,TT-CTT,,
-1360838,-1959332,settlement,"Spring Village","Spring Village",variant,10.420963,-61.426238,TT-CTT,,
-1360570,-1958950,settlement,Piarco,Piarco,official,10.588101,-61.32488,TT-TUP,,
-1360302,-1958597,hydrographic,"Manzanilla Bay","Manzanilla Bay",official,10.520067,-61.022511,TT-SGE,,
-1360168,-1958428,settlement,"La Lune","La Lune",official,10.076411,-61.332863,TT-PRT,,
-1360764,-1959226,settlement,"San Fernando","San Fernando",official,10.279694,-61.468351,TT-SFO,,
-1360448,-1958795,hydrographic,"Nariva River","Nariva River",official,10.414591,-61.234228,TT-CTT,,
-1360071,-1958295,hypsographic,"Guayamara Point","Guayamara Point",official,10.764817,-60.948305,TT-SGE,,
-1360606,-1958998,settlement,Poole,Poole,official,10.299678,-61.228853,TT-MRC,,
-1360380,-1958707,hypsographic,"Monkey Point","Monkey Point",official,10.39565,-61.49254,TT-CTT,,
-1360249,-1958528,settlement,"Lower Fishing Pond","Lower Fishing Pond",official,10.573394,-61.043729,TT-SGE,,
-1360842,-1959337,hydrographic,"Steele River","Steele River",official,11.181278,-60.741161,TT-TOB,,
-1360037,-1958250,settlement,"Green Hill","Green Hill",official,11.212355,-60.675439,TT-TOB,,
-1360301,-1958595,administrative_region,Manzanilla,Manzanilla,variant,10.616667,-61.133333,TT-SGE,,
-1360561,20032417,hydrographic,"Petit Pool","Petit Pool",official,10.462207,-61.077867,TT-MRC,,
-1360660,-1959071,hydrographic,"Richmond River","Richmond River",official,11.221286,-60.608457,TT-TOB,,
-1359788,-1957917,hydrographic,"Crapaud River","Crapaud River",official,10.220113,-61.316006,TT-PRT,,
-1360279,20032485,hydrographic,Mahaut,Mahaut,official,10.828839,-61.072231,TT-SGE,,
-1360398,-1958731,settlement,"Moriah Village","Moriah Village",variant,11.246063,-60.713653,TT-TOB,,
-1359762,20032610,hydrographic,Coora,Coora,official,10.190438,-61.47653,TT-SIP,,
-1360305,-1958603,hydrographic,"Mapepire Ravine","Mapepire Ravine",variant,10.667028,-61.326151,TT-TUP,,
-1359794,-1957925,hypsographic,"Crown Point","Crown Point",official,11.144627,-60.842304,TT-TOB,,
-1360597,-1958984,settlement,"Plum Mitan Settlement","Plum Mitan Settlement",variant,10.45,-61.116667,TT-MRC,,
-1360241,-1958518,settlement,"Los Atajos","Los Atajos",official,10.416667,-61.3,TT-CTT,,
-1360063,-1958283,hydrographic,"Guatepajaro River","Guatepajaro River",variant,10.581586,-61.222734,TT-SGE,,
-1360507,-1958869,settlement,"Palo Seco","Palo Seco",official,10.093446,-61.589204,TT-SIP,,
-1360884,-1959390,hypsographic,"Point Tembladora","Point Tembladora",official,10.67844,-61.591766,TT-DMN,,
-1359986,-1958189,hypsographic,"Goat Islet","Goat Islet",variant,11.300625,-60.519083,TT-TOB,,
-1360888,-1959394,settlement,Thick,Thick,official,10.175655,-61.520875,TT-SIP,,
-1360328,-1958636,hydrographic,"Mason River","Mason River",official,10.226673,-61.318306,TT-PRT,,
-1360553,-1958930,hydrographic,"Petite Rivière","Petite Riviere",official,10.10967,-61.189104,TT-000,,
-1360948,-1959485,hydrographic,"Caño Venturo","Cano Venturo",official,10.681937,-61.615514,TT-DMN,,
-1360920,-1959443,hypsographic,"Tucker Valley","Tucker Valley",official,10.721696,-61.615169,TT-DMN,,
-1360450,-1958797,park,"Nariva Windbelt Reserve","Nariva Windbelt Reserve",official,10.36186,-61.089667,TT-MRC,,
-1360683,-1959105,settlement,"Roxborough Village","Roxborough Village",variant,11.249454,-60.575969,TT-TOB,,
-1360085,-1958315,hypsographic,"Morne Hayaral","Morne Hayaral",official,10.116667,-61.55,TT-SIP,,
-1359824,20032588,hydrographic,Cunupia,Cunupia,official,10.560864,-61.447071,TT-CHA,,
-1360763,13448366,administrative_region,"City of San Fernando","City of San Fernando",official,10.281266,-61.450371,TT-SFO,,
-1360849,-1959345,settlement,"Studley Park","Studley Park",official,11.197722,-60.661745,TT-TOB,,
-1360439,-1958783,hypsographic,"Naparima Hill","Naparima Hill",official,10.27984,-61.459333,TT-SFO,,
-1360914,-1959434,hypsographic,"Trinity Hills","Trinity Hills",official,10.111987,-61.111275,TT-MRC,,
-1360825,-1959308,hydrographic,"Siras River","Siras River",official,10.727984,-60.9856,TT-SGE,,
-1359957,-1958145,settlement,Freeport,Freeport,official,10.45822,-61.415547,TT-CTT,,
-1360983,-1959536,park,"Yarra Undemarcated Forest Reserve","Yarra Undemarcated Forest Reserve",variant,10.768457,-61.328832,TT-TUP,,
-1360121,-1958358,hydrographic,"Inverawe River","Inverawe River",official,11.233333,-60.6,TT-TOB,,
-1360465,-1958813,settlement,"New Jersey","New Jersey",official,10.233333,-61.633333,TT-SIP,,
-1360376,-1958702,hydrographic,"L’Anse Mitan","L'Anse Mitan",official,10.083366,-61.268259,TT-PRT,,
-1360095,20032531,hydrographic,"Hillsborough East","Hillsborough East",official,11.193734,-60.688189,TT-TOB,,
-1360204,-1958472,settlement,Lendor,Lendor,official,10.516667,-61.4,TT-CHA,,
-1360664,-1959078,settlement,Riversdale,Riversdale,official,11.283333,-60.683333,TT-TOB,,
-1359985,-1958187,settlement,Glamorgan,Glamorgan,official,11.222635,-60.609836,TT-TOB,,
-1360914,-1959435,hypsographic,"Trinity Hills of Columbus","Trinity Hills of Columbus",variant,10.111987,-61.111275,TT-MRC,,
-1360614,-1959010,hypsographic,"Morne Poui","Morne Poui",official,10.700286,-61.213579,TT-000,,
-1360227,-1958501,hypsographic,"Little Tobago","Little Tobago",official,11.299161,-60.501392,TT-TOB,,
-1360801,-1959277,hydrographic,"Scotland Bay","Scotland Bay",official,10.698913,-61.667045,TT-DMN,,
-1360196,-1959487,settlement,"Veronica Village","Veronica Village",variant,10.7,-61.35,TT-TUP,,
-1360160,-1958418,spot,"La Gloria Estate","La Gloria Estate",variant,10.483333,-61.283333,TT-CTT,,
-1360817,-1959295,hydrographic,"Silverstream River","Silverstream River",variant,10.229587,-61.562055,TT-SIP,,
-1359747,-1957866,hypsographic,"Cape Cola","Cape Cola",official,10.679899,-61.705654,TT-DMN,,
-1360797,-1959273,hydrographic,"Savonetta River","Savonetta River",official,10.418296,-61.426914,TT-CTT,,
-1360451,-1958799,settlement,Navet,Navet,official,10.356344,-61.18314,TT-MRC,,
-1360940,20032348,hydrographic,Uquire,Uquire,official,10.482164,-61.398987,TT-CTT,,
-1360772,20032380,hydrographic,"Sangre Grande","Sangre Grande",official,10.581821,-61.107033,TT-SGE,,
-1360242,-1958519,settlement,"Los Bajos","Los Bajos",official,10.111931,-61.56456,TT-SIP,,
-1359863,-1958012,hypsographic,"Diamond Rock","Diamond Rock",official,10.665589,-61.765898,TT-DMN,,
-1359871,-1958024,hypsographic,"Morne Distree","Morne Distree",official,10.706883,-61.585257,TT-DMN,,
-1360108,-1958344,hypsographic,"Island of Huevos","Island of Huevos",variant,10.696394,-61.715562,TT-DMN,,
-1360754,20032386,hydrographic,Salybia,Salybia,official,10.704098,-61.025376,TT-SGE,,
-1360170,-1958430,hydrographic,"La Lune River","La Lune River",official,10.07804,-61.327453,TT-PRT,,
-1359851,-1957998,hydrographic,"Demerara Shoal","Demerara Shoal",official,10.066667,-61.95,TT-000,,
-1360330,-1958638,hydrographic,"Matapane River","Matapane River",official,10.566667,-61.2,TT-SGE,,
-1360479,-1958829,hypsographic,Omega,Omega,variant,10.403525,-61.027925,TT-MRC,,
-1360711,-1959139,park,"Saint David Forest Reserve","Saint David Forest Reserve",official,10.773508,-61.057988,TT-SGE,,
-1360513,-1958878,settlement,Paradise,Paradise,official,10.652977,-61.362979,TT-TUP,,
-1360044,-1959478,park,"Valencia Forest Reserve","Valencia Forest Reserve",variant,10.634464,-61.14108,TT-SGE,,
-1360243,-1958520,hydrographic,"Los Blanquizales Lagoon","Los Blanquizales Lagoon",official,10.091121,-61.796845,TT-SIP,,
-1360220,17902211,park,"Point Lisas Port","Point Lisas Port",variant,10.383333,-61.483333,TT-CTT,,
-1360748,-1959208,hypsographic,"Fronton de Saline","Fronton de Saline",official,10.700871,-61.00916,TT-SGE,,
-1360227,-1957554,hypsographic,"Bird of Paradise Island","Bird of Paradise Island",variant,11.299161,-60.501392,TT-TOB,,
-1360602,-1958992,hypsographic,"Pointed Rock","Pointed Rock",official,11.333333,-60.516667,TT-TOB,,
-1360903,-1959415,hydrographic,"Tompire River","Tompire River",official,10.780344,-60.946288,TT-SGE,,
-1360653,-1959062,spot,"Reform Station","Reform Station",official,10.303665,-61.417301,TT-PRT,,
-1359917,-1958091,hydrographic,"Erin River","Erin River",official,10.068403,-61.653106,TT-SIP,,
-1360036,-1958249,settlement,"Green Hill","Green Hill",official,10.731445,-61.563382,TT-DMN,,
-1360459,-1958807,hydrographic,"Rio Negro","Rio Negro",official,10.232568,-61.582094,TT-SIP,,
-1360866,-1959370,hypsographic,"Tamana Hill","Tamana Hill",variant,10.465238,-61.200622,TT-SGE,,
-1360872,-1959376,hypsographic,"Taparo Point","Taparo Point",official,10.056133,-61.626718,TT-SIP,,
-1360759,-1959221,hypsographic,"Sandy Point","Sandy Point",official,11.150361,-60.845516,TT-TOB,,
-1360728,-1959165,settlement,"Saint Joseph","Saint Joseph",official,10.316743,-60.993235,TT-MRC,,
-1359979,-1958176,hypsographic,"Gasparillo Islet","Gasparillo Islet",variant,10.674418,-61.654651,TT-DMN,,
-1360173,-1958433,hypsographic,"Lambeau Hill","Lambeau Hill",official,11.283333,-60.533333,TT-TOB,,
-1360860,-1959359,administrative_region,"Ward of Tacarigua","Ward of Tacarigua",official,10.666667,-61.383333,TT-TUP,,
-1360017,-1958224,hydrographic,"Grande Rivière","Grande Riviere",official,10.070097,-61.386673,TT-PED,,
-1360913,-1959433,administrative_region,"Ward of Trinity","Ward of Trinity",official,10.191854,-61.154939,TT-MRC,,
-1360871,20032363,hydrographic,Tapana,Tapana,official,10.746665,-61.227762,TT-TUP,,
-1360854,-1959351,hypsographic,"Tabateau Point","Tabateau Point",official,10.717602,-60.986436,TT-SGE,,
-1360474,-1958824,hypsographic,"North Post","North Post",official,10.74591,-61.56565,TT-DMN,,
-1360234,-1958511,hypsographic,"Long Island","Long Island",official,10.773474,-61.446313,TT-SJL,,
-1359959,20032557,hydrographic,Frenchmans,Frenchmans,official,11.269377,-60.546731,TT-TOB,,
-1359860,-1958009,settlement,Diamond,Diamond,official,10.367651,-61.437155,TT-CTT,,
-1359963,-1958151,hydrographic,"Anse Fromager","Anse Fromager",variant,11.235641,-60.756164,TT-TOB,,
-1360550,-1958923,hydrographic,"Petite l’Anse River","Petite l'Anse River",official,10.754005,-60.964045,TT-SGE,,
-1360552,20032421,hydrographic,"Petite Pilote","Petite Pilote",official,10.140479,-61.118163,TT-MRC,,
-1360274,-1958560,hydrographic,"Anse Mahaut","Anse Mahaut",variant,10.109356,-61.074354,TT-MRC,,
-1360793,-1959266,administrative_region,"Ward of Savana Grande","Ward of Savana Grande",official,10.3,-61.366667,TT-PRT,,
-1360831,-1959320,hypsographic,"Soldado Rock","Soldado Rock",official,10.077094,-62.014413,TT-000,,
-1359771,-1957893,hypsographic,"Corvo Point","Corvo Point",official,11.328713,-60.583498,TT-TOB,,
-1360073,20032534,hydrographic,Guayanapa,Guayanapa,official,10.27885,-61.151024,TT-MRC,,
-1360509,-1958874,hydrographic,"Anse Paoua","Anse Paoua",official,10.702239,-61.670916,TT-DMN,,
-1360607,-1958999,settlement,Poole,Poole,official,10.451097,-61.123548,TT-MRC,,
-1359918,-1958092,hypsographic,"Erin Savanna","Erin Savanna",official,10.113565,-61.653139,TT-SIP,,
-1360092,-1958324,settlement,Hillsborough,Hillsborough,official,11.219932,-60.664208,TT-TOB,,
-1360808,-1957597,hydrographic,"Boca de Serpientes","Boca de Serpientes",variant,10.04549,-61.935507,TT-000,,
-1360742,-1959190,administrative_region,"County of Saint Patrick","County of Saint Patrick",official,10.166667,-61.583333,TT-000,1,
-1359966,-1958155,settlement,Fyzabad,Fyzabad,official,10.1811,-61.545776,TT-SIP,,
-1360011,-1958215,hydrographic,"Rio Grande","Rio Grande",official,10.718115,-61.156304,TT-SGE,,
-1360427,-1958765,hydrographic,"Mount Irving Bay","Mount Irving Bay",variant,11.18966,-60.799157,TT-TOB,,
-1360444,-1958789,hydrographic,"Naranjo River","Naranjo River",official,10.791455,-60.978395,TT-SGE,,
-1360271,-1958556,hydrographic,"Madong River","Madong River",official,10.083333,-61.883333,TT-SIP,,
-1359973,-1958167,spot,Garden,Garden,official,10.616667,-61.333333,TT-TUP,,
-1360088,-1958319,settlement,Hermitage,Hermitage,official,11.312078,-60.582382,TT-TOB,,
-1360634,20032404,hydrographic,Queens,Queens,official,11.245821,-60.562883,TT-TOB,,
-1360767,-1959229,settlement,"Sangre Chiquita","Sangre Chiquita",official,10.566982,-61.111545,TT-SGE,,
-1360893,-1959400,hydrographic,"Timulls Channel","Timulls Channel",official,10.20374,-61.508644,TT-SIP,,
-1360526,20032427,hydrographic,"Parlatuvier East","Parlatuvier East",official,11.298995,-60.649214,TT-TOB,,
-1360961,-1959506,settlement,Waterloo,Waterloo,official,10.47771,-61.468658,TT-CTT,,
-1359822,-1957964,settlement,"Cunupia Village","Cunupia Village",variant,10.547395,-61.375559,TT-CHA,,
-1360041,-1958261,settlement,"Guaico Village","Guaico Village",variant,10.594784,-61.152208,TT-SGE,,
-1360448,20032440,hydrographic,Nariva,Nariva,official,10.414591,-61.234228,TT-CTT,,
-1360188,-1958453,hydrographic,"Las Tablas River","Las Tablas River",variant,10.090981,-61.124959,TT-MRC,,
-1360911,-1959426,administrative_region,Trinidad,Trinidad,variant,11,-61,TT-000,,
-1360600,-1958989,settlement,Pointe-à-Pierre,Pointe-a-Pierre,official,10.316667,-61.466667,TT-CTT,,
-1360211,-1958482,hypsographic,"Les Bouquets","Les Bouquets",variant,10.760652,-61.495758,TT-SJL,,
-1360189,-1958455,hypsographic,"La Thania","La Thania",official,10.752665,-61.534038,TT-DMN,,
-1360117,-1958353,hydrographic,"Iguane River","Iguane River",official,10.168573,-61.046779,TT-MRC,,
-1360826,-1959309,hypsographic,Sisters,Sisters,variant,11.33225,-60.644584,TT-TOB,,
-1360072,20032535,hydrographic,Guayamare,Guayamare,official,10.589462,-61.405832,TT-TUP,,
-1359746,-1957865,hydrographic,"Coffee River","Coffee River",official,11.262168,-60.716256,TT-TOB,,
-1359753,-1957872,settlement,Comparo,Comparo,official,10.533333,-61.066667,TT-SGE,,
-1360644,-1959052,hypsographic,"Point Rapazallos","Point Rapazallos",official,10.545609,-61.464557,TT-SJL,,
-1360561,-1958939,hydrographic,"Petit Poole River","Petit Poole River",variant,10.462207,-61.077867,TT-MRC,,
-1360618,20032409,hydrographic,"Primera Pria","Primera Pria",official,10.691461,-61.033349,TT-SGE,,
-1360090,-1958322,hydrographic,"Quebrada del Hierro","Quebrada del Hierro",variant,10.777133,-61.404634,TT-SJL,,
-1359927,-1958106,settlement,"Felicity Hall","Felicity Hall",official,10.448452,-61.477243,TT-CTT,,
-1360019,-1958230,hydrographic,"Grande Rivierre","Grande Rivierre",variant,10.828088,-61.049237,TT-SGE,,
-1360521,-1958888,hypsographic,"Paria Point","Paria Point",official,10.794073,-61.25044,TT-TUP,,
-1360895,-1959406,hypsographic,"Tobago Island","Tobago Island",variant,11.25,-60.666667,TT-TOB,,
-1359879,-1958033,settlement,Dow,Dow,variant,10.403528,-61.470809,TT-CTT,,
-1360236,-1958513,hypsographic,"Long Rock","Long Rock",official,11.3,-60.516667,TT-TOB,,
-1360611,13505445,administrative_region,"Port of Spain","Port of Spain",official,10.663889,-61.516667,TT-POS,,
-1360531,-1958899,hypsographic,"Patience Point","Patience Point",official,10.686876,-61.736897,TT-DMN,,
-1360577,-1958961,hydrographic,"Pierre Bay","Pierre Bay",official,10.684711,-61.679729,TT-DMN,,
-1359843,-1957988,settlement,"Débé Village","Debe Village",variant,10.208456,-61.452735,TT-PED,,
-1359941,-1958126,park,"Forest Reserve","Forest Reserve",official,10.166667,-61.5,TT-SIP,,
-1360635,-1959038,hypsographic,"Quemada Point","Quemada Point",official,10.046722,-61.891352,TT-SIP,,
-1360159,14630268,hydrographic,"Lagon Sale River","Lagon Sale River",official,10.139231,-61.100527,TT-MRC,,
-1360943,-1959477,administrative_region,"Ward of Valencia","Ward of Valencia",official,10.682327,-61.166804,TT-SGE,,
-1359993,-1958196,hydrographic,"Goldsborough Bay","Goldsborough Bay",official,11.209325,-60.624637,TT-TOB,,
