wgdPlaceId,wgdId,type,name,fullName,nameType,latitude,longitude,administrationGroup,isHistorical,isCapital
-1735382,-2431336,settlement,Wabibo,Wabibo,official,0.1,31.816667,UG-121,,
-1728750,-2423232,hypsographic,Kalehe,Kalehe,official,-0.95,29.616667,UG-414,,
-1727283,-2421455,settlement,Butale,Butale,official,-0.95,30.716667,UG-418,,
11330085,13322859,settlement,Roli,Roli,official,2.659294,31.006174,UG-336,,
11329864,13322367,settlement,Lowa,Lowa,official,3.347759,31.842199,UG-301,,
11326990,13316587,hydrographic,Yeka,Yeka,official,1.802946,31.789162,UG-409,,
11327199,13316857,settlement,Ayila,Ayila,official,2.448951,31.115531,UG-310,,
11328375,13319240,park,Kamuli,Kamuli,official,1.552955,31.339331,UG-403,,
11323646,13307789,park,Sonso,Sonso,official,1.66097,31.572611,UG-409,,
11326015,13314475,hydrographic,Kayebe,Kayebe,official,1.611981,31.978709,UG-409,,
11915545,14570804,hydrographic,Celu,Celu,official,3.835012,33.003488,UG-326,,
11914725,14568151,hydrographic,Akudam,Akudam,official,3.700245,33.530578,UG-000,,
11924141,14591777,settlement,Kini,Kini,official,3.857233,33.069611,UG-326,,
11866320,14471944,park,Jaka,Jaka,official,3.005227,32.907133,UG-312,,
-1732020,-2427205,hydrographic,Matawa,Matawa,official,0.734167,33.920278,UG-212,,
-1734092,-2429714,hydrographic,Obi,Obi,official,3.335957,30.941957,UG-320,,
-1728439,-2422876,settlement,Kadoto,Kadoto,official,1.2,33.733333,UG-210,,
-1727476,-2421666,settlement,Buzhaga,Buzhaga,official,-0.733333,30.383333,UG-435,,
-1731942,-2427101,hypsographic,Mandwiga,Mandwiga,official,1.2,30.9,UG-432,,
-1731556,-2426648,settlement,Lusango,Lusango,official,-0.127778,31.833611,UG-122,,
-1734067,-2429678,hypsographic,Nyeri,Nyeri,official,3.792675,31.824442,UG-309,,
-1731391,-2426442,settlement,Lubale,Lubale,official,-0.633333,30.1,UG-423,,
-1734960,-2430802,settlement,Ryeru,Ryeru,official,-0.3,30.1,UG-425,,
-1730660,-2425502,park,Kome,Kome,official,-0.083333,32.716667,UG-108,,
-1735012,-2430865,hydrographic,Sara,Sara,official,0.833834,30.05162,UG-401,,
-1730639,-2425470,hypsographic,Kokito,Kokito,official,2.283333,34.233333,UG-327,,
-1734835,-2430660,settlement,Rutokye,Rutokye,official,-0.516667,30.016667,UG-423,,
-1728211,-2424315,settlement,Kazi,Kazi,variant,0.211915,32.611856,UG-113,,
-1732632,-2427959,settlement,Musima,Musima,official,0.42727,33.55282,UG-214,,
-1730640,-2425471,settlement,Koko,Koko,official,0.616667,32.633333,UG-104,,
-1731583,-2426683,settlement,Lutoma,Lutoma,official,-0.6,31.366667,UG-110,,
-1732021,-2427206,settlement,Mate,Mate,official,0.616667,32.133333,UG-115,,
-1732355,-2427630,settlement,Mpoma,Mpoma,official,0.437085,32.73954,UG-108,,
-1731792,-2426929,settlement,Mabuye,Mabuye,official,0.268475,32.377907,UG-106,,
-1732608,-2427933,hypsographic,Musalala,Musalala,official,1,32.6,UG-104,,
-1732018,-2427202,hydrographic,Matanda,Matanda,official,-0.666667,29.7,UG-414,,
-1730082,-2424826,settlement,Kilinya,Kilinya,official,0.683333,32.366667,UG-116,,
-1731762,-2426897,hypsographic,Mabale,Mabale,official,-0.033333,31.833333,UG-122,,
-1731555,-2426647,hydrographic,Lusamatu,Lusamatu,official,-0.15,31.683333,UG-118,,
-1728097,-2422445,settlement,Iringa,Iringa,official,1.266667,32.983333,UG-226,,
-1731394,-2426446,settlement,Lubanga,Lubanga,official,0.113942,32.078186,UG-106,,
-1729906,-2424635,hydrographic,Kigoye,Kigoye,official,0.516667,31.933333,UG-115,,
-1731392,-2426444,hydrographic,Lubamba,Lubamba,official,1.166667,31.4,UG-000,,
-1735130,-2430998,hydrographic,Siroko,Siroko,official,1.483333,34.233333,UG-000,,
-1728491,-2422935,hydrographic,Kagaye,Kagaye,official,0.166667,30.883333,UG-433,,
-1731793,-2426930,hypsographic,Mabuye,Mabuye,official,0.166667,31.85,UG-121,,
-1730392,-2425185,settlement,Kitatya,Kitatya,official,0.816667,32.916667,UG-112,,
-1733533,-2429031,settlement,Ngombe,Ngombe,official,-0.083333,32.05,UG-106,,
-1727319,-2421493,settlement,Butende,Butende,official,0.928113,33.162945,UG-205,,
-1734856,-2430686,hydrographic,Ruzhozho,Ruzhozho,official,-0.35,30.233333,UG-420,,
-1732357,-2427632,hypsographic,Mpomode,Mpomode,official,0.575278,33.1475,UG-204,,
-1728045,-2422385,hypsographic,Ihunga,Ihunga,official,-0.7,30.433333,UG-435,,
-1732536,-2427839,settlement,Mulagi,Mulagi,official,0.874702,33.904135,UG-221,,
-1728047,-2422387,hypsographic,Ihunga,Ihunga,official,-1,30.05,UG-412,,
-1734763,-2430578,hydrographic,Ruhimbu,Ruhimbu,official,-1.05,30.616667,UG-418,,
-1735323,-2431251,settlement,Tweyanze,Tweyanze,official,0.733333,32.566667,UG-104,,
-1735152,-2431027,hypsographic,Sole,Sole,official,3.982753,33.969395,UG-318,,
-1732017,-2427201,hypsographic,Matan,Matan,official,2.416667,34.366667,UG-327,,
-1732607,-2427932,settlement,Musalala,Musalala,official,1,32.616667,UG-104,,
-1735460,-2431424,park,Walusi,Walusi,official,0.933333,32.616667,UG-104,,
-1729904,-2424633,settlement,Kigowa,Kigowa,official,0.363245,32.60682,UG-102,,
-1731177,-2422453,hypsographic,Iru,Iru,variant,3.349148,31.022782,UG-319,,
-1730883,-2425776,settlement,Kyampisi,Kyampisi,official,0.55,31.3,UG-107,,
-1731587,-2426687,hydrographic,Lutoto,Lutoto,official,-0.333333,30.166667,UG-420,,
-1727475,-2421665,spot,Buzami,Buzami,official,-0.05,32.116667,UG-106,,
-1734262,-2429936,hydrographic,Okwapiti,Okwapiti,official,1.25,34.133333,UG-219,,
-1735530,-2431511,settlement,Wekomire,Wekomire,official,0.45,31.016667,UG-422,,
-1730761,-2425634,hypsographic,Kura,Kura,variant,3.880853,33.974092,UG-335,,
-1734913,-2430750,hydrographic,Rwembogo,Rwembogo,official,-0.883333,29.783333,UG-414,,
-1735322,-2431250,settlement,Twalek,Twalek,official,1.35,34.7,UG-220,,
-1728462,-2422905,settlement,Kafunzo,Kafunzo,official,-1.35,30.066667,UG-404,,
-1730237,-2425011,settlement,Kiruwa,Kiruwa,official,1.283333,32.583333,UG-109,,
-1730335,-2425121,settlement,Kisote,Kisote,official,0.725392,34.00843,UG-212,,
-1730337,-2425123,settlement,Kisozi,Kisozi,official,0.28786,32.330877,UG-106,,
-1731395,-2426447,settlement,Lubanja,Lubanja,official,0.44102,32.04505,UG-115,,
-1729910,-2424639,settlement,Kigugu,Kigugu,official,1.15,32.683333,UG-109,,
-1733755,-2429305,vegetation,Ntali,Ntali,official,0.866667,30.75,UG-000,,
-1731763,-2426898,hypsographic,Mabale,Mabale,official,-0.866667,29.816667,UG-414,,
-1729764,-2424478,settlement,Kibimba,Kibimba,official,-0.333333,30.433333,UG-420,,
-1730211,-2424979,settlement,Kiriolo,Kiriolo,official,1.016667,33.75,UG-227,,
-1732429,-2427716,hypsographic,Muge,Muge,official,-0.066667,31.966667,UG-106,,
-1734065,-2429674,settlement,Nyenje,Nyenje,official,0.400381,32.731798,UG-108,,
-1732354,-2427629,settlement,Mpoma,Mpoma,official,0.25,32.8,UG-108,,
-1733596,-2429120,settlement,Nkinga,Nkinga,official,1.116667,32.683333,UG-109,,
-1735321,-2431249,hydrographic,Tutui,Tutui,official,2.766667,34.366667,UG-000,,
-1728575,-2423027,hydrographic,Kailong,Kailong,official,2.783333,33.95,UG-306,,
-1731427,-2426491,settlement,Lugala,Lugala,official,0.393955,33.040011,UG-117,,
-1735416,-2431375,settlement,Waibuga,Waibuga,official,0.632721,33.384399,UG-229,,
-1735507,-2431480,hypsographic,Wapet,Wapet,official,3.128917,34.387244,UG-318,,
-1730688,-2425538,hydrographic,Kopio,Kopio,official,2.463478,31.510641,UG-310,,
-1730051,-2424793,settlement,Kikukula,Kikukula,official,0.683333,31.633333,UG-126,,
-1731008,-2425924,settlement,Kyehinde,Kyehinde,official,-1.083333,29.95,UG-404,,
-1734738,-2430550,hypsographic,Rugarama,Rugarama,official,-0.866667,30.616667,UG-418,,
-1727872,-2422183,settlement,Gayaza,Gayaza,official,0.95,31.15,UG-407,,
-1734644,-2430424,hypsographic,Porony,Porony,official,2.3,34.133333,UG-327,,
-1733677,-2429217,settlement,Nsambya,Nsambya,official,0.2995,32.586773,UG-102,,
-1731917,-2427074,settlement,Malembo,Malembo,official,-0.706389,31.745833,UG-105,,
-1733631,-2429159,settlement,Nkuluze,Nkuluze,official,0.65,32.6,UG-104,,
-1732384,-2427661,settlement,Mpute,Mpute,official,0.8,32.616667,UG-104,,
-1730641,-2425472,hypsographic,Kokoit,Kokoit,official,3.183333,34.133333,UG-306,,
-1734345,-2430045,hydrographic,Omol,Omol,official,2.61962,30.911456,UG-330,,
-1731611,-2426715,settlement,Luwunga,Luwunga,official,0.076157,32.040742,UG-106,,
-1733302,-2428740,settlement,Nanga,Nanga,official,0.516667,32.816667,UG-108,,
-1732864,-2428221,settlement,Nagela,Nagela,official,0.966667,32.133333,UG-116,,
-1735531,-2431513,settlement,Wera,Wera,official,1.867041,33.755142,UG-216,,
-1734093,-2429716,hydrographic,Obim,Obim,official,2.5,33,UG-000,,
-1733455,-2428933,settlement,Ndego,Ndego,official,-1.133333,29.8,UG-404,,
-1729902,-2424631,settlement,Kigoto,Kigoto,official,-0.583333,31.2,UG-110,,
-1734786,-2430605,settlement,Rukondo,Rukondo,official,-0.383333,30.366667,UG-420,,
-1734095,-2429718,settlement,Obisa,Obisa,official,3.135718,30.825406,UG-320,,
-1731586,-2426686,settlement,Lutoto,Lutoto,official,-0.333333,30.1,UG-425,,
-1734739,-2430551,hydrographic,Rugasha,Rugasha,official,-0.566667,30.45,UG-000,,
-1733347,-2428796,hypsographic,Napak,Napak,official,2.066667,34.283333,UG-327,,
-1727871,-2422182,settlement,Gayaza,Gayaza,official,0.866667,31.366667,UG-407,,
-1733301,-2428739,settlement,Nandwa,Nandwa,official,0.298367,32.217356,UG-115,,
-1735508,-2431482,hypsographic,Wapit,Wapit,variant,3.883333,34.033333,UG-318,,
-1733121,-2428520,settlement,Namalere,Namalere,official,0.427065,32.554215,UG-113,,
-1732092,-2427283,hypsographic,Mbare,Mbare,official,-0.95,31.033333,UG-418,,
-1729842,-2424567,hypsographic,Kiduha,Kiduha,official,-1.25,29.7,UG-408,,
-1733600,-2429125,settlement,Nkoko,Nkoko,official,0.967778,31.4175,UG-407,,
-1729871,-2424597,settlement,Kigarama,Kigarama,official,-0.933333,30.816667,UG-418,,
-1728492,-2422936,settlement,Kagazi,Kagazi,official,-0.133333,30.4,UG-434,,
-1735340,-2431278,hypsographic,Uletia,Uletia,official,2.7,30.983333,UG-336,,
-1733597,-2429121,settlement,Nkingo,Nkingo,official,0.416667,30.4,UG-413,,
-1734221,-2429885,settlement,Okayo,Okayo,official,2.535876,30.920049,UG-330,,
-1727590,-2421803,hydrographic,Chalanga,Chalanga,official,0.133333,30.216667,UG-406,,
-1729765,-2424479,settlement,Kibimba,Kibimba,official,-0.45,31.366667,UG-124,,
-1729763,-2424477,settlement,Kibiito,Kibiito,official,0.477222,30.1925,UG-430,,
-1734363,-2430065,hypsographic,Omukate,Omukate,official,-0.383333,30.9,UG-419,,
-1730336,-2425122,settlement,Kisozi,Kisozi,official,0.066667,31.6,UG-121,,
-1732023,-2427208,settlement,Matembe,Matembe,official,0.183333,29.95,UG-406,,
-1731791,-2426928,settlement,Mabuye,Mabuye,official,-0.183333,31.8,UG-122,,
-1727473,-2421663,settlement,Buyunga,Buyunga,official,0.883333,33.533333,UG-203,,
-1732964,-2428335,settlement,Nakato,Nakato,official,-0.3,31.1,UG-114,,
-1733532,-2429030,settlement,Ngomba,Ngomba,official,0.15,30.65,UG-433,,
-1735153,-2431028,hydrographic,Solo,Solo,official,0.583333,33.983333,UG-000,,
-1732634,-2427963,settlement,Musojo,Musojo,official,-0.166667,31.516667,UG-111,,
-1729907,-2424636,hypsographic,Kigude,Kigude,official,0.65,31.666667,UG-126,,
-1734389,-2430096,settlement,Ongoro,Ongoro,official,3.196641,30.851991,UG-320,,
-1733454,-2428931,settlement,Ndede,Ndede,official,1.336724,31.850617,UG-116,,
-1730081,-2424825,settlement,Kilinda,Kilinda,official,0.95,32.183333,UG-116,,
-1730568,-2425384,settlement,Kiyunga,Kiyunga,official,1.25,33.183333,UG-226,,
-1732454,-2427749,hydrographic,Muguswa,Muguswa,official,-0.783333,31.583333,UG-110,,
-1728098,-2422446,settlement,Iringa,Iringa,official,1.266667,33.016667,UG-226,,
-1733598,-2429123,hydrographic,Nkisi,Nkisi,official,0.814204,30.155265,UG-401,,
-1728043,-2422382,settlement,Ihunga,Ihunga,official,-0.830833,30.181944,UG-411,,
-1734832,-2430657,settlement,Rutete,Rutete,official,0.553279,30.300208,UG-405,,
-1730569,-2425385,settlement,Kiyuni,Kiyuni,official,0.416667,32.933333,UG-108,,
-1730417,-2425211,settlement,Kitemu,Kitemu,official,0.55,32.066667,UG-115,,
-1734433,-2430156,settlement,Oribu,Oribu,official,2.722193,31.040153,UG-336,,
-1731839,-2426986,hydrographic,Magombe,Magombe,official,0.383333,30.383333,UG-405,,
-1730108,-2424856,spot,Kimwalo,Kimwalo,official,-0.383333,32.233333,UG-101,,
-1729963,-2424697,settlement,Kijaka,Kijaka,official,0.027154,33.255653,UG-120,,
-1731608,-2426711,settlement,Luwoko,Luwoko,official,0.666667,33.3,UG-229,,
-1734344,-2430043,park,Omodoi,Omodoi,official,1.70045,33.367176,UG-237,,
-1728048,-2422388,hypsographic,Ihunga,Ihunga,official,-1.083333,29.966667,UG-404,,
-1732384,-2427319,settlement,Mbute,Mbute,variant,0.8,32.616667,UG-104,,
-1733122,-2428521,settlement,Namalere,Namalere,official,1.4,32.816667,UG-112,,
-1734785,-2430604,settlement,Rukoma,Rukoma,official,-0.683333,30.666667,UG-418,,
-1730882,-2425775,settlement,Kyampisi,Kyampisi,official,0.501667,32.718889,UG-108,,
-1731397,-2426449,settlement,Lubanyi,Lubanyi,official,1.15,31.35,UG-407,,
-1731474,-2426551,settlement,Lukaka,Lukaka,official,0.443064,32.120832,UG-115,,
-1729909,-2424638,settlement,Kigugu,Kigugu,official,0.75,32.483333,UG-104,,
-1732019,-2427204,hypsographic,Matare,Matare,official,-0.166667,31.066667,UG-419,,
-1730210,-2424978,settlement,Kirinya,Kirinya,official,0.340585,32.662433,UG-113,,
-1735532,-2431514,hydrographic,"Wera Bay","Wera Bay",official,0.132651,32.887693,UG-117,,
-1731889,-2427039,settlement,Makole,Makole,official,0.207778,31.14,UG-111,,
-1733630,-2429158,settlement,Nkuke,Nkuke,official,-0.466667,31.766667,UG-105,,
-1728044,-2422384,hypsographic,Ihunga,Ihunga,official,-0.683333,30.816667,UG-418,,
-1732633,-2427962,hypsographic,Musisi,Musisi,official,0.626032,33.241615,UG-204,,
-1732022,-2427207,hydrographic,Mate,Mate,official,0.666667,32.166667,UG-115,,
-1731943,-2427102,hydrographic,Manga,Manga,official,1.133333,31,UG-000,,
-1734263,-2429937,hypsographic,Okwar,Okwar,official,2.3,32.966667,UG-340,,
-1734264,-2429938,hypsographic,Okwer,Okwer,official,2.816667,33.7,UG-314,,
-1730567,-2425383,settlement,Kiyunga,Kiyunga,official,0.95,33.466667,UG-222,,
-1734499,-2430238,settlement,Owolo,Owolo,official,1.705125,33.462618,UG-211,,
-1731837,-2426984,settlement,Magola,Magola,official,0.253147,33.434383,UG-214,,
-1735251,-2431154,hypsographic,Theno,Theno,official,2.8,34.116667,UG-306,,
-1731007,-2425923,settlement,Kyegonza,Kyegonza,official,0.166667,31.916667,UG-121,,
-1730054,-2424796,settlement,Kikumbya,Kikumbya,official,0.85,30.833333,UG-407,,
-1733599,-2429124,settlement,Nkoko,Nkoko,official,-0.516667,31.583333,UG-110,,
-1732662,-2427994,settlement,Mutondo,Mutondo,official,-0.516667,31.666667,UG-000,,
-1727474,-2421664,settlement,Buyunze,Buyunze,official,0.8195,33.31046,UG-229,,
-1730109,-2424857,settlement,Kinaga,Kinaga,official,0.983333,31,UG-407,,
-1729905,-2424634,settlement,Kigoya,Kigoya,official,2.08495,31.421255,UG-416,,
-1734094,-2429717,settlement,Obirai,Obirai,official,1.772639,33.34896,UG-237,,
-1733452,-2428929,settlement,Ndeba,Ndeba,official,0.683333,32.933333,UG-112,,
-1727715,-2421976,hydrographic,Dwengo,Dwengo,official,0.1775,30.575,UG-413,,
-1732094,-2427285,hydrographic,Mbaya,Mbaya,official,0.966667,31.116667,UG-407,,
-1734834,-2430659,hydrographic,Rutoba,Rutoba,official,0.660515,29.973072,UG-401,,
-1731838,-2426985,settlement,Magoma,Magoma,official,0.933333,31.216667,UG-407,,
-1734833,-2430658,settlement,Ruti,Ruti,official,-0.095833,29.831111,UG-406,,
-1734220,-2429884,settlement,Okawo,Okawo,official,2.05,33.516667,UG-216,,
-1731396,-2426448,settlement,Lubanyi,Lubanyi,official,0.61886,33.1201,UG-204,,
-1728046,-2422386,hypsographic,Ihunga,Ihunga,official,1.776299,31.388665,UG-416,,
-1731176,-2426134,vegetation,Liru,Liru,official,3.353988,31.027546,UG-319,,
-1730052,-2424794,settlement,Kikulula,Kikulula,official,0.783333,31.566667,UG-107,,
-1732428,-2427715,hypsographic,Mugasa,Mugasa,official,1.466667,31.1,UG-403,,
-1731177,-2426135,hypsographic,Liru,Liru,official,3.349148,31.022782,UG-319,,
-1735529,-2431376,hydrographic,Waiga,Waiga,variant,1.983333,31.4,UG-416,,
-1731428,-2426492,settlement,Lugala,Lugala,official,0.683333,32.8,UG-108,,
-1730936,-2425838,settlement,Kyanja,Kyanja,official,-0.331944,31.710278,UG-127,,
-1731609,-2426713,settlement,Luwube,Luwube,official,0.755833,32.560556,UG-104,,
-1735249,-2431152,hypsographic,Thakale,Thakale,official,1.966667,34.45,UG-334,,
-1731941,-2427100,hypsographic,Manda,Manda,official,-0.716667,30.316667,UG-000,,
-1727293,-2421465,settlement,Butanga,Butanga,official,0.233333,31.75,UG-121,,
-1734915,-2430752,hypsographic,Rwemiaga,Rwemiaga,official,-0.933333,30.55,UG-000,,
-1731554,-2426646,settlement,Lusalira,Lusalira,official,0.5,31.283333,UG-107,,
-1728622,-2423085,hypsographic,Kaket,Kaket,official,2.983333,33.566667,UG-322,,
-1734431,-2430153,settlement,Oreko,Oreko,official,3.063181,30.929091,UG-338,,
-1734737,-2430548,hypsographic,Rugangi,Rugangi,official,-0.15,30.833333,UG-419,,
-1727477,-2421667,hydrographic,Buzhaga,Buzhaga,official,-0.716667,30.383333,UG-435,,
-1733093,-2428491,settlement,Namabuga,Namabuga,official,0.833333,32.833333,UG-112,,
-1731175,-2426133,settlement,Lire,Lire,official,3.504963,31.948343,UG-301,,
-1734522,-2430266,settlement,Pachwa,Pachwa,official,1.116667,31,UG-407,,
-1729903,-2424632,spot,Kigoto,Kigoto,official,-0.15,30.4,UG-434,,
-1727320,-2421494,spot,Butende,Butende,official,0.033333,31.866667,UG-119,,
-1733506,-2428999,hypsographic,Ngeta,Ngeta,official,2.283333,32.933333,UG-340,,
-1731610,-2426714,hypsographic,Luwube,Luwube,official,0.75,32.55,UG-104,,
-1733595,-2429119,hypsographic,Nkima,Nkima,official,0.333333,30.116667,UG-406,,
-1731426,-2426490,settlement,Lugala,Lugala,official,0.321337,32.538307,UG-102,,
-1730050,-2424792,hypsographic,Kikuka,Kikuka,official,1.583333,32.25,UG-109,,
-1728049,-2422389,hypsographic,Ihunga,Ihunga,official,-1.116667,29.783333,UG-404,,
-1732356,-2427631,settlement,Mpoma,Mpoma,official,-0.983333,30.55,UG-418,,
-1734117,-2429745,hydrographic,Oceke,Oceke,variant,2.56516,31.455368,UG-310,,
-1727321,-2421495,settlement,Butenga,Butenga,official,-0.19,31.674722,UG-118,,
-1730049,-2424789,settlement,Kikubi,Kikubi,official,1.133333,33.1,UG-205,,
-1732635,-2427964,hypsographic,Musolero,Musolero,official,-0.966667,29.683333,UG-414,,
-1733303,-2428741,settlement,Nangabo,Nangabo,official,0.446322,32.58063,UG-113,,
-1729911,-2424640,settlement,Kigujula,Kigujula,official,1.116667,31.35,UG-407,,
-1730212,-2424980,settlement,Kirirema,Kirirema,official,0.483333,30.316667,UG-405,,
-1735577,-2431576,hypsographic,Zawa,Zawa,variant,3.089674,31.907366,UG-301,,
-1728597,-2423057,settlement,Kajumba,Kajumba,official,-0.483333,31.5,UG-124,,
-1734914,-2430751,settlement,Rwembwa,Rwembwa,official,-0.816667,30.833333,UG-418,,
-1731585,-2426685,settlement,Lutoma,Lutoma,official,0.983333,30.9,UG-407,,
-1730518,-2425328,settlement,Kiwala,Kiwala,official,0.066667,31.866667,UG-119,,
-1735250,-2431153,hypsographic,Theau,Theau,official,3.116667,34.183333,UG-306,,
-1733453,-2428930,settlement,Ndeba,Ndeba,official,0.866667,32.55,UG-104,,
-1727996,-2422328,settlement,Ibale,Ibale,official,-0.683333,30.566667,UG-438,,
-1732733,-2428072,settlement,Mweya,Mweya,official,0.683333,31.9,UG-126,,
-1734432,-2430155,hydrographic,Oriang,Oriang,official,2.264122,32.087961,UG-328,,
-1730053,-2424795,settlement,Kikumbya,Kikumbya,official,0.833333,30.983333,UG-407,,
-1732093,-2427284,settlement,Mbaro,Mbaro,official,2.458726,31.196439,UG-310,,
-1735578,-2431574,hydrographic,Zambi,Zambi,official,1.05,32.116667,UG-116,,
-1731393,-2426445,settlement,Lubanda,Lubanda,official,-0.433333,31.583333,UG-124,,
-1734959,-2430801,settlement,Ryangabi,Ryangabi,official,-0.066667,30.316667,UG-434,,
-1732427,-2427714,hypsographic,Muganza,Muganza,official,-1.3,29.733333,UG-408,,
-1731588,-2426688,settlement,Lutumba,Lutumba,official,0.85,30.983333,UG-407,,
-1731584,-2426684,settlement,Lutoma,Lutoma,official,0.833333,32.7,UG-104,,
-1729908,-2424637,settlement,Kigugu,Kigugu,official,0.733333,31.066667,UG-407,,
-1726237,-2420238,hypsographic,Aropa,Aropa,official,3.023736,31.054899,UG-338,,
-1727090,-2421236,settlement,Bume,Bume,variant,0.202034,32.372773,UG-113,,
-1726480,-2420535,hydrographic,Bigera,Bigera,official,0.1,30.466667,UG-417,,
-1726452,-2420501,hypsographic,Batoda,Batoda,official,0.283333,29.866667,UG-406,,
-1726555,-2420630,settlement,Biwa,Biwa,official,-1,31.35,UG-110,,
-1729334,-2423952,settlement,Kasozi,Kasozi,official,0.633333,32.4,UG-104,,
13886259,17775645,hydrographic,Nabitalo,Nabitalo,official,0.40934,32.145209,UG-115,,
-1729714,-2424424,settlement,Kibale,Kibale,official,1.433333,32.916667,UG-226,,
-1727088,-2421233,settlement,Bumbo,Bumbo,official,0.860722,34.396811,UG-223,,
-1729337,-2423955,settlement,Kasozi,Kasozi,official,0.8625,31.449444,UG-407,,
-1726216,-2420211,hypsographic,Arebe,Arebe,official,3.112886,31.92866,UG-301,,
-1726215,-2420209,hypsographic,Arawa,Arawa,official,3.23783,31.859205,UG-301,,
-1728998,-2423549,hydrographic,Kankoko,Kankoko,official,-0.833333,29.65,UG-414,,
-1729201,-2423807,settlement,Kasana,Kasana,official,-0.7,30.65,UG-418,,
13885616,17774449,settlement,Moru,Moru,official,0.853539,34.160354,UG-212,,
-1726556,-2420631,hydrographic,Biwalwe,Biwalwe,official,0.9,31.516667,UG-123,,
-1726104,-2420078,hypsographic,Andri,Andri,variant,3.258603,31.615946,UG-301,,
-1726140,-2420120,settlement,Anyid,Anyid,variant,1.751305,33.703989,UG-211,,
-1726238,-2420239,hydrographic,Aror,Aror,official,1.599864,33.950886,UG-208,,
-1726716,-2420816,hypsographic,Bugera,Bugera,official,-0.933333,31.716667,UG-110,,
-1725912,-2419817,hydrographic,Akeio,Akeio,variant,2.487444,31.172763,UG-310,,
-1727264,-2421436,hypsographic,Busumbi,Busumbi,official,-0.466667,31.316667,UG-124,,
-1727037,-2421176,settlement,Bulonda,Bulonda,official,0.433333,32.366667,UG-113,,
13821851,17653199,settlement,Njuli,Njuli,official,0.641282,29.997032,UG-401,,
-1725911,-2419816,settlement,Akeen,Akeen,official,-1.233333,29.783333,UG-408,,
-1726910,-2421038,settlement,Bukoko,Bukoko,official,-0.233333,31.966667,UG-105,,
13761851,17533177,settlement,Mbala,Mbala,official,0.343423,33.135499,UG-117,,
-1726717,-2420817,settlement,Bugere,Bugere,official,-0.566667,31.683333,UG-000,,
-1729167,-2423770,hypsographic,Kasaka,Kasaka,official,-0.15,31.633333,UG-118,,
-1725769,-2419633,hydrographic,Adide,Adide,variant,3.411949,32.017699,UG-301,,
13767949,17543573,settlement,Lukoligo,Lukoligo,official,0.475497,32.720755,UG-108,,
-1729332,-2423950,settlement,Kasozi,Kasozi,official,0.479426,33.571879,UG-235,,
-1729198,-2423804,settlement,Kasana,Kasana,official,0.471483,32.835616,UG-108,,
-1729196,-2423802,settlement,Kasana,Kasana,official,-0.187222,31.510833,UG-111,,
-1728954,-2423491,hydrographic,Kanaga,Kanaga,official,0.933333,30.95,UG-407,,
-1725910,-2419815,hydrographic,Akedo,Akedo,official,2.597829,31.058562,UG-336,,
-1728953,-2423490,settlement,Kanadda,Kanadda,official,0.366667,32.466667,UG-113,,
-1726263,-2420269,settlement,Asinge,Asinge,official,1.58258,33.904567,UG-208,,
-1726510,-2420568,settlement,Bingo,Bingo,official,0.912699,33.873186,UG-221,,
-1725939,-2419840,settlement,Akole,Akole,variant,2.016667,33.75,UG-236,,
-1726011,-2429979,hydrographic,Olobo,Olobo,variant,1.844973,33.432283,UG-237,,
-1726647,-2420740,settlement,Budola,Budola,official,1.166667,33.283333,UG-226,,
-1725673,-2419493,hypsographic,Abaia,Abaia,variant,3.413065,32.725943,UG-326,,
-1725720,-2419571,hydrographic,Acha,Acha,official,2.941108,31.336513,UG-336,,
-1726908,-2421036,settlement,Bukoka,Bukoka,official,0.466667,31.966667,UG-115,,
-1727087,-2421232,settlement,Bumbo,Bumbo,official,0.127884,32.141686,UG-106,,
-1729335,-2423953,settlement,Kasozi,Kasozi,official,0.791618,33.353685,UG-229,,
-1725985,-2419919,hypsographic,Alekilek,Alekilek,official,2.1,34.183333,UG-207,,
-1725907,-2419811,hypsographic,Akatozo,Akatozo,official,-0.866667,31.15,UG-418,,
-1729336,-2423954,settlement,Kasozi,Kasozi,official,0.838963,33.605383,UG-224,,
-1725909,-2419813,hydrographic,Akayo,Akayo,official,2.675543,30.995797,UG-336,,
-1729197,-2423803,settlement,Kasana,Kasana,official,-0.3,31.85,UG-127,,
-1726012,-2419952,hydrographic,Aloda,Aloda,official,2.452408,30.935799,UG-330,,
13733316,17487141,settlement,Busoga,Busoga,official,0.489352,33.648006,UG-201,,
-1729515,-2424178,settlement,Katulu,Katulu,official,-0.683333,31.616667,UG-110,,
-1726481,-2420536,spot,Bigo,Bigo,official,0.15,31.25,UG-111,,
-1726214,-2420208,settlement,Arapoo,Arapoo,official,1.416667,33.25,UG-232,,
-1725908,-2419812,hydrographic,Akayanja,Akayanja,official,-0.183333,30.75,UG-419,,
-1729202,-2423808,settlement,Kasana,Kasana,official,0.833333,32.516667,UG-104,,
-1726906,-2421034,settlement,Bukobe,Bukobe,official,0.433037,33.947281,UG-202,,
-1726483,-2420538,hydrographic,Bigugo,Bigugo,official,-0.15,31.333333,UG-000,,
-1726056,-2420013,settlement,Amiel,Amiel,official,2.966667,33.45,UG-322,,
-1729713,-2424423,settlement,Kibale,Kibale,official,1.216667,33.783333,UG-210,,
-1725963,-2419882,hypsographic,Akwor,Akwor,official,2.733333,33.7,UG-314,,
-1729165,-2423768,settlement,Kasaka,Kasaka,official,-0.383333,31.85,UG-105,,
-1729168,-2423771,park,Kasaka,Kasaka,official,0.216667,31.866667,UG-121,,
-1726907,-2421035,settlement,Bukobo,Bukobo,official,1.016667,33.333333,UG-229,,
-1729166,-2423769,settlement,Kasaka,Kasaka,official,-0.582778,30.472778,UG-410,,
-1726986,-2421121,settlement,Bulando,Bulando,official,-0.35,31.766667,UG-127,,
-1726985,-2421120,settlement,Bulamu,Bulamu,official,0.35937,32.288376,UG-106,,
13780832,17570143,settlement,Katwe,Katwe,official,0.250423,32.896185,UG-108,,
-1729163,-2423766,settlement,Kasaka,Kasaka,official,0.183333,31.9,UG-121,,
-1729330,-2423948,settlement,Kasozi,Kasozi,official,0.066667,32.2,UG-106,,
-1729164,-2423767,settlement,Kasaka,Kasaka,official,-0.266667,31.95,UG-105,,
-1726217,-2420212,hypsographic,Arechek,Arechek,official,2.3,34.333333,UG-327,,
-1725884,-2419783,settlement,Ajia,Ajia,official,2.91583,31.026949,UG-303,,
-1729200,-2423806,settlement,Kasana,Kasana,official,0.55,31.483333,UG-107,,
-1725883,-2419782,hydrographic,Aji,Aji,official,3.326087,31.102761,UG-313,,
-1727038,-2421177,settlement,Bulondo,Bulondo,official,0.467952,32.434755,UG-113,,
13790041,17589008,hydrographic,Kyetinda,Kyetinda,official,0.223935,32.895079,UG-108,,
-1728759,-2423242,settlement,Kalere,Kalere,official,1.875372,33.236728,UG-237,,
13878995,17761295,settlement,Amoni,Amoni,official,0.635316,34.238342,UG-212,,
13845441,17696707,settlement,Akum,Akum,official,1.761841,33.62608,UG-211,,
-1729738,-2424450,settlement,Kibanyi,Kibanyi,official,0.468631,32.097932,UG-115,,
-1726482,-2420537,settlement,Bigodi,Bigodi,official,0.4,30.416667,UG-413,,
-1729333,-2423951,settlement,Kasozi,Kasozi,official,0.533333,32.566667,UG-113,,
-1726909,-2421037,settlement,Bukoki,Bukoki,official,1.033333,32.166667,UG-116,,
-1729199,-2423805,settlement,Kasana,Kasana,official,0.5,31.216667,UG-107,,
-1726768,-2420876,settlement,Bugoye,Bugoye,official,1.166667,32.333333,UG-116,,
-1729329,-2423947,settlement,Kasozi,Kasozi,official,0.02,30.498611,UG-417,,
-1729331,-2423949,settlement,Kasozi,Kasozi,official,0.401526,33.699388,UG-214,,
-1728952,-2423489,hypsographic,Kanadap,Kanadap,official,3.635534,34.372931,UG-318,,
-1727089,-2421234,settlement,Bumboi,Bumboi,official,1.05,34.233333,UG-209,,
-1725838,-2419719,settlement,Agu,Agu,official,1.466667,33.7,UG-231,,
-1726911,-2421039,settlement,Bukoko,Bukoko,official,0.75,31.383333,UG-407,,
-1726557,-2420632,settlement,Biwanga,Biwanga,official,1.066667,32.15,UG-116,,
14532252,18869309,settlement,Lela,Lela,official,1.834922,33.46212,UG-211,,
13955215,17904676,settlement,Buwanzu,Buwanzu,official,0.985813,33.122489,UG-205,,
14116548,18179081,hydrographic,Soba,Soba,official,1.415475,31.895746,UG-116,,
13906769,17814274,settlement,Kikunyu,Kikunyu,official,0.161211,32.232651,UG-106,,
13897027,17795494,hypsographic,Mbazzi,Mbazzi,official,0.315512,32.340978,UG-106,,
13959967,17912011,settlement,Bobogo,Bobogo,official,0.855961,33.114752,UG-205,,
14150589,18234855,settlement,Kisule,Kisule,official,0.434207,32.094275,UG-115,,
-3432468,-4870760,hypsographic,Virunga,Virunga,official,-1.383333,29.633333,S1-000,,
-3432468,-4870690,hypsographic,"Birunga Range","Birunga Range",variant,-1.383333,29.633333,S1-000,,
-3432468,-4870762,hypsographic,Virungu,Virungu,variant,-1.383333,29.633333,S1-000,,
-3432468,-4870778,hypsographic,"Mufumbiro Mountains","Mufumbiro Mountains",official,-1.383333,29.633333,S1-000,,
-3432468,-4870726,hypsographic,Mufumbiro,Mufumbiro,variant,-1.383333,29.633333,S1-000,,
-3432468,-4870728,hypsographic,"Mufumbiro Range","Mufumbiro Range",variant,-1.383333,29.633333,S1-000,,
-3432468,-4870777,hypsographic,Birunga,Birunga,official,-1.383333,29.633333,S1-000,,
-3432468,-4870723,hypsographic,M’fumbiro,M'fumbiro,variant,-1.383333,29.633333,S1-000,,
-3432465,-4870697,hydrographic,Chizinga,Chizinga,variant,-1.1294,30.3436,S1-000,,
-3432465,-4870699,hydrographic,Cshisinga,Cshisinga,variant,-1.1294,30.3436,S1-000,,
-3432465,-4870752,hydrographic,Muvogero,Muvogero,official,-1.1294,30.3436,S1-000,,
-3432465,-4870751,hydrographic,Tshinzinga,Tshinzinga,variant,-1.1294,30.3436,S1-000,,
-3432465,-4870696,hydrographic,"River Chisinga","River Chisinga",variant,-1.1294,30.3436,S1-000,,
-3432465,-4870776,hydrographic,Kizinga,Kizinga,variant,-1.1294,30.3436,S1-000,,
-3432465,11980430,hydrographic,Cyizinga,Cyizinga,official,-1.1294,30.3436,S1-000,,
-3432464,-4870748,hypsographic,Sabino,Sabino,variant,-1.38629,29.589142,S1-000,,
-3432464,-4870747,hypsographic,"Volcan Sabinyo","Volcan Sabinyo",official,-1.38629,29.589142,S1-000,,
-3432464,-4870745,hypsographic,"Volcan Sabyinyo","Volcan Sabyinyo",official,-1.38629,29.589142,S1-000,,
-3432464,-4870743,hypsographic,"Mount Sabinio","Mount Sabinio",variant,-1.38629,29.589142,S1-000,,
-3432464,-4870775,hypsographic,Sabinio,Sabinio,official,-1.38629,29.589142,S1-000,,
-3432460,-4870731,hypsographic,"Volcan Muhavura","Volcan Muhavura",variant,-1.3806,29.6773,S1-000,,
-3432460,-4870732,hypsographic,Muhavura,Muhavura,official,-1.3806,29.6773,S1-000,,
-3432460,-4870729,hypsographic,"Volcan Muhabura","Volcan Muhabura",official,-1.3806,29.6773,S1-000,,
-3432459,-4870714,hydrographic,Kiruruma,Kiruruma,official,-1.35,29.883333,S1-000,,
-3432459,-4870715,hydrographic,Kirurumu,Kirurumu,variant,-1.35,29.883333,S1-000,,
-3432459,-4870716,hydrographic,Vigaga,Vigaga,official,-1.35,29.883333,S1-000,,
-3432451,-4870722,hypsographic,Mahing,Mahing,variant,-1.3844,29.644,S1-000,,
-3432451,-4870702,hypsographic,Gahinga,Gahinga,variant,-1.3844,29.644,S1-000,,
-3432451,-4870767,hypsographic,"Volcan Gahinga","Volcan Gahinga",official,-1.3844,29.644,S1-000,,
-3432451,-4870703,hypsographic,Mgahinga,Mgahinga,official,-1.3844,29.644,S1-000,,
-2574551,-3543058,hydrographic,"Victoria Nyanza","Victoria Nyanza",variant,-1,33,S1-000,,
-2574551,-3539013,hydrographic,"Nam Lolwe","Nam Lolwe",variant,-1,33,S1-000,,
-2574551,11062456,hydrographic,Ukerewe,Ukerewe,variant,-1,33,S1-000,,
-2574551,-3543055,hydrographic,"Lake Victoria","Lake Victoria",official,-1,33,S1-000,,
-2264484,-3125091,hypsographic,"Wamoru Ngole","Wamoru Ngole",variant,3.676431,34.455015,S1-000,,
-2264378,-3124965,hypsographic,Wagagai,Wagagai,official,1.100858,34.559511,S1-000,,
-2264484,-3117081,hypsographic,Namoru-Ngole,Namoru-Ngole,official,3.676431,34.455015,S1-000,,
-2263940,18824474,hypsographic,Turkwell,Turkwell,official,1.262053,34.83286,S1-000,,
-2263044,-3123273,hydrographic,Suam,Suam,official,1.847998,35.258728,S1-000,,
-2262744,-3122870,hypsographic,"Siriam-Pak Pass","Siriam-Pak Pass",official,3.673017,34.457472,S1-000,,
-2263430,-3114769,hypsographic,Moruese,Moruese,official,3.777331,34.186151,S1-000,,
-2262153,-3121870,hypsographic,Sagat,Sagat,official,1.57513,34.944092,S1-000,,
-2263045,-3123275,spot,"Suam Bridge","Suam Bridge",official,1.216366,34.734765,S1-000,,
-2263046,-3123277,hypsographic,"Suam Gorge","Suam Gorge",official,1.166667,34.616667,S1-000,,
-2263044,-3123418,hydrographic,Swom,Swom,variant,1.847998,35.258728,S1-000,,
-2262153,-3121849,hypsographic,Saga,Saga,variant,1.57513,34.944092,S1-000,,
-2263940,-3124406,hypsographic,Turkwel,Turkwel,official,1.262053,34.83286,S1-000,,
-2262153,-3122091,hypsographic,Sarat,Sarat,official,1.57513,34.944092,S1-000,,
-2263940,-3116760,hypsographic,Nairassirassa,Nairassirassa,variant,1.262053,34.83286,S1-000,,
-2262120,-3122025,hydrographic,Sanga,Sanga,variant,0.363598,34.10564,S1-000,1,
-2263953,-3124423,hydrographic,Tusa,Tusa,official,3.079857,34.602327,S1-000,,
-2263430,-3114772,hypsographic,Moruethe,Moruethe,variant,3.777331,34.186151,S1-000,,
-2263106,-3123353,hypsographic,"Sumba Island","Sumba Island",official,0.103588,33.913918,S1-000,,
-2262120,-3122045,hydrographic,Sango,Sango,official,0.363598,34.10564,S1-000,1,
-2263430,-3123777,hypsographic,"Murua Thae","Murua Thae",official,3.777331,34.186151,S1-000,,
-2261034,19005816,hydrographic,Natira,Natira,official,3.916667,34.666667,S1-000,,
-2261034,19005817,hydrographic,Naputuro,Naputuro,variant,3.916667,34.666667,S1-000,,
-2261034,-3120666,hydrographic,Oropoi,Oropoi,official,3.916667,34.666667,S1-000,,
-2261034,19005818,hydrographic,Naputiro,Naputiro,variant,3.916667,34.666667,S1-000,,
-2261666,-3121473,hydrographic,Riwa,Riwa,official,1.324859,34.862359,S1-000,,
-2261245,-3120862,hydrographic,Pasik,Pasik,official,2.516443,34.94335,S1-000,,
-2261245,-3120938,hydrographic,Pesik,Pesik,variant,2.516443,34.94335,S1-000,,
-2258465,-3117285,hypsographic,"Narongole Plain","Narongole Plain",official,3.107116,34.57624,S1-000,,
-2258317,17143318,hypsographic,"Namurua Kirienok","Namurua Kirienok",official,3.03855,34.575757,S1-000,,
-2258208,-3116934,hypsographic,Nakwamosing,Nakwamosing,official,4.034125,34.088883,S1-000,,
-2259012,-3114747,hypsographic,"Moru Angaponga","Moru Angaponga",official,4.134103,34.0618,S1-000,,
-2258553,-3117397,hydrographic,Nauyagum,Nauyagum,official,3.789243,34.218474,S1-000,,
-2258317,-3117079,hypsographic,Namoru-Kirienok,Namoru-Kirienok,official,3.03855,34.575757,S1-000,,
-2258161,-3116878,hydrographic,Nakayot,Nakayot,official,2.090475,34.822573,S1-000,,
-2258161,-3116877,hydrographic,Nakayat,Nakayat,variant,2.090475,34.822573,S1-000,,
-2258326,-3117091,hydrographic,Namuroi,Namuroi,official,2.705148,34.792392,S1-000,,
-2258428,-3117225,hydrographic,Naporoto,Naporoto,official,3.770659,34.175451,S1-000,,
-2258124,-3117048,hydrographic,"Namenei Atulalo","Namenei Atulalo",variant,2.513734,34.938761,S1-000,,
-2258209,-3116937,hypsographic,Nakwamosing,Nakwamosing,official,4.060976,34.093348,S1-000,,
-2258124,17486420,hydrographic,Naiyenai-Atulelo,Naiyenai-Atulelo,variant,2.513734,34.938761,S1-000,,
-2259012,-3117964,hypsographic,"Murua Ngaponga","Murua Ngaponga",official,4.134103,34.0618,S1-000,,
-2258549,-3117391,hydrographic,Naunyet,Naunyet,official,3.77315,34.379893,S1-000,,
-2258545,-3117385,hydrographic,Naukot,Naukot,official,3.495616,34.574506,S1-000,,
-2258545,-3116601,hydrographic,Naakot,Naakot,variant,3.495616,34.574506,S1-000,,
-2258366,-3117148,hypsographic,"Nangataret Kaakodiam","Nangataret Kaakodiam",official,2.676575,34.782659,UG-308,,
-2258553,-3116665,hydrographic,Nadyagum,Nadyagum,variant,3.789243,34.218474,S1-000,,
-2258420,-3117213,hydrographic,Napeichom,Napeichom,official,4.134029,34.214398,S1-000,,
-2258124,-3116829,hydrographic,Naiyenai-Atulela,Naiyenai-Atulela,official,2.513734,34.938761,S1-000,,
-2258012,-3116675,hydrographic,Nagaramoroi,Nagaramoroi,official,2.524075,34.972425,S1-000,,
-2256572,18824467,hypsographic,Moruebu,Moruebu,official,1.550527,34.905565,S1-000,,
-2257979,-3116631,hydrographic,Nabukut,Nabukut,official,2.784039,34.799037,S1-000,,
-2257981,-3116633,hydrographic,Nabunei,Nabunei,official,3.042503,34.633242,S1-000,,
-2256572,-3114763,hypsographic,"Moruebu Nakwanamor","Moruebu Nakwanamor",official,1.550527,34.905565,S1-000,,
-2256573,-3114782,hypsographic,"Morukokoi Korenyang","Morukokoi Korenyang",official,1.533333,34.866667,S1-000,,
-2254035,-3111439,hydrographic,Lotirai,Lotirai,official,2.95953,34.607701,S1-000,,
-2254261,-3111730,hydrographic,Lwakhakha,Lwakhakha,official,0.7,34.316667,S1-000,,
-2254786,-3112437,hydrographic,Malawa,Malawa,variant,0.714509,33.834217,S1-000,,
-2254035,-3110495,hydrographic,Letirei,Letirei,variant,2.95953,34.607701,S1-000,,
-2254786,-3112439,hydrographic,Malawao,Malawao,variant,0.714509,33.834217,S1-000,,
-2254250,-3111716,hydrographic,Luturut,Luturut,official,1.866667,35.016667,S1-000,,
-2254261,-3111728,hydrographic,Lwakaka,Lwakaka,variant,0.7,34.316667,S1-000,,
-2255965,-3114791,hypsographic,Morumeri,Morumeri,official,1.98359,34.984606,S1-000,,
-2254786,-3112407,hydrographic,Malaba,Malaba,official,0.714509,33.834217,S1-000,,
-2255965,-3113924,hypsographic,"Morua Meri","Morua Meri",official,1.98359,34.984606,S1-000,,
-2255065,-3112759,hydrographic,Maragat,Maragat,official,1.433333,34.85,S1-000,,
-2254035,-3110179,hydrographic,Latere,Latere,variant,2.95953,34.607701,S1-000,,
-2254035,-3111424,hydrographic,Lotere,Lotere,variant,2.95953,34.607701,S1-000,,
-2252056,-3108865,hypsographic,Kokipi,Kokipi,official,1.559751,34.922946,S1-000,,
-2252295,-3109180,hypsographic,Korinyang,Korinyang,official,1.525559,34.864676,S1-000,,
-2253652,-3110903,hydrographic,Lokucho,Lokucho,official,3.316667,34.533333,S1-000,,
-2252535,-3109476,hydrographic,Kunyao,Kunyao,official,1.8,35.083333,S1-000,,
-2253879,-3110697,hydrographic,Lochuk,Lochuk,variant,2.892961,34.693114,S1-000,,
-2252046,-3108852,hypsographic,Kokas,Kokas,official,1.663562,34.991395,S1-000,,
-2253659,-3111636,hydrographic,Lukwakipi,Lukwakipi,variant,2.515134,34.955512,S1-000,,
-2253886,-3111226,hydrographic,Loolimo,Loolimo,official,2.655809,34.842317,S1-000,,
-2252535,-3104473,hydrographic,Kanyao,Kanyao,variant,1.8,35.083333,S1-000,,
-2253879,-3111213,hydrographic,Loochuk,Loochuk,official,2.892961,34.693114,S1-000,,
-2253659,-3110915,hydrographic,Lokwakipi,Lokwakipi,official,2.515134,34.955512,S1-000,,
-2253886,-3111223,hydrographic,Loolima,Loolima,variant,2.655809,34.842317,S1-000,,
-2253594,-3110825,hydrographic,Lokedule,Lokedule,official,3.584406,34.490868,S1-000,,
-2253885,-3111225,hypsographic,Loolimo,Loolimo,official,2.617984,34.83048,UG-308,,
-2252295,18824469,hypsographic,Korenyang,Korenyang,official,1.525559,34.864676,S1-000,,
-2253813,-3111126,hydrographic,Lomunyeniyan,Lomunyeniyan,official,2.395704,34.913943,S1-000,,
-2253498,-3110700,hydrographic,Lochwai,Lochwai,official,2.969427,34.618171,S1-000,,
-2252259,-3109125,hydrographic,Kopelikori,Kopelikori,official,3.5,34.583333,S1-000,,
-2253891,-3111234,hydrographic,Loolung,Loolung,official,2.680784,34.863706,S1-000,,
-2252347,-3109247,hypsographic,Korurau,Korurau,variant,1.603175,34.960786,S1-000,,
-2252259,-3109126,hydrographic,Kapelikori,Kapelikori,official,3.5,34.583333,S1-000,,
-2253497,-3110698,hydrographic,Lochurututu,Lochurututu,official,3.896549,34.15535,S1-000,,
-2252347,-3109243,hypsographic,Korukurao,Korukurao,variant,1.603175,34.960786,S1-000,,
-2253669,-3110930,hypsographic,Lokwangamoru,Lokwangamoru,official,2.479988,34.929685,UG-308,,
-2252347,18824468,hypsographic,Korkurao,Korkurao,official,1.603175,34.960786,S1-000,,
-2253508,-3110712,park,Lodoot,Lodoot,official,2.6,34.833333,S1-000,,
-2252366,-3109268,hydrographic,Kotaruk,Kotaruk,official,3.2,34.483333,S1-000,,
-2252287,-3109167,hypsographic,Korenyang,Korenyang,official,1.55,34.883333,S1-000,,
-2253508,-3111242,park,Loooot,Loooot,variant,2.6,34.833333,S1-000,,
-2253669,-3116941,hypsographic,Nakwanamoru,Nakwanamoru,variant,2.479988,34.929685,UG-308,,
-2252295,-3105100,hypsographic,Karenyang,Karenyang,variant,1.525559,34.864676,S1-000,,
-2251942,-3108715,hydrographic,Kochokyo,Kochokyo,official,3.738557,34.591993,S1-000,,
-2251942,-3108713,hydrographic,Kochokio,Kochokio,official,3.738557,34.591993,S1-000,,
-2249702,-3105996,hydrographic,Kayokongai,Kayokongai,official,3.668118,34.522661,S1-000,,
-2248048,-3103955,hydrographic,Kamodo,Kamodo,official,2.960045,34.608145,S1-000,,
-2247798,-3103648,hydrographic,Kalodurr,Kalodurr,official,4.078778,34.300625,S1-000,,
-2247829,-3103686,hydrographic,Kaloponogole,Kaloponogole,variant,3.776887,34.4206,S1-000,,
-2248007,-3119709,hydrographic,Okame,Okame,official,0.570227,34.010668,S1-000,,
-2248476,-3104469,hydrographic,Kanyangareng,Kanyangareng,official,1.787129,35.156997,S1-000,,
-2247829,19008321,hydrographic,Kaloponongole,Kaloponongole,official,3.776887,34.4206,S1-000,,
-2249702,-3105993,hydrographic,Kayekongai,Kayekongai,official,3.668118,34.522661,S1-000,,
-2248999,-3105119,hypsographic,Kariamekeris,Kariamekeris,official,2.370644,34.919265,S1-000,,
-2249199,-3105464,hypsographic,"Kassauria Escarpment","Kassauria Escarpment",official,1.43388,34.802449,S1-000,,
-2249199,-3105392,hypsographic,"Kasauria Escarpment","Kasauria Escarpment",official,1.43388,34.802449,S1-000,,
-2249520,-3105775,hypsographic,Katumakale,Katumakale,official,2.049551,34.980783,S1-000,,
-2247829,19008358,hydrographic,Kalopomongole,Kalopomongole,variant,3.776887,34.4206,S1-000,,
-2247828,-3103683,hydrographic,Kalopeto,Kalopeto,official,3.794178,34.337118,S1-000,,
-2247804,-3103657,hydrographic,Kalokodo,Kalokodo,official,2.679716,34.830857,S1-000,,
-2248476,-3104467,hydrographic,Kanyangarang,Kanyangarang,variant,1.787129,35.156997,S1-000,,
-2248007,-3103899,hydrographic,Kami,Kami,official,0.570227,34.010668,S1-000,,
-2248007,-3103877,hydrographic,Kame,Kame,variant,0.570227,34.010668,S1-000,,
-2247523,-3103323,hydrographic,Kakerikan,Kakerikan,official,2.7,34.783333,S1-000,,
-2247387,-3103158,hydrographic,Kaimo,Kaimo,official,3.007146,34.62747,S1-000,,
-2247614,-3103430,hydrographic,Kakwe,Kakwe,official,2.595064,34.912379,S1-000,,
-2247523,-3103324,hydrographic,Nakerikan,Nakerikan,official,2.7,34.783333,S1-000,,
-2247554,-3103361,hydrographic,Kakore,Kakore,official,2.590565,34.879515,S1-000,,
-2244153,-3099034,hypsographic,"Mount Elgon","Mount Elgon",official,1.133333,34.55,S1-000,,
-2244153,-3113073,hypsographic,Masawa,Masawa,variant,1.133333,34.55,S1-000,,
-2243765,-3098531,hydrographic,Didinga,Didinga,official,2.667334,34.849037,S1-000,,
-2244153,-3113029,hypsographic,Masaba,Masaba,variant,1.133333,34.55,S1-000,,
-2244153,-3110547,hypsographic,Ligonyi,Ligonyi,variant,1.133333,34.55,S1-000,,
-2243038,-3097600,hydrographic,Chekolatom,Chekolatom,official,4.066835,34.229729,S1-000,,
-2241606,-3095701,hydrographic,Akakus,Akakus,variant,1.983333,34.883333,S1-000,,
-2241606,-3095765,hydrographic,Akukath,Akukath,variant,1.983333,34.883333,S1-000,,
-2241606,-3095766,hydrographic,Akukuth,Akukuth,official,1.983333,34.883333,S1-000,,
-2241814,17507086,hypsographic,Apenidor,Apenidor,official,2.360933,34.920495,S1-000,,
-2243038,-3097351,hydrographic,Chakalatum,Chakalatum,variant,4.066835,34.229729,S1-000,,
-2241899,-3096139,hydrographic,Asasum,Asasum,official,1.862016,35.023282,S1-000,,
-2241814,-3096034,hypsographic,Apekidori,Apekidori,variant,2.360933,34.920495,S1-000,,
-2242271,-3096629,hydrographic,"Berkeley Bay","Berkeley Bay",official,0.237222,33.977778,S1-000,,
-2243038,-3097365,hydrographic,Chakolotum,Chakolotum,variant,4.066835,34.229729,S1-000,,
-2181998,-3015221,hypsographic,Bugindi,Bugindi,variant,-1.483333,29.916667,S1-000,,
-2181998,-3018029,hypsographic,Sandja,Sandja,official,-1.483333,29.916667,S1-000,,
-2181998,-3018030,hypsographic,Sanja,Sanja,official,-1.483333,29.916667,S1-000,,
-2181268,-3016500,hydrographic,Kagitumba,Kagitumba,official,-1.0546,30.4721,S1-000,,
-2181268,-3016478,hydrographic,Kachwamba,Kachwamba,variant,-1.0546,30.4721,S1-000,,
-2181268,-3017707,hydrographic,Obiendo,Obiendo,variant,-1.0546,30.4721,S1-000,,
-2181268,-3016501,hydrographic,Kakitumba,Kakitumba,official,-1.0546,30.4721,S1-000,,
-2063234,-2860845,hypsographic,Zeio,Zeio,variant,2.5,30.75,S1-000,,
-2063234,-4833909,hypsographic,"Mont Zeu","Mont Zeu",official,2.5,30.75,S1-000,,
-2063234,-3022957,hypsographic,Zeu,Zeu,official,2.5,30.75,S1-000,,
-2061762,-2838584,hydrographic,Iwafi,Iwafi,variant,-1.056111,29.533333,S1-000,,
-2061762,-2859314,hydrographic,Guafe,Guafe,official,-1.056111,29.533333,S1-000,,
-2061762,-2859304,hydrographic,Wahafi,Wahafi,variant,-1.056111,29.533333,S1-000,,
-2061762,-2859313,hydrographic,Wakafi,Wakafi,official,-1.056111,29.533333,S1-000,,
-2061258,-2857124,hypsographic,Sho,Sho,variant,2.383001,30.842649,S1-000,,
-2061258,-2858669,hypsographic,Cho,Cho,official,2.383001,30.842649,S1-000,,
-2061258,13326882,hypsographic,Tsho,Tsho,official,2.383001,30.842649,S1-000,,
-2061258,-2858668,hypsographic,"Mont Tsho","Mont Tsho",variant,2.383001,30.842649,S1-000,,
-2060930,-2858258,hypsographic,Chieshire,Chieshire,official,-1.266667,29.6,S1-000,,
-2060930,-2858259,hypsographic,Tshieshiro,Tshieshiro,variant,-1.266667,29.6,S1-000,,
-2060930,-2858257,hypsographic,Tshieshire,Tshieshire,official,-1.266667,29.6,S1-000,,
-2060385,-2857564,hydrographic,Tako,Tako,official,0.16871,29.811963,S1-000,,
-2060239,-2857187,hypsographic,Sina,Sina,variant,2.366667,30.95,S1-000,,
-2060239,-2857397,hypsographic,"Mont Suia",MontSuia,official,2.366667,30.95,S1-000,,
-2060239,-2857398,hypsographic,Asina,Asina,official,2.366667,30.95,S1-000,,
-2060113,-2857236,hypsographic,"Mont Sisi","Mont Sisi",official,2.333333,30.933333,S1-000,,
-2060113,-2857237,hypsographic,Acu,Acu,official,2.333333,30.933333,S1-000,,
-2059689,-2856737,hydrographic,Semliki,Semliki,official,1.262213,30.462818,S1-000,,
-2059179,-2856094,hypsographic,"Massif du Ruwenzori",MassifduRuwenzori,official,0.409652,29.890541,S1-000,,
-2059179,13067865,hypsographic,"Ruwenzori Mountains","Ruwenzori Mountains",variant,0.409652,29.890541,S1-000,,
-2059179,-2851350,hypsographic,"Mountains of the Moon",MountainsoftheMoon,variant,0.409652,29.890541,S1-000,,
-2059179,-2848043,hypsographic,"Monts de la Lune","Monts de la Lune",variant,0.409652,29.890541,S1-000,,
-2059179,13067967,hypsographic,Rwenzoli,Rwenzoli,variant,0.409652,29.890541,S1-000,,
-2059179,13067866,hypsographic,"Monts Rwenzori",MontsRwenzori,variant,0.409652,29.890541,S1-000,,
-2059179,-2856095,hypsographic,"Ruwenzori Range","Ruwenzori Range",variant,0.409652,29.890541,S1-000,,
-2059179,13067864,hypsographic,"Rwenzori Mountains","Rwenzori Mountains",official,0.409652,29.890541,S1-000,,
-2059179,-2856096,hypsographic,"Mount Ruwenzori",MountRuwenzori,variant,0.409652,29.890541,S1-000,,
-2059179,-2856093,hypsographic,Ruwenzori,Ruwenzori,official,0.409652,29.890541,S1-000,,
-2059145,-2856049,hypsographic,Lubona,Lubona,official,-1.2,29.583333,S1-000,,
-2059145,-2856048,hypsographic,Rubona,Rubona,official,-1.2,29.583333,S1-000,,
-2058103,-2854743,settlement,Nyarubara,Nyarubara,official,-1.333333,30.016667,UG-404,,
-2057738,-2854291,hydrographic,Niagaki,Niagaki,official,2.647808,31.111122,S1-000,,
-2057738,-2854293,hydrographic,Niagok,Niagok,variant,2.647808,31.111122,S1-000,,
-2057738,-2854292,hydrographic,Nyagak,Nyagak,official,2.647808,31.111122,S1-000,,
-2057465,-2853964,hypsographic,"Mont Stanley","Mont Stanley",official,0.384492,29.872619,S1-000,,
-2057465,13067992,hypsographic,"Mount Margherita","Mount Margherita",variant,0.384492,29.872619,S1-000,,
-2057465,-2853963,hypsographic,"Mont Ngaliéma","Mont Ngaliema",variant,0.384492,29.872619,S1-000,,
-2057465,13067991,hypsographic,"Mount Stanley","Mount Stanley",official,0.384492,29.872619,S1-000,,
-2057268,13317161,hydrographic,Nasido,Nasido,official,2.379233,31.046287,S1-000,,
-2057268,-2853728,hydrographic,Nyacidhu,Nyacidhu,variant,2.379233,31.046287,S1-000,,
-2057268,-2853727,hydrographic,Nasida,Nasida,official,2.379233,31.046287,S1-000,,
-2056300,-2852519,hydrographic,Munyaga,Munyaga,official,-0.833333,29.633333,S1-000,,
-2056300,-2852518,hydrographic,Muniaga,Muniaga,official,-0.833333,29.633333,S1-000,,
-2053942,-2849621,hypsographic,Margharita,Margharita,variant,0.385329,29.872909,S1-000,,
-2053942,-2849625,hypsographic,"Margherita Peak","Margherita Peak",official,0.385329,29.872909,S1-000,,
-2053942,13068860,hypsographic,Margherita,Margherita,variant,0.385329,29.872909,S1-000,,
-2053942,-2849622,hypsographic,"Mount Margherita","Mount Margherita",variant,0.385329,29.872909,S1-000,,
-2053942,-2849624,hypsographic,"Pic Marguerite","Pic Marguerite",official,0.385329,29.872909,S1-000,,
-2051875,-2847022,hydrographic,Lubilia,Lubilia,variant,-0.082143,29.726628,S1-000,,
-2051875,-2847009,hydrographic,Lubila,Lubila,variant,-0.082143,29.726628,S1-000,,
-2051875,-2847026,hydrographic,Lubiliha,Lubiliha,variant,-0.082143,29.726628,S1-000,,
-2051875,-2835261,hydrographic,Chako,Chako,variant,-0.082143,29.726628,S1-000,,
-2051875,-2847024,hydrographic,"River Lubilia","River Lubilia",variant,-0.082143,29.726628,S1-000,,
-2051875,-2847023,hydrographic,"Lubilia Tako","Lubilia Tako",official,-0.082143,29.726628,S1-000,,
-2051875,-2431108,hydrographic,Tako,Tako,official,-0.082143,29.726628,S1-000,,
-2050436,-2845248,hydrographic,Lamia,Lamia,official,0.84088,29.98409,S1-000,,
-2050436,-2847966,hydrographic,Lumia,Lumia,variant,0.84088,29.98409,S1-000,,
-2050436,-2845242,hydrographic,"River Lami","River Lami",variant,0.84088,29.98409,S1-000,,
-2050436,-2845247,hydrographic,Lamya,Lamya,official,0.84088,29.98409,S1-000,,
-2049448,-2844036,hypsographic,Kisikio,Kisikio,variant,-1.216667,29.6,S1-000,,
-2049448,-2844021,hypsographic,Gishio,Gishio,official,-1.216667,29.6,S1-000,,
-2048348,-2842742,hypsographic,Kikomo,Kikomo,official,-1.05,29.566667,S1-000,,
-2049448,-2837303,hypsographic,Giskio,Giskio,variant,-1.216667,29.6,S1-000,,
-2049448,-2844020,hypsographic,Kishio,Kishio,official,-1.216667,29.6,S1-000,,
-2048348,-2842743,hypsographic,Chikomo,Chikomo,official,-1.05,29.566667,S1-000,,
-2049448,-2844047,hypsographic,Kiskio,Kiskio,variant,-1.216667,29.6,S1-000,,
-2044874,-2838572,hydrographic,"Mai ya Ivi","Mai ya Ivi",official,-0.825079,29.406662,S1-000,,
-2044874,-2838576,hydrographic,Ivu,Ivu,variant,-0.825079,29.406662,S1-000,,
-2044874,-2836788,hydrographic,"Mayya Evi","Mayya Evi",variant,-0.825079,29.406662,S1-000,,
-2044874,-2856101,hydrographic,Rwamagara,Rwamagara,variant,-0.825079,29.406662,S1-000,,
-2044874,-2836795,hydrographic,Ewi,Ewi,variant,-0.825079,29.406662,S1-000,,
-2044874,-2422514,hydrographic,"Mayi na Ivi","Mayi na Ivi",variant,-0.825079,29.406662,S1-000,,
-2044874,-2838573,hydrographic,Ivi,Ivi,official,-0.825079,29.406662,S1-000,,
-2044874,-2838579,hydrographic,Ivwi,Ivwi,variant,-0.825079,29.406662,S1-000,,
-2044762,-2838419,hydrographic,Isasha,Isasha,variant,-0.727357,29.627149,S1-000,,
-2044762,-2838436,hydrographic,Ishasha,Ishasha,official,-0.727357,29.627149,S1-000,,
-2043068,9168758,hydrographic,"Lake Idi Amin Dada","Lake Idi Amin Dada",variant,-0.367511,29.572971,S1-000,,
-2043068,13089931,hydrographic,"Lake Rutanzige","Lake Rutanzige",variant,-0.367511,29.572971,S1-000,,
-2043068,-2836307,hydrographic,"Lake Idi Amin Dada","Lake Idi Amin Dada",variant,-0.367511,29.572971,S1-000,,
-2043068,-2836308,hydrographic,"Edward Meer","Edward Meer",variant,-0.367511,29.572971,S1-000,,
-2043068,-2836305,hydrographic,"Lake Edward","Lake Edward",colloquial,-0.367511,29.572971,S1-000,,
-2043068,-2836299,hydrographic,"Lac Édouard","Lac Edouard",official,-0.367511,29.572971,S1-000,,
-2043068,-2837802,hydrographic,"Lake Idi Amin Dada","Lake Idi Amin Dada",variant,-0.367511,29.572971,S1-000,,
-2043068,-2830007,hydrographic,"Albert Edward Nyanza","Albert Edward Nyanza",variant,-0.367511,29.572971,S1-000,,
-2043068,-2837803,hydrographic,"Lac Idi Amine","Lac Idi Amine",variant,-0.367511,29.572971,S1-000,,
-2043068,-2836309,hydrographic,"Edward Nyanza","Edward Nyanza",variant,-0.367511,29.572971,S1-000,,
-2043068,-2836306,hydrographic,"Lac Idi Amin","Lac Idi Amin",variant,-0.367511,29.572971,S1-000,,
-2042342,-2835430,hypsographic,Dekonth,Dekonth,variant,-1.016667,29.566667,S1-000,,
-2042342,-2835427,hypsographic,Deko,Deko,official,-1.016667,29.566667,S1-000,,
-2042342,-2835428,hypsographic,Nteko,Nteko,official,-1.016667,29.566667,S1-000,,
-2038114,-2830316,hydrographic,Achodo,Achodo,official,2.294734,31.221673,S1-000,,
-2038114,-2853726,hydrographic,Nashiodo,Nashiodo,variant,2.294734,31.221673,S1-000,,
-2038114,-2830315,hydrographic,Atshodo,Atshodo,official,2.294734,31.221673,S1-000,,
-2037944,-2830118,hydrographic,Amodar,Amodar,variant,2.45,30.833333,S1-000,,
-2037944,-2830119,hydrographic,Amodie,Amodie,official,2.45,30.833333,S1-000,,
-2037944,-2830120,hydrographic,Amuda,Amuda,official,2.45,30.833333,S1-000,,
-2037944,-2830117,hydrographic,Ammodar,Ammodar,variant,2.45,30.833333,S1-000,,
-2037944,-2830121,hydrographic,Amodo,Amodo,variant,2.45,30.833333,S1-000,,
-2037941,-2830113,hypsographic,Aminzi,Aminzi,official,2.35,31.066667,S1-000,,
-2037941,-2830112,hypsographic,"Mont Aminsi","Mont Aminsi",official,2.35,31.066667,S1-000,,
-2037854,-2420514,hydrographic,"Bentu Lueru","Bentu Lueru",variant,1.701894,30.95547,S1-000,,
-2037854,-2830008,hydrographic,"Albert Meer","Albert Meer",variant,1.701894,30.95547,S1-000,,
-2037854,11014025,hydrographic,Mwittanzige,Mwittanzige,variant,1.701894,30.95547,S1-000,,
-2037854,-2830002,hydrographic,"Lake Albert","Lake Albert",colloquial,1.701894,30.95547,S1-000,,
-2037854,9106353,hydrographic,"Lac Albert",LacAlbert,official,1.701894,30.95547,S1-000,,
-2037854,-2848374,hydrographic,"Luta Nzige","Luta Nzige",variant,1.701894,30.95547,S1-000,,
-2037854,-2851834,hydrographic,"Muite Nzige","Muite Nzige",variant,1.701894,30.95547,S1-000,,
-2037854,-2830004,hydrographic,"Lake Mobutu Sese Seko","Lake Mobutu Sese Seko",variant,1.701894,30.95547,S1-000,,
-2037854,-2830003,hydrographic,"Lac Mobutu Sese Seko","Lac Mobutu Sese Seko",variant,1.701894,30.95547,S1-000,,
-2037854,-2831301,hydrographic,"Bantu Lueru","Bantu Lueru",variant,1.701894,30.95547,S1-000,,
-2037854,-2830009,hydrographic,"Albert Nyanza","Albert Nyanza",variant,1.701894,30.95547,S1-000,,
-2037803,-2829942,hypsographic,"Mont Agu","Mont Agu",official,2.398766,30.954584,S1-000,,
-2037803,-2829943,hypsographic,Agu,Agu,official,2.398766,30.954584,S1-000,,
-1735164,20332039,administrative_region,Soroti,Soroti,official,1.75,33.583333,UG-240,,
-1735608,-2431612,hypsographic,"Ziru Island","Ziru Island",official,0.048704,32.982516,UG-120,,
-1735501,-2431473,settlement,Wankata,Wankata,official,0.264862,32.903171,UG-108,,
-1735027,-2430883,settlement,Segero,Segero,variant,0.646126,33.713585,UG-201,,
-1735309,-2431235,hypsographic,Tula,Tula,variant,1.38708,31.673967,UG-409,,
-1735176,9193602,hypsographic,Speke,Speke,variant,0.401825,29.892231,UG-406,,
-1735222,-2431122,hypsographic,"Tavu Island","Tavu Island",official,-0.033333,32.7,UG-108,,
-1735023,-2430879,settlement,Seeta,Seeta,variant,0.38957,32.704079,UG-108,,
-1735210,-2431106,settlement,Tademeri,Tademeri,official,0.990278,33.969722,UG-217,,
-1735114,-2430977,hypsographic,"Sindiro Island","Sindiro Island",official,0.159444,33.136389,UG-120,,
-1735189,-2431079,hypsographic,Sukulu,Sukulu,variant,0.627494,34.160015,UG-212,,
-1735389,-2431343,park,Wabinyomo,Wabinyomo,variant,0.215335,32.111138,UG-121,,
-1735265,-2431173,settlement,Tira,Tira,variant,0.513292,34.077558,UG-202,,
-1734997,-2430849,hypsographic,"Sanga Island","Sanga Island",official,0.07588,32.655572,UG-108,,
-1735025,-2430881,settlement,Seganga,Seganga,official,0.533333,32.316667,UG-113,,
-1735436,-2431398,hydrographic,"Waka Swamp","Waka Swamp",official,3.377676,31.52436,UG-337,,
-1735338,-2431272,settlement,Ukiti,Ukiti,variant,3.653376,33.516368,UG-305,,
-1735280,-2431192,settlement,Tondegejelako,Tondegejelako,variant,0.466667,31.9,UG-126,,
-1735312,-2431238,settlement,Tumbo,Tumbo,official,0.334469,32.189671,UG-115,,
-1735544,13323847,park,"Wiceri Forest Reserve","Wiceri Forest Reserve",official,2.950882,31.877304,UG-316,,
-1735075,-2430935,settlement,Seseme,Seseme,official,-1.266667,29.7,UG-408,,
-1735347,-2431290,hydrographic,"River Unyama","River Unyama",official,3.585814,32.038325,S1-000,,
-1735476,-2431442,settlement,Wampologoma,Wampologoma,official,0.796663,33.011327,UG-112,,
-1735462,-2428479,settlement,Naluvule,Naluvule,variant,0.766667,32.5,UG-104,,
-1735315,-2428239,hypsographic,Nairassirassa,Nairassirassa,variant,1.266667,34.833333,UG-220,,
-1735228,-2431128,settlement,Tegaligwa,Tegaligwa,official,0.15,31.616667,UG-121,,
-1735088,-2430950,park,Siba,Siba,official,1.699295,31.45347,UG-416,,
-1735334,-2431268,hypsographic,Ujuku,Ujuku,official,3.216667,31,UG-341,,
-1735136,-2431005,hypsographic,Sitambogo,Sitambogo,official,0.493735,33.927221,UG-202,,
-1735606,-2431610,hypsographic,"Ziro Island","Ziro Island",official,0.103667,33.499168,UG-120,,
-1735549,-2431533,hydrographic,"Williams Bay","Williams Bay",official,-0.35,32.2,UG-101,,
-1735422,-2431382,settlement,Wainya,Wainya,official,0.555184,33.4073,UG-214,,
-1735546,-2431530,settlement,Wigweng,Wigweng,official,1.921234,32.692065,UG-333,,
-1735070,-2430928,settlement,Serinya,Serinya,official,-0.233333,31.683333,UG-118,,
-1735535,-2431518,hydrographic,Wesikire,Wesikire,official,1.083333,31.116667,UG-407,,
-1735497,-2431469,hypsographic,Wangutusi,Wangutusi,official,1.45,34.366667,UG-225,,
-1735351,14514736,hypsographic,Urongo,Urongo,official,4.053758,33.811806,S1-000,,
-1735279,-2431190,hypsographic,Tonda,Tonda,official,0.134302,32.299224,UG-106,,
-1735609,-2431608,hypsographic,Ziro,Ziro,variant,-0.086944,33.213611,UG-120,,
-1735595,-2431596,hydrographic,Zinga,Zinga,official,0.266667,30.383333,UG-413,,
-1735196,-2431087,hypsographic,Sunga,Sunga,official,0.933333,31.366667,UG-407,,
-1735436,-2422163,hydrographic,"Gangu Swamp","Gangu Swamp",variant,3.377676,31.52436,UG-337,,
-1735305,-2431230,settlement,Tugumu,Tugumu,official,1.433333,34.533333,UG-228,,
-1735508,-2431481,hypsographic,Wapet,Wapet,official,3.883333,34.033333,UG-318,,
-1735379,-2431332,settlement,Vura,Vura,variant,2.909063,30.882478,UG-303,,
-1735116,20332038,administrative_region,Singo,Singo,official,0.75,31.833333,UG-126,,
-1735166,9080100,administrative_region,Masaka,Masaka,official,-0.45,31.85,UG-105,,
-1735422,34827,settlement,Batambogwe,Batambogwe,variant,0.555184,33.4073,UG-214,,
-1735450,-2431413,settlement,Walabungo,Walabungo,official,1.45,32.266667,UG-109,,
-1735039,-2430897,settlement,Sempa,Sempa,official,0.694167,32.571389,UG-104,,
-1735509,-2431483,settlement,War,War,official,2.600378,30.888839,UG-330,,
-1735295,-2431213,settlement,Tororo,Tororo,official,0.692991,34.180853,UG-212,,
-1735235,-2431136,vegetation,Telwa,Telwa,official,2.233333,32.833333,UG-340,,
-1735417,-2431377,hydrographic,Waigabu,Waigabu,official,0.616667,30.4,UG-405,,
-1735586,-2431586,hypsographic,"Zibira Point","Zibira Point",official,0.091952,33.311438,UG-120,,
-1735169,-2431052,administrative_region,"Southern Province","Southern Province",official,-0.35,30.35,UG-000,1,
-1735098,-2424655,settlement,Kigunga,Kigunga,variant,0.966667,34.35,UG-223,,
-1735355,-2431302,settlement,Usuku,Usuku,official,1.988333,33.971667,UG-207,,
-1735423,-2431383,settlement,Wairaka,Wairaka,official,0.475698,33.26457,UG-204,,
-1735480,-2429130,hypsographic,Nkokonjeru,Nkokonjeru,variant,1.033333,34.25,UG-209,,
-1735527,-2431507,hypsographic,Wazele,Wazele,official,-0.016667,32.033333,UG-106,,
-1735252,-2431155,hypsographic,Thithing,Thithing,official,1.983333,34.216667,UG-000,,
-1735618,14592066,park,"Zulia Central Forest Reserve","Zulia Central Forest Reserve",official,4.042952,33.958025,UG-318,,
-1735311,18234906,vegetation,"Tumbi Forest Reserve","Tumbi Forest Reserve",official,0.427449,32.284132,UG-113,,
-1735167,-2431050,administrative_region,"South Bugisu County","South Bugisu County",official,0.916667,34.333333,UG-223,,
-1735185,17578820,settlement,Sugu-Lugala,Sugu-Lugala,official,0.222282,32.692129,UG-108,,
-1735266,-2431176,settlement,Tiriri,Tiriri,official,1.898523,33.459062,UG-211,,
-1735129,-2431029,settlement,Solokho,Solokho,variant,1.234913,34.256757,UG-215,,
-1735570,-2431566,settlement,Yivu,Yivu,official,3.288158,30.998217,UG-320,,
-1735187,-2431076,settlement,Suguru,Suguru,official,1.788544,33.825363,UG-216,,
-1735375,-2431327,hydrographic,"Vumba Bay","Vumba Bay",official,0.11826,33.282883,UG-120,,
-1735227,-2431127,hydrographic,Tedua,Tedua,official,1.433333,34.733333,UG-000,,
-1735610,-2421984,hypsographic,Dziru,Dziru,variant,-0.333333,32.433333,UG-101,,
-1735199,-2431090,settlement,Suni,Suni,official,0.956598,33.896347,UG-217,,
-1735100,-2430962,hypsographic,Sikye,Sikye,official,1.333333,32.383333,UG-109,,
-1735057,-2430915,settlement,Sentema,Sentema,official,0.368914,32.415823,UG-113,,
-1735389,18227352,park,"Wabinyomo Forest Reserve","Wabinyomo Forest Reserve",official,0.215335,32.111138,UG-121,,
-1735068,13430965,hydrographic,Cheri,Cheri,variant,3.339461,32.043288,UG-316,,
-1735330,-2431262,settlement,Udupi,Udupi,official,3.296288,31.175316,UG-341,,
-1735156,-2431034,settlement,Sona,Sona,variant,0.560407,33.009644,UG-112,,
-1735344,-2431282,settlement,Umi,Umi,official,3.54386,31.811053,UG-301,,
-1735186,17566016,settlement,Suugu-Mutwa,Suugu-Mutwa,official,0.26256,32.967062,UG-117,,
-1735440,-2431402,settlement,Wakawungu,Wakawungu,official,0.415158,33.523441,UG-214,,
-1735108,-2430970,settlement,Simbli,Simbli,official,3.274407,30.881162,UG-320,,
-1735243,20332042,administrative_region,Terego,Terego,official,3.166667,31.166667,UG-341,,
-1735552,9033955,settlement,Wobulenzil,Wobulenzil,variant,0.728333,32.512222,UG-104,,
-1735051,-2430909,spot,"Senda Estate","Senda Estate",official,0.496122,32.012516,UG-115,,
-1735150,-2431026,hypsographic,Sokut,Sokut,variant,3.269105,33.72909,UG-306,,
-1735073,-2430933,administrative_region,"Sese County","Sese County",official,-0.333333,32.333333,UG-101,,
-1735469,-2431429,vegetation,Wamago,Wamago,variant,0.333333,32.266667,UG-106,,
-1735142,-2431011,hydrographic,Sogahi,Sogahi,variant,0.95,30.55,UG-405,,
-1735617,-2431624,hypsographic,Zulia,Zulia,official,4.12831,33.983814,UG-318,,
-1735065,-2430923,settlement,Serere,Serere,official,1.517967,33.45888,UG-232,,
-1735392,-2431346,hydrographic,Wabirombe,Wabirombe,official,0.583333,31.633333,UG-126,,
-1735315,-2431241,hypsographic,Turkwel,Turkwel,variant,1.266667,34.833333,UG-220,,
-1735058,-2430916,hypsographic,"Sentwe Island","Sentwe Island",official,0.044059,32.973597,UG-120,,
-1735001,-2430853,hydrographic,"River Sango","River Sango",official,0.366667,34.1,UG-202,,
-1735480,-2431447,hypsographic,Wanale,Wanale,official,1.033333,34.25,UG-209,,
-1735439,18370194,hydrographic,Bweyagya,Bweyagya,official,1.346002,31.631589,UG-409,,
-1735201,-2431092,hydrographic,Surumu,Surumu,variant,3.511469,31.927643,UG-301,,
-1735489,13311024,settlement,Wanica,Wanica,official,3.063941,31.098982,UG-341,,
-1735176,-2421964,hypsographic,Duwoni,Duwoni,variant,0.401825,29.892231,UG-406,,
-1735205,-2431099,hydrographic,Taany,Taany,variant,3.939221,33.756254,UG-335,,
-1735263,-2431171,settlement,Timba,Timba,official,0.65,32.716667,UG-104,,
-1735557,-2431545,hypsographic,Wunga,Wunga,official,-0.75,31.066667,UG-418,,
-1735379,-2431333,settlement,Vurra,Vurra,official,2.909063,30.882478,UG-303,,
-1735201,-2422086,hydrographic,Eradji,Eradji,official,3.511469,31.927643,UG-301,,
-1735257,-2431162,hydrographic,Tiama,Tiama,official,-0.3,29.95,UG-425,,
-1735059,-2430917,settlement,Senyi,Senyi,official,0.163267,33.03946,UG-117,,
-1735198,-2431089,hypsographic,Sungira,Sungira,official,1.316667,32.45,UG-109,,
-1735598,-2431599,hydrographic,Zingele,Zingele,official,2.476812,31.039443,UG-330,,
-1735015,-2430869,settlement,Sasasa,Sasasa,official,0.6,32.583333,UG-104,,
-1735394,-2431349,settlement,Wabisise,Wabisise,variant,1.2,32.383333,UG-109,,
-1735385,-2431339,hydrographic,Wabigoli,Wabigoli,official,1.483333,32.366667,UG-109,,
-1735488,-2431456,settlement,Wandi,Wandi,official,3.101217,30.978404,UG-341,,
-1735145,-2431017,hypsographic,Sogolimon,Sogolimon,variant,2.964111,34.531279,UG-308,,
-1735467,-2431432,hydrographic,"Lake Wamala","Lake Wamala",official,0.328333,31.840556,UG-115,,
-1735538,-2431521,park,"West Bugwe","West Bugwe",variant,0.515119,33.987231,UG-202,,
-1735394,-2431348,settlement,Wabisisa,Wabisisa,official,1.2,32.383333,UG-109,,
-1735519,-2422109,hypsographic,Eti,Eti,variant,3.227664,31.029408,UG-341,,
-1735083,-2430944,administrative_region,"Shema County","Shema County",official,-0.7,30.3,UG-426,,
-1735398,-2431353,hydrographic,Wabitosi,Wabitosi,official,1.083333,32.733333,UG-109,,
-1735014,-2430868,hydrographic,Sasa,Sasa,official,1.216667,34.383333,UG-225,,
-1735156,17945871,settlement,Soona,Soona,official,0.560407,33.009644,UG-112,,
-1735459,-2431423,vegetation,Walulumbu,Walulumbu,variant,0.461875,33.308721,UG-214,,
-1735493,-2431462,hypsographic,Wangero,Wangero,official,-0.033333,31.3,UG-111,,
-1735160,-2431040,hydrographic,Sonso,Sonso,official,1.88356,31.395008,UG-416,,
-1735269,-2431179,settlement,Titim,Titim,official,3.42434,33.665553,UG-305,,
-1735129,-2430997,settlement,Siroko,Siroko,variant,1.234913,34.256757,UG-215,,
-1735016,-2430871,settlement,Sazi,Sazi,official,0.100129,32.430782,UG-113,,
-1735028,17484288,hypsographic,Isegero,Isegero,official,0.465903,33.64215,UG-201,,
-1735529,-2431510,hydrographic,Weiga,Weiga,official,1.983333,31.4,UG-416,,
-1735264,19010534,park,"Timu Forest Reserve","Timu Forest Reserve",official,3.605147,34.317584,UG-318,,
-1735360,-2431308,settlement,Uzu,Uzu,official,3.054856,30.844276,UG-338,,
-1735337,-2431273,hydrographic,Ukutat,Ukutat,official,1.703611,34.179722,UG-207,,
-1735564,-2431558,hydrographic,Yengeji,Yengeji,official,3.455255,31.127368,UG-313,,
-1735333,-2431266,hypsographic,Uguruku,Uguruku,official,2.854259,31.091158,UG-303,,
-1735031,-2430887,settlement,Sekamuli,Sekamuli,official,0.755278,32.616944,UG-104,,
-1735244,-2431146,hypsographic,Teretok,Teretok,official,2.95,33.75,UG-314,,
-1735603,-2431606,hydrographic,"Zirimiti Swamp","Zirimiti Swamp",official,0.266667,32.716667,UG-108,,
-1735260,-2431166,hypsographic,Tikitiki,Tikitiki,variant,2.033333,33.8,UG-236,,
-1735252,-2422480,hypsographic,Ising,Ising,variant,1.983333,34.216667,UG-000,,
-1735468,-2431433,hydrographic,Wamalagwe,Wamalagwe,official,0.65,33.416667,UG-000,,
-1735397,-2431352,settlement,Wabitoki,Wabitoki,official,1.730623,32.030298,UG-421,,
-1735610,-2431604,hypsographic,"Zira Island","Zira Island",variant,-0.333333,32.433333,UG-101,,
-1735317,-2431244,settlement,Turupok,Turupok,official,1.566667,32.633333,UG-315,,
-1735032,-2430888,settlement,Sekanyonyi,Sekanyonyi,official,0.508889,32.123889,UG-115,,
-1735478,-2431444,settlement,Wamulongo,Wamulongo,official,0.496775,33.525766,UG-214,,
-1735079,17946806,settlement,Seeta,Seeta,official,0.550815,33.038462,UG-112,,
-1735579,-2431575,settlement,Zanyiro,Zanyiro,official,0.766667,31.8,UG-126,,
-1735273,-2431184,hydrographic,Tokwe,Tokwe,official,0.827444,30.023356,UG-401,,
-1735492,-2431460,settlement,Wangale,Wangale,official,0.917586,34.104543,UG-221,,
-1735365,-2431315,settlement,Virika,Virika,official,0.635466,30.269838,UG-436,,
-1735575,-2431571,settlement,Yumbe,Yumbe,official,3.465057,31.246893,UG-313,,
-1735255,-2431161,spot,"Fort Thurston","Fort Thurston",variant,0.403452,33.354378,UG-214,,
-1735080,17566064,spot,"Seeta Station","Seeta Station",official,0.309299,32.841573,UG-108,,
-1735419,18253355,settlement,Ilhago,Ilhago,variant,0.952358,33.512904,UG-222,,
-1735350,-2431295,hypsographic,Urudi,Urudi,variant,3.7,31.8,UG-309,,
-1735017,-2430872,settlement,Sazike,Sazike,official,0.833333,31.4,UG-407,,
-1735456,-2431420,hydrographic,Walugogo,Walugogo,official,1.55579,31.533144,UG-409,,
-1735018,-2430873,settlement,Sebanda,Sebanda,official,0.616667,32.2,UG-115,,
-1735204,-2431098,settlement,"Taan Valley","Taan Valley",official,3.802023,33.8346,UG-335,,
-1735224,-2431124,settlement,Tebalowoza,Tebalowoza,official,0.378115,32.986884,UG-117,,
-1735555,-2431538,hydrographic,Wogi,Wogi,variant,3.510145,31.180043,UG-313,,
-1735023,9195832,settlement,Seta,Seta,official,0.38957,32.704079,UG-108,,
-1735378,13324162,settlement,Vurr,Vurr,official,2.521391,31.182836,UG-310,,
-1735233,-2431134,settlement,Tekela,Tekela,variant,-0.433333,31.816667,UG-105,,
-1735350,-2430178,hypsographic,Orudi,Orudi,variant,3.7,31.8,UG-309,,
-1735380,20332047,administrative_region,Vurra,Vurra,official,2.866667,31,UG-303,,
-1735129,-2431030,settlement,Soloko,Soloko,variant,1.234913,34.256757,UG-215,,
-1735407,-2431363,hypsographic,Wadelai,Wadelai,official,2.729179,31.485797,UG-316,,
-1735253,-2431156,hypsographic,Thoboto,Thoboto,official,1.55,34.566667,UG-228,,
-1735381,9197613,settlement,Wol,Wol,official,3.136577,33.197681,UG-322,,
-1735346,-2431288,settlement,Unyama,Unyama,official,2.816988,32.338144,UG-339,,
-1735486,-2431454,settlement,Wandala,Wandala,official,0.5,33.516667,UG-214,,
-1735511,-2431486,hydrographic,Waragwomi,Waragwomi,official,0.483333,30.916667,UG-422,,
-1735544,-2431528,park,Wiceri,Wiceri,variant,2.950882,31.877304,UG-316,,
-1735419,-2431379,settlement,Waigalo,Waigalo,variant,0.952358,33.512904,UG-222,,
-1735282,-2431195,settlement,Tondolo,Tondolo,official,3.200467,31.108755,UG-341,,
-1735408,-2431364,hypsographic,Wadja,Wadja,official,1.3,32.133333,UG-116,,
-1735538,34928,park,"West Bugwe Forest Reserve","West Bugwe Forest Reserve",official,0.515119,33.987231,UG-202,,
-1734992,9194844,settlement,Sunga,Sunga,official,-0.546944,30.618889,UG-438,,
-1735264,-2431172,park,"Timu Forest","Timu Forest",variant,3.605147,34.317584,UG-318,,
-1735338,-2431274,settlement,Ukuti,Ukuti,variant,3.653376,33.516368,UG-305,,
-1735505,-2431477,hydrographic,Wantabu,Wantabu,official,0.5,30.366667,UG-405,,
-1735605,-2431609,settlement,Zirobwe,Zirobwe,official,0.679444,32.689444,UG-104,,
-1735485,-2431453,hydrographic,Wandaka,Wandaka,official,1.066667,32.783333,UG-000,,
-1735465,-2423962,settlement,Kasozibabengwa,Kasozibabengwa,variant,0.066667,31.9,UG-119,,
-1735426,-2431387,hypsographic,Waisemb,Waisemb,variant,1.544097,31.391491,UG-403,,
-1735443,-2431405,hydrographic,Waki,Waki,official,1.795348,31.320072,UG-416,,
-1735062,-2430920,settlement,Sere,Sere,official,0.813187,34.018045,UG-212,,
-1735370,17647513,settlement,Ivukula,Ivukula,official,0.943953,33.625271,UG-224,,
-1735147,-2431019,hypsographic,Sogwas,Sogwas,variant,3.670525,34.371534,UG-318,,
-1735069,-2430927,settlement,Serinya,Serinya,official,0.066667,31.7,UG-122,,
-1735157,-2431036,settlement,Sonde,Sonde,official,0.394772,32.702571,UG-108,,
-1735029,17748081,hypsographic,Tsekururu,Tsekururu,official,0.972794,34.376324,UG-223,,
-1735439,-2431401,hydrographic,Wakawoga,Wakawoga,variant,1.346002,31.631589,UG-409,,
-1735241,-2431142,settlement,Te’okoto,Te'okoto,variant,2.506276,31.586761,UG-328,,
-1735035,-2430893,hydrographic,Sembula,Sembula,official,0.066667,31.816667,UG-121,,
-1735357,-2431305,settlement,Utrutru,Utrutru,official,2.780457,31.178479,UG-336,,
-1735590,17782581,settlement,Zimuddi,Zimuddi,official,0.416667,32.316667,UG-113,,
-1735102,-2430964,settlement,Silobera,Silobera,official,0.583333,31.966667,UG-115,,
-1735618,14592067,park,"Zulia Forest Reserve","Zulia Forest Reserve",variant,4.042952,33.958025,UG-318,,
-1735137,-2422266,hydrographic,Greek,Greek,variant,1.583333,34.583333,UG-000,,
-1735293,-2431210,hydrographic,Torone,Torone,official,1.933333,34.55,UG-334,,
-1735424,-2431384,hydrographic,Wairingo,Wairingo,official,2.065523,31.657907,UG-409,,
-1735487,-2431455,settlement,Wandegeya,Wandegeya,official,0.349866,33.559172,UG-214,,
-1735230,-2431130,settlement,Tegeress,Tegeress,official,1.383333,34.4,UG-206,,
-1735160,-2431047,hydrographic,Souso,Souso,variant,1.88356,31.395008,UG-416,,
-1735162,-2431043,settlement,Soroti,Soroti,official,1.715833,33.611111,UG-240,,
-1735240,-2431141,settlement,Tente,Tente,official,0.733333,32.883333,UG-112,,
-1734994,-2430845,hypsographic,Sanga,Sanga,official,-0.516667,30,UG-423,,
-1735399,-2431354,settlement,Wabiyinja,Wabiyinja,official,0.330986,32.10767,UG-115,,
-1734995,-2430847,settlement,Sangai,Sangai,official,1.717892,33.378879,UG-237,,
-1735380,-2431334,administrative_region,"Vurra County","Vurra County",official,2.866667,31,UG-303,,
-1735209,-2431104,hydrographic,Tabok,Tabok,variant,1.55,34.433333,UG-228,,
-1735510,-2431489,hypsographic,Warr,Warr,variant,3.483333,34.3,UG-318,,
-1735027,17647503,settlement,Isegero,Isegero,official,0.646126,33.713585,UG-201,,
-1735341,-2429968,hydrographic,Olido,Olido,official,2.608557,31.091246,UG-336,,
-1735296,17749586,hypsographic,"Tororo Rock","Tororo Rock",official,0.684722,34.183056,UG-212,,
-1735296,-2431214,hypsographic,Tororo,Tororo,variant,0.684722,34.183056,UG-212,,
-1735232,-2431132,settlement,Teilwa,Teilwa,official,1.888415,32.680839,UG-333,,
-1735332,14076337,administrative_region,Uganda,Uganda,official,1.25,32.5,UG-000,,
-1735593,-2431594,hypsographic,Zina,Zina,official,0.25,30.9,UG-000,,
-1735044,-2430902,hydrographic,Semugabi,Semugabi,official,0.766667,32.2,UG-000,,
-1735000,-2430852,hypsographic,Sango,Sango,official,3.201142,31.832393,UG-301,,
-1735585,-2431585,hypsographic,Ziba,Ziba,official,0.085173,32.353486,UG-113,,
-1735447,-2431410,settlement,Wakisu,Wakisu,variant,0.409866,32.832183,UG-108,,
-1735206,-2431100,settlement,Taba,Taba,official,0.208082,32.024234,UG-121,,
-1735563,-2431557,settlement,Yenga,Yenga,official,0.847975,30.013812,UG-401,,
-1735226,-2431126,settlement,Teboke,Teboke,official,1.814283,32.31268,UG-302,,
-1735054,-2430912,settlement,Senene,Senene,official,0.206232,32.35103,UG-106,,
-1735019,-2430875,administrative_region,"Sebei District","Sebei District",official,1.333333,34.583333,UG-228,,
-1735289,-2431206,settlement,Toroma,Toroma,official,1.753638,33.957434,UG-207,,
-1735276,-2431187,hydrographic,"Tome Bay","Tome Bay",official,0.213749,33.236576,UG-120,,
-1735217,-2431116,hydrographic,Tantala,Tantala,official,1.905607,31.766196,UG-409,,
-1735003,-2430855,hydrographic,Sangor,Sangor,official,3.475979,33.802529,UG-318,,
-1735391,-2431345,hydrographic,Wabiri,Wabiri,official,1.616667,32.616667,UG-315,,
-1735147,-2431157,hypsographic,Thogwath,Thogwath,variant,3.670525,34.371534,UG-318,,
-1735275,-2431186,settlement,Toma,Toma,variant,0.932172,34.263158,UG-223,,
-1735576,13316358,settlement,Dzaipi,Dzaipi,official,3.392632,31.955881,UG-301,,
-1735516,-2431494,hydrographic,Wasa,Wasa,official,1.033333,30.5,UG-424,,
-1735074,9194791,hypsographic,"Ssese Islands","Ssese Islands",variant,-0.313056,32.318611,UG-101,,
-1735121,-2430987,hydrographic,Sio,Sio,official,0.233323,34.00701,S1-000,,
-1735239,-2431140,hypsographic,"Tende Point","Tende Point",official,0.041901,32.549469,UG-113,,
-1735425,-2431385,hydrographic,Wairumba,Wairumba,variant,0.706973,33.551136,UG-203,,
-1735545,-2431529,hypsographic,Wiceri,Wiceri,official,2.966961,31.997991,UG-316,,
-1735429,-2431390,hypsographic,"Waitwe Island","Waitwe Island",official,0.058542,33.100788,UG-120,,
-1735592,-2431593,settlement,Zimwe,Zimwe,official,-0.516667,31.75,UG-105,,
-1735150,-2431024,hypsographic,Sokot,Sokot,official,3.269105,33.72909,UG-306,,
-1735362,-2431310,hydrographic,"Victoria Nile","Victoria Nile",official,2.190743,31.375343,UG-000,,
-1735566,-2431560,hydrographic,Yeriya,Yeriya,official,0.483333,30.233333,UG-430,,
-1735528,-2431508,hydrographic,"Wazimenya Bay","Wazimenya Bay",official,0.204444,32.6625,UG-108,,
-1735400,-2431355,settlement,Wabukala,Wabukala,official,1.520869,32.228456,UG-109,,
-1735079,-2430940,settlement,Seta,Seta,variant,0.550815,33.038462,UG-112,,
-1735329,-2429802,hydrographic,Oduka,Oduka,variant,2.669346,30.910286,UG-000,,
-1735068,-2430926,hydrographic,Seri,Seri,official,3.339461,32.043288,UG-316,,
-1735390,-2431344,settlement,Wabinyonyi,Wabinyonyi,official,1.3,32.466667,UG-109,,
-1735331,-2431263,hydrographic,"Ugana Passage","Ugana Passage",official,0.141714,33.803675,UG-230,,
-1735581,-2431581,hydrographic,Zerwa,Zerwa,official,2.988718,30.982204,UG-338,,
-1735185,-2431073,settlement,Sugu,Sugu,variant,0.222282,32.692129,UG-108,,
-1735041,-2430899,hypsographic,Sempaya,Sempaya,official,0.875655,30.198895,UG-424,,
-1735262,-2431170,hydrographic,Timan,Timan,official,3.78853,34.452567,S1-000,,
-1735024,-2422034,hypsographic,Duvia,Duvia,variant,-0.016667,32.916667,UG-120,,
-1735022,-2430878,settlement,Seeta,Seeta,official,1.0E-6,31.933333,UG-106,,
-1735402,-2431357,settlement,Wabulungu,Wabulungu,official,0.483333,33.316667,UG-214,,
-1735469,-2431434,vegetation,Wamango,Wamango,official,0.333333,32.266667,UG-106,,
-1735134,-2431003,hydrographic,Sisiwaki,Sisiwaki,official,1.1,34.283333,UG-000,,
-1735506,-2431478,spot,Wantuluntu,Wantuluntu,official,0.55,32.916667,UG-108,,
-1735144,-2431015,hypsographic,Sogolimen,Sogolimen,official,2.405227,34.712916,UG-308,,
-1735071,-2430930,hypsographic,"Serinya Island","Serinya Island",official,-0.234167,32.356389,UG-101,,
-1735393,-2431347,settlement,Wabisi,Wabisi,official,1.433333,32.45,UG-109,,
-1735304,-2431228,hypsographic,"Tubi Point","Tubi Point",official,-0.216667,32.183333,UG-101,,
-1735219,-2431118,hypsographic,Tarach,Tarach,official,3.398121,34.369958,UG-318,,
-1735053,-2430911,settlement,Senene,Senene,official,0.201556,32.139677,UG-119,,
-1735148,-2431022,hypsographic,Sokober,Sokober,official,3.22859,31.780999,UG-301,,
-1735098,-2430960,settlement,Sikunga,Sikunga,official,0.966667,34.35,UG-223,,
-1735411,-2431368,hypsographic,Wagagai,Wagagai,official,1.116667,34.533333,UG-000,,
-1735330,13311025,settlement,Udipi,Udipi,variant,3.296288,31.175316,UG-341,,
-1735215,-2431113,hydrographic,Tangi,Tangi,official,2.447277,31.493306,UG-328,,
-1735617,14514625,hypsographic,"Mount Zulia","Mount Zulia",variant,4.12831,33.983814,UG-318,,
-1735188,17749657,settlement,Osukuru,Osukuru,official,0.662384,34.155603,UG-212,,
-1735518,-2430738,hypsographic,Rwatamagufa,Rwatamagufa,variant,0.266667,29.9,UG-406,,
-1735151,-2431025,hypsographic,Sokotuket,Sokotuket,official,3.487681,34.235876,UG-318,,
-1735452,-2431416,hydrographic,Waliga,Waliga,official,0.546062,33.084684,UG-117,,
-1735386,-2431340,spot,Wabikokoma,Wabikokoma,official,0.616667,32.316667,UG-116,,
-1735395,-2431350,hydrographic,Wabisisi,Wabisisi,official,2.001769,31.756739,UG-000,,
-1735472,-2431438,hydrographic,Wambabyo,Wambabyo,official,1.333333,31.15,UG-432,,
-1735482,-2428106,hypsographic,Nabansu,Nabansu,variant,1.816667,32.15,UG-421,,
-1735066,20332035,administrative_region,Serere,Serere,official,1.5,33.416667,UG-232,,
-1735437,-2431399,settlement,Wakatanga,Wakatanga,official,0.666667,33.6,UG-235,,
-1735403,-2431359,settlement,Wabusana,Wabusana,official,0.894167,32.651667,UG-104,,
-1735077,-2430938,settlement,Seta,Seta,variant,0.317232,32.843401,UG-108,,
-1735145,-2431014,hypsographic,Sogolemon,Sogolemon,variant,2.964111,34.531279,UG-308,,
-1735149,-2431023,settlement,Sokolo,Sokolo,official,0.198159,32.402105,UG-113,,
-1735559,-2431550,hydrographic,Yawambi,Yawambi,official,-0.783333,29.816667,UG-414,,
-1735165,-2431046,spot,"Soroti Station","Soroti Station",official,1.786082,33.646699,UG-211,,
-1735369,-2431320,hydrographic,Vubyabilenge,Vubyabilenge,variant,0.341817,32.615583,UG-102,,
-1735265,17749650,settlement,Tiira,Tiira,official,0.513292,34.077558,UG-202,,
-1735378,-2431330,settlement,Vur,Vur,variant,2.521391,31.182836,UG-310,,
-1735509,-2431488,settlement,Warr,Warr,variant,2.600378,30.888839,UG-330,,
-1735516,-2422003,hydrographic,Dorwa,Dorwa,variant,1.033333,30.5,UG-424,,
-1735118,-2430981,settlement,Sinya,Sinya,official,0.834188,34.241044,UG-223,,
-1735600,-2431602,settlement,Zintengeze,Zintengeze,official,0.5,32.983333,UG-117,,
-1735421,-2431381,hydrographic,Waimwe,Waimwe,official,1.538216,32.314378,UG-109,,
-1735127,-2430995,hydrographic,Siriba,Siriba,official,1.808862,32.081295,UG-421,,
-1735552,-2431537,settlement,Wobulenzi,Wobulenzi,official,0.728333,32.512222,UG-104,,
-1735049,-2430907,settlement,Semuto,Semuto,official,0.511389,31.248889,UG-107,,
-1735502,-2431474,hypsographic,Wankobe,Wankobe,official,0.433333,32.933333,UG-108,,
-1735576,-2431572,settlement,Zaipi,Zaipi,variant,3.392632,31.955881,UG-301,,
-1735442,-2431404,settlement,Waki,Waki,official,1.80034,31.321773,UG-416,,
-1735132,-2431000,hydrographic,Sisa,Sisa,official,0.9,30.6,UG-415,,
-1735190,-2431080,hydrographic,Sume,Sume,official,1.016667,34.366667,UG-218,,
-1735369,17867698,hydrographic,Vubyabirenge,Vubyabirenge,official,0.341817,32.615583,UG-102,,
-1735349,-2431292,administrative_region,"Upe County","Upe County",official,1.833333,34.916667,UG-324,,
-1735179,-2431064,hypsographic,"Stuhlmann Pass","Stuhlmann Pass",official,0.389929,29.884266,UG-406,,
-1735473,-2431439,settlement,Wamfuru,Wamfuru,official,0.916667,30.533333,UG-415,,
-1735002,-2430854,hydrographic,"Sango Bay","Sango Bay",official,-0.85,31.7,UG-110,,
-1735350,-2431296,hypsographic,Urudri,Urudri,official,3.7,31.8,UG-309,,
-1735124,-2430990,hypsographic,Sipi,Sipi,official,1.35,34.35,UG-206,,
-1735420,-2431380,settlement,Waikalakaka,Waikalakaka,official,0.392209,33.727374,UG-201,,
-1735433,-2431394,settlement,Waka,Waka,official,3.109497,31.432154,UG-336,,
-1735042,-2430900,hydrographic,Sempaya,Sempaya,official,0.87532,30.158143,UG-401,,
-1735167,-2431049,administrative_region,"South Bugishu","South Bugishu",variant,0.916667,34.333333,UG-223,,
-1735475,-2431441,settlement,Wampendo,Wampendo,variant,0.542511,33.548001,UG-235,,
-1735569,-2431565,settlement,Yivu,Yivu,official,3.261135,31.000709,UG-320,,
-1735140,-2431009,hydrographic,Soba,Soba,official,1.552042,31.765021,UG-409,,
-1735374,-2431326,settlement,Vumba,Vumba,official,0.933333,31.733333,UG-103,,
-1735245,-2431147,settlement,Terinyi,Terinyi,variant,0.996668,33.79204,UG-227,,
-1735356,-2431303,administrative_region,"Usuku County","Usuku County",official,2,34,UG-207,,
-1735009,-2430862,hydrographic,Sansa,Sansa,official,1.552434,31.223487,UG-403,,
-1735188,-2431078,settlement,Sukulu,Sukulu,variant,0.662384,34.155603,UG-212,,
-1735528,-2431509,hydrographic,"Wazimenyi Bay","Wazimenyi Bay",variant,0.204444,32.6625,UG-108,,
-1735435,-2431397,settlement,Wakasimba,Wakasimba,official,1.15,32.483333,UG-109,,
-1735313,-2431239,hypsographic,Tungolengole,Tungolengole,official,1.683333,34.566667,UG-311,,
-1735551,-2431536,settlement,Wiria,Wiria,official,3.051915,31.429267,UG-336,,
-1735329,-2431260,hydrographic,Udrua,Udrua,official,2.669346,30.910286,UG-000,,
-1735500,-2431472,settlement,Wankaka,Wankaka,official,1.4,32.166667,UG-109,,
-1735335,-2431270,settlement,Ukadakya,Ukadakya,official,2.05,34.05,UG-207,,
-1735087,-2424398,hypsographic,Kiabona,Kiabona,variant,0.243952,33.855108,UG-230,,
-1735561,-2431554,hypsographic,Yelele,Yelele,official,3.093421,34.564308,UG-308,,
-1735209,-2431105,hydrographic,Tabuk,Tabuk,official,1.55,34.433333,UG-228,,
-1735281,-2431194,settlement,Tondola,Tondola,official,0.166667,31.9,UG-121,,
-1735347,-2431289,hydrographic,Unyama,Unyama,official,3.585814,32.038325,S1-000,,
-1735096,-2430958,hypsographic,"Sikanki Island","Sikanki Island",official,-0.066667,30.216667,UG-406,,
-1735338,14569197,settlement,Okuti,Okuti,official,3.653376,33.516368,UG-305,,
-1735493,-2431543,hypsographic,Wuangero,Wuangero,variant,-0.033333,31.3,UG-111,,
-1735137,-2424963,hydrographic,Kiriki,Kiriki,variant,1.583333,34.583333,UG-000,,
-1735461,-2431425,hypsographic,Walusi,Walusi,official,0.916667,32.633333,UG-104,,
-1735119,-2430984,settlement,Sinyu,Sinyu,official,2.7,34.3,UG-327,,
-1735449,-2431412,settlement,Wakyato,Wakyato,official,0.874444,32.204722,UG-103,,
-1735372,-2431323,settlement,Vumba,Vumba,official,0.296892,32.890524,UG-117,,
-1735431,-2431392,settlement,Wajala,Wajala,official,1.383333,32.533333,UG-109,,
-1735463,-2431427,hydrographic,Walwibo,Walwibo,official,0.612061,33.414319,UG-203,,
-1735430,-2431506,hydrographic,"Wayia Bay","Wayia Bay",variant,0.06907,32.426194,UG-113,,
-1735277,-2431188,settlement,Tomi,Tomi,official,0.683333,32.75,UG-104,,
-1735105,-2430967,hypsographic,Simba,Simba,official,-0.85,31.516667,UG-110,,
-1735454,-2431418,hypsographic,Walina,Walina,official,0.083333,29.816667,UG-406,,
-1735455,-2431419,hydrographic,Walugogo,Walugogo,official,0.677443,33.425278,UG-229,,
-1735241,9197047,settlement,Te-Okot,Te-Okot,official,2.506276,31.586761,UG-328,,
-1735318,-2431245,hypsographic,Turutoko,Turutoko,official,2.5,34.15,UG-327,,
-1735001,-2430846,hydrographic,Sanga,Sanga,variant,0.366667,34.1,UG-202,,
-1735118,-2430982,settlement,Sinye,Sinye,variant,0.834188,34.241044,UG-223,,
-1735170,-2431054,hypsographic,"South Musambwa Island","South Musambwa Island",official,-0.783333,31.783333,UG-110,,
-1735618,-2431625,park,"Zulia Forest","Zulia Forest",variant,4.042952,33.958025,UG-318,,
-1735547,-2431531,settlement,Wila,Wila,official,2.1,33.65,UG-216,,
-1735301,-2431221,hypsographic,"Toya Point","Toya Point",official,0.019385,32.439049,UG-113,,
-1735522,-2431501,settlement,Watuba,Watuba,official,1.0E-6,31.933333,UG-106,,
-1735332,-2431265,administrative_region,"Uganda Protectorate","Uganda Protectorate",variant,1.25,32.5,UG-000,,
-1735004,-2430856,hydrographic,Sangula,Sangula,official,1.514499,32.324662,UG-109,,
-1735613,-2431620,settlement,Zombo,Zombo,official,2.51355,30.909094,UG-330,,
-1735588,-2431589,hypsographic,"Zigu Point","Zigu Point",official,-0.3,32.566667,UG-101,,
-1735596,-2431597,hydrographic,"Zinga Bay","Zinga Bay",official,-0.000817,32.226232,UG-113,,
-1735537,-2431520,administrative_region,"West Budama County","West Budama County",official,0.75,34,UG-212,,
-1735554,-2431540,hypsographic,Wop,Wop,official,2.75,33.533333,UG-322,,
-1735337,-2429931,hydrographic,Okutot,Okutot,variant,1.703611,34.179722,UG-207,,
-1735479,-2431446,settlement,Wamusenyi,Wamusenyi,official,1.794147,32.156047,UG-421,,
-1735189,17749655,hypsographic,Dsukulu,Dsukulu,official,0.627494,34.160015,UG-212,,
-1735050,-2430908,settlement,Semuto,Semuto,official,0.627222,32.313333,UG-116,,
-1735272,-2431182,settlement,Tokaru,Tokaru,official,3.366667,31.462116,UG-337,,
-1735315,-2431242,hypsographic,Turkwell,Turkwell,official,1.266667,34.833333,UG-220,,
-1735036,-2430894,hydrographic,"Lake Semere","Lake Semere",official,1.63692,33.769828,UG-231,,
-1735491,-2431459,settlement,Wanfufu,Wanfufu,official,0.966667,32.716667,UG-104,,
-1735297,-2431215,administrative_region,"Tororo County","Tororo County",official,0.75,34.2,UG-212,,
-1735336,-2431271,hydrographic,Ukha,Ukha,official,1.016667,34.383333,UG-218,,
-1735536,20332048,administrative_region,"West Acholi",WestAcholi,official,2.75,32.166667,UG-328,,
-1735084,-2430945,hypsographic,Shisha,Shisha,official,-0.933333,29.933333,UG-412,,
-1735496,-2431464,settlement,Wango,Wango,variant,1.1,33.516667,UG-222,,
-1735236,-2431137,settlement,Temangalo,Temangalo,official,0.354785,32.462857,UG-113,,
-1735342,-2429990,settlement,Oluku,Oluku,variant,3.014499,30.947287,UG-338,,
-1735208,-2431103,settlement,Tabagonyi,Tabagonyi,official,1.466667,34.4,UG-225,,
-1735194,-2431085,settlement,Sunga,Sunga,official,0.566667,31.25,UG-422,,
-1735129,9194088,settlement,Sironko,Sironko,official,1.234913,34.256757,UG-215,,
-1735029,-2430885,hypsographic,Segururu,Segururu,variant,0.972794,34.376324,UG-223,,
-1735083,20332037,administrative_region,Shema,Shema,official,-0.7,30.3,UG-426,,
-1735533,-2431516,hydrographic,Wesikire,Wesikire,official,0.633333,31.216667,UG-000,,
-1735052,-2419897,hydrographic,Alalam,Alalam,variant,1.3,34.8,UG-220,,
-1735259,-2431164,hydrographic,Tiguhonoka,Tiguhonoka,official,-0.1,30.233333,UG-434,,
-1735582,-2431582,settlement,Zeu,Zeu,official,2.509198,30.803402,UG-330,,
-1735610,-2431614,hypsographic,"Ziru Island","Ziru Island",official,-0.333333,32.433333,UG-101,,
-1735504,-2431476,settlement,Wansolo,Wansolo,official,1.683333,32.5,UG-302,,
-1735406,-2431362,settlement,Wadelai,Wadelai,official,2.724252,31.392426,UG-310,,
-1735086,-2430948,settlement,Shuku,Shuku,official,-0.670833,30.323889,UG-426,,
-1735565,-2431559,hypsographic,Yenjere,Yenjere,official,-1,31.283333,UG-110,,
-1735401,-2431356,settlement,Wabulenga,Wabulenga,official,0.50154,33.202141,UG-238,,
-1735060,-2430918,settlement,Senyi,Senyi,official,0.31442,32.699296,UG-108,,
-1735492,-2431461,settlement,Wangali,Wangali,variant,0.917586,34.104543,UG-221,,
-1735071,-2429200,hypsographic,"North Serinya Island","North Serinya Island",variant,-0.234167,32.356389,UG-101,,
-1735412,-2431369,settlement,Wagala,Wagala,official,0.423437,32.904128,UG-108,,
-1735010,-2430863,spot,Sanyu,Sanyu,official,0.183333,31.9,UG-121,,
-1735422,34828,settlement,Waina,Waina,variant,0.555184,33.4073,UG-214,,
-1735403,9193710,settlement,Wahusana,Wahusana,variant,0.894167,32.651667,UG-104,,
-1735081,-2430942,hydrographic,Sezibwa,Sezibwa,official,1.366667,32.733333,UG-000,,
-1735297,20332044,administrative_region,Tororo,Tororo,official,0.75,34.2,UG-212,,
-1735609,-2431613,hypsographic,"Ziru Island","Ziru Island",official,-0.086944,33.213611,UG-120,,
-1734993,-2430844,hypsographic,Sanga,Sanga,official,-0.516667,29.983333,UG-423,,
-1735045,-2430903,hypsographic,"Semuganja Islands","Semuganja Islands",official,-0.316667,32.366667,UG-101,,
-1735307,-2431232,hypsographic,Tukat,Tukat,official,1.383333,34.583333,UG-228,,
-1735310,-2431236,settlement,Tumba,Tumba,official,1.551409,32.393173,UG-109,,
-1735384,-2431338,settlement,Wabigalo,Wabigalo,official,1.266667,32.45,UG-109,,
-1735414,-2431373,hypsographic,"Waiasi Island","Waiasi Island",official,-0.166667,33.933333,UG-230,,
-1735380,-2431331,administrative_region,Vura,Vura,variant,2.866667,31,UG-303,,
-1735119,-2430983,settlement,Sinyo,Sinyo,variant,2.7,34.3,UG-327,,
-1735617,-2426409,hypsographic,Lothulia,Lothulia,variant,4.12831,33.983814,UG-318,,
-1735047,-2430905,hypsographic,"Semuganja Omutono","Semuganja Omutono",official,-0.316667,32.35,UG-101,,
-1735238,-2431139,hydrographic,"Tende Bay","Tende Bay",official,0.054575,32.542576,UG-113,,
-1735540,-2431523,hypsographic,"Western Rift Valley","Western Rift Valley",official,1.0E-6,30,UG-406,,
-1735091,-2430953,settlement,Sifuyo,Sifuyo,official,0.371372,33.984457,UG-202,,
-1735358,-2431306,settlement,Utumbari,Utumbari,official,3.27093,31.144715,UG-341,,
-1735285,-2431200,hypsographic,Torkili,Torkili,official,2.75,30.883333,UG-303,,
-1735211,-2431107,settlement,Takajunge,Takajunge,official,0.386605,32.757708,UG-108,,
-1735562,-2431555,hydrographic,Yelula,Yelula,official,3.13406,31.401586,UG-336,,
-1735560,-2431551,hydrographic,Yazi,Yazi,official,2.673148,30.895773,UG-303,,
-1735349,20332045,administrative_region,Upe,Upe,official,1.833333,34.916667,UG-324,,
-1735445,-2431407,settlement,Wakisani,Wakisani,official,1.633983,32.018617,UG-421,,
-1735517,-2431496,hypsographic,Wataka,Wataka,official,1.133333,33.516667,UG-222,,
-1735332,-2430221,administrative_region,Ouganda,Ouganda,variant,1.25,32.5,UG-000,,
-1735286,20332043,administrative_region,Toro,Toro,official,0.5,30.5,UG-000,,
-1735316,-2431243,settlement,Turukang,Turukang,official,1.647044,32.738581,UG-315,,
-1735063,-2430921,settlement,Serenge,Serenge,official,-0.05,31.066667,UG-419,,
-1735498,-2431470,settlement,Wanjagi,Wanjagi,official,0.8,32.65,UG-104,,
-1735336,-2431269,hydrographic,Uka,Uka,variant,1.016667,34.383333,UG-218,,
-1735268,-2431178,hydrographic,Titi,Titi,official,1.742522,32.103683,UG-421,,
-1735339,-2431277,settlement,Uleppi,Uleppi,official,2.774073,31.036957,UG-336,,
-1735191,-2431082,hydrographic,Sundet,Sundet,official,1.5,34.633333,UG-228,,
-1735604,-2431607,hypsographic,Zirizi,Zirizi,official,-0.683333,31.7,UG-110,,
-1735425,17647510,hydrographic,Nairumba,Nairumba,official,0.706973,33.551136,UG-203,,
-1735046,-2430904,hypsographic,"Semuganja Omunene","Semuganja Omunene",official,-0.333333,32.366667,UG-101,,
-1735558,-2431547,settlement,Yamu,Yamu,official,2.586665,30.919423,UG-330,,
-1735320,-2431248,settlement,Tuskini,Tuskini,official,1.416667,34.533333,UG-228,,
-1735519,-2431498,hypsographic,Wati,Wati,official,3.227664,31.029408,UG-341,,
-1735387,-2431341,hypsographic,Wabilumba,Wabilumba,official,1.1,32.9,UG-112,,
-1735037,-2430895,vegetation,Semliki,Semliki,variant,0.816667,30.066667,UG-401,,
-1735293,-2431217,hydrographic,Torounai,Torounai,variant,1.933333,34.55,UG-334,,
-1735572,-2431549,settlement,Yaule,Yaule,variant,3.076181,30.961964,UG-338,,
-1735286,-2431202,administrative_region,"Toro District","Toro District",official,0.5,30.5,UG-000,,
-1735451,-2431415,hypsographic,Walasi,Walasi,official,1.183333,34.216667,UG-215,,
-1735459,17508256,vegetation,"Walulumbu Forest Reserve","Walulumbu Forest Reserve",official,0.461875,33.308721,UG-214,,
-1735541,-2431524,administrative_region,"West Madi County","West Madi County",official,3.5,31.583333,UG-337,,
-1735388,-2431342,settlement,Wabinwa,Wabinwa,official,1.524833,32.592645,UG-315,,
-1735287,-2431203,park,"Toro Game Reserve","Toro Game Reserve",official,1.083333,30.416667,UG-424,,
-1735109,-2430971,hydrographic,Simitiu,Simitiu,official,1.3,34.366667,UG-000,,
-1735095,-2430957,settlement,Sikakoko,Sikakoko,official,0.966667,31.2,UG-407,,
-1735218,-2431117,settlement,Tara,Tara,official,3.310203,31.033403,UG-320,,
-1735577,-2431573,hypsographic,Zaiwa,Zaiwa,official,3.089674,31.907366,UG-301,,
-1735494,-2431463,spot,Wangkwar,Wangkwar,official,2.434401,31.78538,UG-328,,
-1735052,-2430910,hydrographic,Senendet,Senendet,official,1.3,34.8,UG-220,,
-1735381,-2431335,settlement,Waal,Waal,variant,3.136577,33.197681,UG-322,,
-1735164,-2431045,administrative_region,"Soroti County","Soroti County",official,1.75,33.583333,UG-240,,
-1735274,-2431185,settlement,Tolwe,Tolwe,official,1.599025,32.223146,UG-109,,
-1735192,-2431083,settlement,Sunga,Sunga,official,-0.1,31.85,UG-122,,
-1735280,-2431193,settlement,Tondegejerako,Tondegejerako,official,0.466667,31.9,UG-126,,
-1735112,17566017,hypsographic,Simwe,Simwe,official,0.288805,32.922321,UG-117,,
-1735339,-2431276,settlement,Ulepi,Ulepi,variant,2.774073,31.036957,UG-336,,
-1735434,-2431396,settlement,Wakasimba,Wakasimba,official,1.1,32.45,UG-109,,
-1735137,-2431006,hydrographic,Siti,Siti,official,1.583333,34.583333,UG-000,,
-1735584,-2431584,settlement,Ziba,Ziba,official,0.238948,32.96556,UG-117,,
-1735238,-2431191,hydrographic,"Tonde Bay","Tonde Bay",variant,0.054575,32.542576,UG-113,,
-1735430,-2431391,hydrographic,"Waiya Bay","Waiya Bay",official,0.06907,32.426194,UG-113,,
-1735163,-2431044,hypsographic,Soroti,Soroti,official,1.716667,33.616667,UG-240,,
-1735205,14593202,hydrographic,Taan,Taan,official,3.939221,33.756254,UG-335,,
-1735229,-2431129,hypsographic,Tegela,Tegela,official,1.633333,34.683333,UG-311,,
-1735580,-2431578,settlement,Zengebe,Zengebe,official,1.483333,32.516667,UG-109,,
-1735599,-2431600,hydrographic,Zingili,Zingili,official,2.468884,30.916229,UG-330,,
-1735477,-2431443,settlement,Wamukende,Wamukende,official,1.35,32.25,UG-109,,
-1735294,-2431211,hypsographic,Toror,Toror,official,2.833333,34.2,UG-306,,
-1735302,-2431226,settlement,Ttaba,Ttaba,official,0.185971,32.388249,UG-113,,
-1735597,-2431598,hypsographic,"Zinga Island","Zinga Island",official,0.00775,32.239885,UG-113,,
-1735326,-2431255,settlement,Tyabire,Tyabire,official,0.113374,32.328096,UG-113,,
-1735343,-2431281,settlement,Uluko,Uluko,official,3.02283,30.99431,UG-338,,
-1735071,-2430931,hypsographic,"Serinya North Island","Serinya North Island",variant,-0.234167,32.356389,UG-101,,
-1735427,-2431386,hydrographic,Waisake,Waisake,variant,1.930486,31.414101,UG-416,,
-1735267,-2431177,hypsographic,"Tisai Island","Tisai Island",official,1.6,34.15,UG-208,,
-1735087,-2430949,hypsographic,Siavona,Siavona,official,0.243952,33.855108,UG-230,,
-1735092,-2430954,settlement,Siggi,Siggi,official,0.25,32.233333,UG-106,,
-1735484,-2431452,settlement,Wandagi,Wandagi,official,0.85,32.1,UG-103,,
-1735359,-2431307,hypsographic,Utut,Utut,official,1.916667,34.75,UG-311,,
-1735147,-2431020,hypsographic,Sogwass,Sogwass,official,3.670525,34.371534,UG-318,,
-1735168,-2431051,park,"South Busoga","South Busoga",variant,0.26237,33.588298,UG-214,,
-1735125,-2430991,hydrographic,Sipi,Sipi,official,1.4,34.266667,UG-000,,
-1735094,-2430956,hypsographic,"Sigulu Island","Sigulu Island",official,0.10159,33.807194,UG-230,,
-1735099,-2430961,settlement,Sikye,Sikye,official,1.316667,32.4,UG-109,,
-1735112,-2430974,hypsographic,Simue,Simue,variant,0.288805,32.922321,UG-117,,
-1735166,-2427155,administrative_region,"Masaka District","Masaka District",official,-0.45,31.85,UG-105,,
-1735166,-2427156,administrative_region,"Masaka Division","Masaka Division",variant,-0.45,31.85,UG-105,,
-1735131,17833768,settlement,Ssisa,Ssisa,official,0.17901,32.494767,UG-113,,
-1735122,-2430988,hydrographic,Siowe,Siowe,official,1.573129,32.882738,UG-315,,
-1735260,-2431165,hypsographic,Tikitik,Tikitik,official,2.033333,33.8,UG-236,,
-1735432,-2431393,hypsographic,Wajala,Wajala,official,1.383333,32.516667,UG-109,,
-1735611,-2431615,hydrographic,Zoha,Zoha,variant,3.227887,31.570234,UG-301,,
-1735116,-2430979,administrative_region,"Singo County","Singo County",official,0.75,31.833333,UG-126,,
-1735146,-2431018,hypsographic,Sogonso,Sogonso,official,0.6072,33.882115,UG-201,,
-1735008,-2430861,settlement,Sanje,Sanje,official,-0.780278,31.499722,UG-110,,
-1735135,-2431004,vegetation,Sitambogo,Sitambogo,official,0.516667,33.9,UG-201,,
-1735256,-2431160,hydrographic,"Thruston Bay","Thruston Bay",official,0.416667,33.333333,UG-214,,
-1735284,-2431199,settlement,Tonya,Tonya,official,1.585249,31.088344,UG-403,,
-1735573,-2431569,settlement,Yoyo,Yoyo,official,3.398302,31.313236,UG-313,,
-1735544,13323849,park,"Wiceri Central Forest Reserve","Wiceri Central Forest Reserve",variant,2.950882,31.877304,UG-316,,
-1735464,-2431428,settlement,Walykubya,Walykubya,official,1.826049,31.373221,UG-416,,
-1735541,20332050,administrative_region,"West Madi",WestMadi,official,3.5,31.583333,UG-337,,
-1735594,-2431595,hypsographic,Zinat,Zinat,official,3.011594,33.851657,UG-306,,
-1735426,13317214,hypsographic,Waisembe,Waisembe,official,1.544097,31.391491,UG-403,,
-1735348,-2431291,hypsographic,Unyi,Unyi,official,2.733333,31.116667,UG-336,,
-1735158,-2431038,settlement,Soni,Soni,official,0.766667,33.95,UG-212,,
-1735568,-2431562,hypsographic,Yingbay,Yingbay,official,3.617222,31.541667,UG-309,,
-1735028,-2430884,hypsographic,Segeru,Segeru,variant,0.465903,33.64215,UG-201,,
-1735325,-2431254,hydrographic,Tyabira,Tyabira,official,0.416667,31.916667,UG-126,,
-1735567,-2431561,settlement,Yidu,Yidu,official,3.227571,31.122363,UG-341,,
-1735220,-2431119,settlement,Tarogali,Tarogali,official,1.827722,32.338101,UG-302,,
-1735294,-2431212,hypsographic,"Toror Hills","Toror Hills",variant,2.833333,34.2,UG-306,,
-1735184,-2431072,settlement,Sugu,Sugu,official,0.161669,32.938041,UG-117,,
-1735352,-2431298,hypsographic,Use,Use,official,2.552669,30.905464,UG-330,,
-1735033,-2430889,hypsographic,Sekiunga,Sekiunga,variant,0.160803,32.536858,UG-113,,
-1735496,-2431466,settlement,Wangobo,Wangobo,official,1.1,33.516667,UG-222,,
-1735521,-2431500,settlement,Watoke,Watoke,official,1.616125,32.278588,UG-109,,
-1735278,-2431189,hydrographic,"Tomi Bay","Tomi Bay",official,-0.4,32.2,UG-101,,
-1735020,-2430876,hydrographic,Sebugoro,Sebugoro,official,1.45,30.916667,UG-432,,
-1735128,-2430996,hypsographic,"Siro Island","Siro Island",official,-0.133333,33.866667,UG-230,,
-1735332,-2431264,administrative_region,"Republic of Uganda","Republic of Uganda",official,1.25,32.5,UG-000,,
-1735342,-2431280,settlement,Uluko,Uluko,official,3.014499,30.947287,UG-338,,
-1735418,17509967,settlement,Waiga,Waiga,official,0.335597,33.396885,UG-214,,
-1735550,-2431535,spot,"Tomb of Winyi","Tomb of Winyi",official,0.85,31.016667,UG-407,,
-1735418,-2431378,settlement,Waigala,Waigala,variant,0.335597,33.396885,UG-214,,
-1735543,-2431527,settlement,Wiawer,Wiawer,official,2.681667,33.669444,UG-314,,
-1735125,-2425915,hydrographic,Kyebonet,Kyebonet,variant,1.4,34.266667,UG-000,,
-1735520,-2431499,vegetation,Watibarituku,Watibarituku,variant,3.22215,31.034958,UG-341,,
-1735166,-2431048,administrative_region,"South Buganda Province","South Buganda Province",variant,-0.45,31.85,UG-105,,
-1735110,-2430972,settlement,Simu,Simu,official,1.3,34.3,UG-225,,
-1735033,17867693,hypsographic,Sekiwunga,Sekiwunga,official,0.160803,32.536858,UG-113,,
-1735202,-2431093,hypsographic,Susok,Susok,official,1.833333,34.8,UG-311,,
-1735212,-2431109,hydrographic,Tako,Tako,official,0.1,29.733333,UG-406,,
-1735139,-2431008,hydrographic,Situr,Situr,official,2.265569,31.333065,UG-310,,
-1735587,-2431588,settlement,Zigulu,Zigulu,official,0.533333,32.866667,UG-108,,
-1735513,-2431491,hydrographic,Warugo,Warugo,official,-0.383333,30.15,UG-420,,
