wgdPlaceId,wgdId,type,name,fullName,nameType,latitude,longitude,administrationGroup,isHistorical,isCapital
-1011519,-1494543,hydrographic,"Embalse Salto Grande","Embalse Salto Grande",official,-30.938612,-57.908061,S1-000,,
-1011519,-1494544,hydrographic,"Embalse de Salto Grande","Embalse de Salto Grande",official,-30.938612,-57.908061,S1-000,,
-1007783,-1489966,hypsographic,"Paso Piedra","Paso Piedra",official,-31.966667,-58.15,S1-000,,
-989363,-1468673,hypsographic,"Paso de la Federación","Paso de la Federacion",official,-31,-57.866667,S1-000,,
-909852,-1346953,settlement,Zapucay,Zapucay,official,-31.8,-55.333333,UY-TA,,
-908973,-1345156,hydrographic,Sauce,Sauce,official,-34.116667,-53.75,UY-RO,,
-909480,-1346132,hydrographic,Tigre,Tigre,variant,-32.4,-54.966667,UY-TA,,
-909631,-1346477,hydrographic,"Cañada Uña de Gato","Canada Una de Gato",official,-33.083333,-53.666667,UY-TT,,
-909647,-1343363,settlement,Piamontesa,Piamontesa,variant,-34.339572,-57.262462,UY-CO,,
-909287,-1345726,hydrographic,"Cañada de Soria","Canada de Soria",official,-33.333333,-55.683333,UY-DU,,
-909675,-1346571,spot,"Estación Valle Edén","Estacion Valle Eden",official,-31.833333,-56.15,UY-TA,,
-909850,-1346950,hypsographic,"Cuchilla de Zapicán","Cuchilla de Zapican",official,-33.466667,-54.983333,UY-LA,,
-909489,-1346171,hydrographic,"Puerto del Tigre","Puerto del Tigre",official,-34.8,-56.383333,UY-MO,,
-909617,-1346453,hydrographic,"Cañada Tunitas","Canada Tunitas",variant,-31.833333,-57.116667,UY-PA,,
-908937,-1344950,hydrographic,"Arroyo Sarandí del Arapey","Arroyo Sarandi del Arapey",official,-31.064198,-56.376709,UY-SA,,
-909060,-1345213,hydrographic,"Arroyo Sauce","Arroyo Sauce",variant,-33.250562,-57.265731,UY-FS,,
-909588,-1346385,hydrographic,"Bañado de los Tres Hermanos","Banado de los Tres Hermanos",variant,-32.483333,-55.283333,UY-CL,,
-909239,16677252,hydrographic,"Cañada Sauzal de los Cerros","Canada Sauzal de los Cerros",official,-34.067422,-56.186918,UY-FD,,
-909743,-1346712,hypsographic,"Cerro Vigía","Cerro Vigia",variant,-31.922263,-56.675792,UY-PA,,
-909095,-1344820,hydrographic,"Arroyo Sarandí","Arroyo Sarandi",variant,-34.243948,-54.003997,UY-RO,,
-909767,-1346784,hydrographic,"Arroyo Viraró","Arroyo Viraro",official,-32.233333,-55.933333,UY-TA,,
-909044,-1345089,hydrographic,Sauce,Sauce,variant,-32.8,-56.483333,UY-DU,,
-908820,-1344772,hydrographic,"Arroyo Sarandí","Arroyo Sarandi",official,-31.783333,-54.633333,UY-RV,,
-909601,-1346415,hydrographic,"Arroyo Tropa Vieja","Arroyo Tropa Vieja",official,-34.69776,-56.450712,UY-SJ,,
-909391,-1344818,hydrographic,"Arroyo Sarandí","Arroyo Sarandi",variant,-34.05,-54.7,UY-LA,,
-909121,16795547,hydrographic,"Arroyo del Sauce","Arroyo del Sauce",official,-31.347631,-57.029895,UY-SA,,
-909781,-1346803,hydrographic,Yacaré,Yacare,variant,-30.543899,-57.452091,UY-AR,,
-909335,-1345820,hydrographic,Tala,Tala,variant,-32.146435,-56.516922,UY-PA,,
-909104,-1345446,hydrographic,"Cañada del Sauce","Canada del Sauce",variant,-33.90009,-54.415796,UY-RO,,
-908842,-1344804,hydrographic,"Arroyo Sarandí","Arroyo Sarandi",official,-33.483333,-56.25,UY-FD,,
-909668,-1346555,hydrographic,"Cañada de Valenzuela","Canada de Valenzuela",official,-34.566667,-56.166667,UY-CA,,
-909557,-1346322,hydrographic,"Arroyo Tranquera","Arroyo Tranquera",variant,-31.466667,-55.816667,UY-TA,,
-909674,-1346569,hydrographic,"Arroyo Valle Chico","Arroyo Valle Chico",official,-33.944299,-54.533229,UY-LA,,
-909163,-1345454,hydrographic,"Cañada del Sauce","Canada del Sauce",variant,-34.305354,-54.48417,UY-RO,,
-908950,-1344985,hydrographic,"Arroyo del Sarandí Grande","Arroyo del Sarandi Grande",variant,-32.59965,-57.219526,UY-RN,,
-909710,-1346650,hypsographic,"Cerro Verde","Cerro Verde",official,-31.8,-56.766667,UY-PA,,
-908876,-1344885,hydrographic,"Cañada del Sarandi","Canada del Sarandi",variant,-30.683333,-57.033333,UY-AR,,
-909072,-1345325,hydrographic,"Arroyo del Sauce","Arroyo del Sauce",official,-33.516667,-55.366667,UY-FD,,
-909774,-1346791,hypsographic,"Cuchilla de la Virgen","Cuchilla de la Virgen",official,-34.166667,-56.5,UY-SJ,,
-909385,-1345943,hypsographic,"Cuchilla del Tala","Cuchilla del Tala",official,-33.266667,-55.783333,UY-DU,,
-909307,-1345772,spot,"Estación Tabaré","Estacion Tabare",official,-33.366667,-55.6,UY-FD,,
-908803,-1344643,hydrographic,"Canal Santo Domingo","Canal Santo Domingo",official,-34.083333,-58.233333,UY-CO,,
-909531,-1346266,hydrographic,Tórtola,Tortola,official,-34.066667,-57.583333,UY-CO,,
-909009,-1345031,hydrographic,Sauce,Sauce,variant,-31.516032,-56.991283,UY-SA,,
-909671,-1346561,hydrographic,Valijas,Valijas,variant,-33.15,-55.016667,UY-TT,,
-909444,-1346077,hydrographic,Tarariras,Tarariras,variant,-34.207493,-57.812997,UY-CO,,
-908968,16714580,hydrographic,"Arroyo del Sauce","Arroyo del Sauce",official,-33.355056,-57.338015,UY-FS,,
-909288,-1345728,settlement,Soriano,Soriano,variant,-33.398111,-58.321768,UY-SO,,
-909343,-1345833,hydrographic,Tala,Tala,variant,-32.901418,-56.603743,UY-DU,,
-909067,-1345121,hydrographic,Sauce,Sauce,variant,-33.416667,-55.9,UY-DU,,
-909602,-1346414,hydrographic,"Tropa Vieja","Tropa Vieja",variant,-34.792022,-55.869045,UY-CA,,
-909529,-1346261,hydrographic,Torre,Torre,variant,-31.166667,-57.7,UY-SA,,
-909834,-1340734,hydrographic,"Zanja Honda","Zanja Honda",official,-31.799499,-57.81676,UY-PA,,
-909053,-1345101,hydrographic,Sauce,Sauce,variant,-33.114778,-58.0483,UY-RN,,
-909766,-1346778,hydrographic,"Arroyo Violina","Arroyo Violina",official,-33.083333,-57.316667,UY-SO,,
-909355,-1345870,hydrographic,"Arroyo Tala","Arroyo Tala",variant,-33.542322,-57.387828,UY-SO,,
-908948,-1346755,settlement,"Villa Sarandí","Villa Sarandi",variant,-33.733333,-56.333333,UY-FD,,
-909207,-1345549,hydrographic,"Sauce de Villa Nueva","Sauce de Villa Nueva",variant,-33.4,-56.433333,UY-DU,,
-909243,-1338429,hypsographic,"Punta Caballo","Punta Caballo",variant,-34.9,-56.266667,UY-MO,,
-909451,-1338137,hydrographic,Bayucuá,Bayucua,variant,-31.670583,-57.364967,UY-SA,,
-909002,-1342439,hydrographic,"Arroyo de los Molles del Sauce","Arroyo de los Molles del Sauce",official,-30.165502,-56.744988,UY-AR,,
-909092,-1345348,hydrographic,"Arroyo del Sauce","Arroyo del Sauce",official,-34.183333,-54.75,UY-MA,,
-908890,-1344881,hydrographic,"Cañada Sarandí","Canada Sarandi",official,-32.783333,-55.65,UY-DU,,
-909158,-1345449,hydrographic,"Cañada del Sauce","Canada del Sauce",official,-33.954332,-55.716667,UY-FD,,
-909557,-1346330,hydrographic,"Arroyo Tranqueras","Arroyo Tranqueras",official,-31.466667,-55.816667,UY-TA,,
-909727,-1346678,hypsographic,"Cerro Vichadero","Cerro Vichadero",official,-31.79612,-56.854675,UY-PA,,
-909231,-1345613,hydrographic,Sauzal,Sauzal,variant,-31.4,-57.966667,UY-SA,,
-909462,-1346117,hypsographic,"Cerro de Ticú","Cerro de Ticu",official,-33.9,-56.7,UY-SJ,,
-909299,-1345747,hydrographic,"Arroyo de Soto","Arroyo de Soto",official,-32.097505,-57.798752,UY-PA,,
-908940,-1344955,hydrographic,"Arroyo del Sarandí de los Amarales","Arroyo del Sarandi de los Amarales",variant,-33.928008,-54.162244,UY-RO,,
-909695,-1346614,hydrographic,"Cañada Venado","Canada Venado",official,-33.85,-57.133333,UY-SO,,
-909260,-1345674,hypsographic,"Cuchilla de las Sillas","Cuchilla de las Sillas",official,-34.583333,-54.5,UY-RO,,
-908775,-1344577,hypsographic,"Barranca de Santa Lucía","Barranca de Santa Lucia",variant,-34.75,-56.5,UY-SJ,,
-908865,-1344845,hydrographic,"Arroyo del Sarandí","Arroyo del Sarandi",official,-32.816667,-56.533333,UY-DU,,
-909011,-1345036,hydrographic,Sauce,Sauce,variant,-31.605051,-56.920017,UY-SA,,
-909272,-1345691,hydrographic,"Arroyo Soldado","Arroyo Soldado",variant,-34.242042,-55.496677,UY-LA,,
-909338,-1345886,hydrographic,"Arroyo del Tala","Arroyo del Tala",official,-32.378671,-56.390955,UY-TA,,
-909780,-1346807,hydrographic,Yacaré,Yacare,variant,-33.033333,-58.066667,UY-RN,,
-909856,-1346960,hydrographic,Zorro,Zorro,variant,-30.866667,-56.483333,UY-AR,,
-908855,-1344862,hydrographic,"Arroyuelo del Sarandí","Arroyuelo del Sarandi",variant,-34.618174,-56.4829,UY-SJ,,
-909007,-1345028,hydrographic,Sauce,Sauce,variant,-31.483333,-54.966667,UY-RV,,
-909093,-1345349,hydrographic,"Arroyo del Sauce","Arroyo del Sauce",official,-34.185444,-58.055431,UY-CO,,
-909108,-1345005,hydrographic,Sauce,Sauce,variant,-30.431644,-56.813158,UY-AR,,
-909156,-1345139,hydrographic,Sauce,Sauce,variant,-33.816667,-57.833333,UY-SO,,
-909127,-1345406,hydrographic,"Cañada del Sauce","Canada del Sauce",official,-31.6,-57.533333,UY-SA,,
-908861,-1344839,hydrographic,"Arroyo del Sarandí","Arroyo del Sarandi",variant,-32.366667,-54.05,UY-CL,,
-909483,-1346164,hydrographic,"Cañada del Tigre","Canada del Tigre",official,-34.566667,-55.116667,UY-MA,,
-908821,-1346017,hydrographic,Tambores,Tambores,variant,-31.933333,-54.583333,UY-TA,,
-909439,16657749,settlement,"Estación Tapia","Estacion Tapia",official,-34.567682,-55.751135,UY-CA,,
-909292,-1345736,hypsographic,"Sierra de Sosa","Sierra de Sosa",official,-33.066667,-54.666667,UY-RO,,
-909306,-1345770,hydrographic,"Sylvia Bank","Sylvia Bank",variant,-34.983333,-54.983333,UY-MA,,
-909163,16334912,hydrographic,"Cañada Sauce","Canada Sauce",official,-34.305354,-54.48417,UY-RO,,
-909181,-1345493,hydrographic,"Arroyo del Sauce Chico","Arroyo del Sauce Chico",variant,-34.18885,-57.415114,UY-CO,,
-909598,-1346410,spot,"Estación Trinidad","Estacion Trinidad",official,-33.483333,-56.95,UY-FS,,
-909369,-1345817,hydrographic,Tala,Tala,variant,-31.8678,-56.7483,UY-PA,,
-909213,-1345566,hydrographic,"Arroyo Sauce Grande","Arroyo Sauce Grande",official,-32.945271,-56.968018,UY-RN,,
-909417,-1346012,hydrographic,"Arroyo de las Tamberas","Arroyo de las Tamberas",official,-33.05,-54.65,UY-TT,,
-909037,-1345285,hydrographic,"Arroyo del Sauce","Arroyo del Sauce",official,-32.525437,-57.653131,UY-PA,,
-909835,-1340724,hydrographic,"Arroyo de la Zanja Honda","Arroyo de la Zanja Honda",variant,-31.933333,-54.583333,UY-TA,,
-909434,-1346056,hydrographic,"Arroyo de los Tapes","Arroyo de los Tapes",official,-33.177372,-56.915974,UY-DU,,
-908775,-1342093,hypsographic,"Barrancas de Mauricio","Barrancas de Mauricio",variant,-34.75,-56.5,UY-SJ,,
-909085,-1342861,hydrographic,Palermo,Palermo,variant,-33.868239,-55.976163,UY-FD,,
-909209,-1345555,hydrographic,"Cañada Saucedo","Canada Saucedo",variant,-31.00955,-57.507349,UY-SA,,
-909223,-1345590,hydrographic,"Sauce Solo","Sauce Solo",variant,-34.470914,-55.557266,UY-CA,,
-909539,-1346288,hydrographic,"Cañada de la Totora de Solis Chico","Canada de la Totora de Solis Chico",variant,-34.552325,-55.73771,UY-CA,,
-909236,-1345615,hydrographic,"Arroyo Sauzal","Arroyo Sauzal",variant,-30.541553,-57.037751,UY-AR,,
-909294,-1345741,spot,"Parada Sosa Díaz","Parada Sosa Diaz",variant,-34.721374,-55.832693,UY-CA,,
-909549,-1343427,hydrographic,"Cañada de las Piedras","Canada de las Piedras",variant,-34.533333,-56.25,UY-CA,,
-909837,-1346925,hydrographic,"Arroyo Zanja Honda","Arroyo Zanja Honda",official,-32.016667,-54.5,UY-CL,,
-909842,-1346933,hydrographic,Zapallar,Zapallar,variant,-32.216667,-54.8,UY-TA,,
-909007,-1345365,hydrographic,"Cañada Sauce","Canada Sauce",variant,-31.483333,-54.966667,UY-RV,,
-909076,-1345330,hydrographic,"Arroyo del Sauce","Arroyo del Sauce",official,-33.683333,-55.2,UY-LA,,
-909631,-1346482,hydrographic,"Cañada Uñas de Gato","Canada Unas de Gato",variant,-33.083333,-53.666667,UY-TT,,
-909809,-1346872,hydrographic,"Arroyo Yerbal","Arroyo Yerbal",official,-33.5,-54.666667,UY-LA,,
-909516,-1346232,settlement,Topador,Topador,official,-30.294551,-56.82184,UY-AR,,
-909679,-1346581,hypsographic,"Cuchilla Vaz","Cuchilla Vaz",variant,-32.6,-54.116667,UY-MO,,
-909529,-1346262,hydrographic,"Cañada de la Torre","Canada de la Torre",official,-31.166667,-57.7,UY-SA,,
-909031,-1345278,hydrographic,"Arroyo del Sauce","Arroyo del Sauce",official,-32.233333,-55.933333,UY-TA,,
-909252,-1345662,hydrographic,"Arroyo Sequeira","Arroyo Sequeira",official,-31.034485,-56.888196,UY-AR,,
-908840,-1344734,hydrographic,Sarandí,Sarandi,variant,-33.263617,-56.856238,UY-FS,,
-909125,-1345404,hydrographic,"Cañada del Sauce","Canada del Sauce",official,-31.566667,-54.966667,UY-RV,,
-909316,-1345795,hypsographic,"Isla Tacuarí","Isla Tacuari",variant,-32.766667,-53.333333,UY-TT,,
-909172,-1345469,hydrographic,"Zanja del Sauce","Zanja del Sauce",official,-30.293586,-57.156552,UY-AR,,
-909732,-1346691,hypsographic,Vicheadero,Vicheadero,variant,-31.783333,-54.716667,UY-RV,,
-909369,-1345929,hydrographic,"Cañada del Tala","Canada del Tala",official,-31.8678,-56.7483,UY-PA,,
-909033,-1345196,hydrographic,"Arroyo Sauce","Arroyo Sauce",variant,-32.366667,-54.2,UY-CL,,
-908811,-1344667,settlement,Sarandí,Sarandi,official,-32.483333,-53.716667,UY-CL,,
-909477,-1346129,hydrographic,Tigre,Tigre,variant,-31.25,-57.283333,UY-SA,,
-909809,-1346879,hydrographic,"Arroyo Yerbales","Arroyo Yerbales",variant,-33.5,-54.666667,UY-LA,,
-908873,-1344754,hydrographic,Sarandí,Sarandi,variant,-34.243205,-53.946953,UY-RO,,
-908878,-1344866,hydrographic,"Cañada Sarandí","Canada Sarandi",official,-31.166667,-57.333333,UY-SA,,
-909756,-1342425,hypsographic,"Cuchilla de los Molles","Cuchilla de los Molles",variant,-33.233333,-56.466667,UY-DU,,
-909191,-1345504,hydrographic,"Arroyo Sauce de Conventos","Arroyo Sauce de Conventos",official,-32.3,-54.25,UY-CL,,
-909452,-1346099,hypsographic,"Cerro del Teniente","Cerro del Teniente",official,-31.69126,-56.814868,UY-SA,,
-909556,-1346327,settlement,Tranqueras,Tranqueras,official,-31.2,-55.75,UY-RV,,
-909340,-1345862,hydrographic,"Arroyo Tala","Arroyo Tala",variant,-32.572936,-56.725986,UY-RN,,
-908911,16811588,hydrographic,"Cañada del Cementerio","Canada del Cementerio",official,-30.632172,-56.181527,UY-AR,,
-909470,-1346136,hydrographic,Tigre,Tigre,variant,-33.183998,-53.92127,UY-TT,,
-909720,-1346660,spot,Verdún,Verdun,variant,-34.35,-55.283333,UY-LA,,
-909703,-1346630,hydrographic,Vera,Vera,variant,-34.533766,-55.926043,UY-CA,,
-909764,-1346776,hydrographic,"Cañada de las Violetas de Canelon Grande","Canada de las Violetas de Canelon Grande",variant,-34.483333,-56.05,UY-CA,,
-909300,-1345748,hydrographic,"Cañada de Soto","Canada de Soto",official,-31.85,-58.05,UY-PA,,
-909508,-1345759,spot,Suárez,Suarez,variant,-34.747944,-56.088986,UY-CA,,
-909146,-1345434,hydrographic,"Cañada del Sauce","Canada del Sauce",official,-32.562675,-58.000768,UY-RN,,
-909552,-1346291,spot,Totoral,Totoral,variant,-32.227878,-56.504336,UY-PA,,
-908808,-1344650,hydrographic,Santos,Santos,variant,-32.316667,-56.75,UY-PA,,
-909389,-1345950,hydrographic,"Arroyo Tala de Castro","Arroyo Tala de Castro",official,-33.516667,-56.183333,UY-FD,,
-909467,-1346127,hydrographic,Tigre,Tigre,variant,-30.611038,-57.826361,UY-AR,,
-909467,-1346145,hydrographic,"Arroyo del Tigre","Arroyo del Tigre",official,-30.611038,-57.826361,UY-AR,,
-909476,16674541,hydrographic,"Cañada del Tigre","Canada del Tigre",official,-34.218742,-55.669371,UY-000,,
-908993,-1345229,hydrographic,"Arroyo Sauce","Arroyo Sauce",variant,-34.404681,-56.641475,UY-SJ,,
-909670,-1346559,hypsographic,"Cerro Valiente","Cerro Valiente",official,-32.218136,-57.031958,UY-PA,,
-909455,-1337727,spot,"Estación Arapey","Estacion Arapey",variant,-30.946223,-57.526841,UY-SA,,
-909313,-1345782,hydrographic,"Tacuarembo Chico","Tacuarembo Chico",variant,-31.616667,-56.233333,UY-TA,,
-909447,-1346090,hydrographic,"Zanja del Tarumán","Zanja del Taruman",variant,-30.467869,-56.706011,UY-AR,,
-909151,-1345439,hydrographic,"Cañada del Sauce","Canada del Sauce",official,-32.95,-55.25,UY-CL,,
-909331,-1345812,hydrographic,Tala,Tala,variant,-31.653209,-57.445892,UY-PA,,
-909093,-1345161,hydrographic,Sauce,Sauce,variant,-34.185444,-58.055431,UY-CO,,
-908933,-1344944,hydrographic,"Arroyo Sarandí de la China","Arroyo Sarandi de la China",official,-32.75,-56.5,UY-DU,,
-909185,-1345494,hydrographic,"Cañada Sauce Chico","Canada Sauce Chico",official,-32.666667,-53.516667,UY-CL,,
-909702,-1346633,hydrographic,"Arroyo de Vera","Arroyo de Vera",official,-33.025965,-57.574602,UY-SO,,
-909211,-1345075,hydrographic,Sauce,Sauce,variant,-32.466667,-55.85,UY-TA,,
-908986,-1345105,hydrographic,Sauce,Sauce,variant,-33.2,-57.066667,UY-FS,,
-908904,-1344899,hypsographic,"Cuchilla Sarandí","Cuchilla Sarandi",official,-33.7,-56.216667,UY-FD,,
-909229,-1345606,settlement,Sauzal,Sauzal,official,-30.933333,-55.55,UY-RV,,
-908833,-1344717,hydrographic,Sarandí,Sarandi,variant,-32.616667,-55.6,UY-DU,,
-909374,-1345930,hydrographic,"Cañada del Tala","Canada del Tala",official,-31.916667,-56.783333,UY-PA,,
-909168,17383897,hydrographic,"Puerto de Juan L. Lacaze","Puerto de Juan L. Lacaze",official,-34.439631,-57.443741,UY-CO,,
-908970,-1341943,hydrographic,"Arroyo de Manzanero","Arroyo de Manzanero",variant,-33.633333,-54.983333,UY-LA,,
-909214,-1345567,hydrographic,"Arroyo Sauce Grande","Arroyo Sauce Grande",official,-32.965698,-57.414994,UY-RN,,
-908822,-1344696,hydrographic,Sarandí,Sarandi,variant,-32.020746,-56.222401,UY-TA,,
-908941,-1344956,hydrographic,"Arroyo Sarandí de los Perros","Arroyo Sarandi de los Perros",official,-33,-56.133333,UY-DU,,
-909177,-1345477,hydrographic,"Sauce Caído","Sauce Caido",variant,-33.787756,-54.097595,UY-RO,,
-909041,-1345200,hydrographic,"Arroyo Sauce","Arroyo Sauce",variant,-32.7,-57.283333,UY-RN,,
-909278,-1345708,hypsographic,"Punta Solís","Punta Solis",official,-34.800998,-55.383757,UY-MA,,
-909201,-1345532,hydrographic,"Sauce de Mansavillagra","Sauce de Mansavillagra",variant,-33.583333,-55.683333,UY-FD,,
-909257,-1345666,hypsographic,"Seven Cerros","Seven Cerros",variant,-34.266667,-54.366667,UY-RO,,
-909438,-1346065,hydrographic,"Arroyo Tapes del Sur","Arroyo Tapes del Sur",variant,-33.833333,-54.766667,UY-LA,,
-909743,16767241,hypsographic,"Cerro del Vigía","Cerro del Vigia",official,-31.922263,-56.675792,UY-PA,,
-908791,-1344621,spot,"Estación Santa Rosa","Estacion Santa Rosa",official,-34.500588,-56.032419,UY-CA,,
-908988,-1345317,hydrographic,"Arroyo del Sauce","Arroyo del Sauce",variant,-33.320973,-57.297004,UY-FS,,
-909019,-1345189,hydrographic,"Arroyo Sauce","Arroyo Sauce",variant,-31.85,-58.15,UY-PA,,
-909136,-1341820,hydrographic,Manantial,Manantial,variant,-32.133333,-57.916667,UY-PA,,
-909655,-1346529,hydrographic,"Arroyo Valentín","Arroyo Valentin",official,-32.95,-54.816667,UY-TT,,
-909727,-1346693,hypsographic,"Cerro del Vicheadero","Cerro del Vicheadero",variant,-31.79612,-56.854675,UY-PA,,
-909026,-1345269,hydrographic,"Arroyo del Sauce","Arroyo del Sauce",official,-32.116667,-56.516667,UY-PA,,
-909333,-1345921,hydrographic,"Cañada Tala","Canada Tala",variant,-31.783333,-56.85,UY-PA,,
-909474,-1346153,hydrographic,"Arroyuelo del Tigre","Arroyuelo del Tigre",variant,-34.751822,-56.522821,UY-SJ,,
-909056,-1345104,hydrographic,Sauce,Sauce,variant,-33.191544,-56.891373,UY-DU,,
-909431,-1346038,hydrographic,Tapera,Tapera,variant,-33.9,-56.816667,UY-FS,,
-909308,-1345773,hydrographic,Tacuaras,Tacuaras,variant,-33.883333,-57.666667,UY-SO,,
-909612,-1340124,hypsographic,"Isla Espinosa","Isla Espinosa",variant,-34.662314,-54.148449,UY-RO,,
-909094,-1345350,hydrographic,"Arroyo del Sauce","Arroyo del Sauce",official,-34.199054,-54.773627,UY-LA,,
-909138,-1345425,hydrographic,"Cañada del Sauce","Canada del Sauce",official,-32.273962,-56.796899,UY-PA,,
-909669,-1346558,hydrographic,"Arroyo Valiente","Arroyo Valiente",official,-31.116667,-55.7,UY-RV,,
-909609,-1346450,hypsographic,"Cerro de las Tunas","Cerro de las Tunas",variant,-31.552353,-56.938864,UY-SA,,
-909102,-1345368,hydrographic,"Cañada Sauce","Canada Sauce",official,-31.716667,-55.116667,UY-RV,,
-909798,-1346847,hypsographic,"Cuchilla del Yaguarí","Cuchilla del Yaguari",variant,-31.466667,-55.083333,UY-RV,,
-909857,-1346967,hydrographic,"Cañada del Zorro","Canada del Zorro",official,-31.2,-57.116667,UY-SA,,
-909461,-1346116,hydrographic,"Arroyo Tiatucura","Arroyo Tiatucura",official,-32.384452,-56.526038,UY-PA,,
-909167,-1345002,spot,Sauce,Sauce,variant,-34.64887,-56.058963,UY-CA,,
-908976,16770182,hydrographic,"Arroyo del Sauce","Arroyo del Sauce",official,-31.779508,-57.138574,UY-SA,,
-909408,-1345989,hydrographic,Talita,Talita,variant,-34.001509,-56.11,UY-FD,,
-909252,-1345663,hydrographic,"Arroyo de Sequeira","Arroyo de Sequeira",variant,-31.034485,-56.888196,UY-AR,,
-909305,-1345761,hydrographic,"Gajo Sud","Gajo Sud",variant,-31.52463,-56.030745,UY-TA,,
-909585,-1346380,hydrographic,"Arroyo de las Tres Cruces Grande","Arroyo de las Tres Cruces Grande",variant,-30.283333,-57.2,UY-AR,,
-909409,-1345991,hydrographic,"Arroyo Talita","Arroyo Talita",official,-33.70802,-57.198281,UY-FS,,
-908917,-1344922,hydrographic,"Arroyo Sarandí Chico","Arroyo Sarandi Chico",official,-32.596188,-57.223531,UY-RN,,
-909530,-1346263,hypsographic,"Archipiélago de Torres","Archipielago de Torres",variant,-34.35,-53.75,UY-RO,,
-909219,-1345578,hydrographic,"Zanja de los Sauces","Zanja de los Sauces",official,-30.4,-57.316667,UY-AR,,
-909606,-1346423,hypsographic,"Cerro de la Tuerta","Cerro de la Tuerta",official,-31.982731,-57.088394,UY-PA,,
-909374,-1345818,hydrographic,Tala,Tala,variant,-31.916667,-56.783333,UY-PA,,
-909854,-1346956,hydrographic,Zarate,Zarate,variant,-34.367944,-56.107104,UY-CA,,
-909820,-1346892,hydrographic,"Río Yi","Rio Yi",official,-33.116667,-57.133333,UY-000,,
-908848,-1344812,hydrographic,"Arroyo Sarandí","Arroyo Sarandi",variant,-33.745066,-53.565901,UY-RO,,
-909245,-1345641,hypsographic,"Isla Seca","Isla Seca",official,-34.351534,-53.760394,UY-RO,,
-909473,-1346184,hydrographic,"Arroyo del Tigre de Solis Chico","Arroyo del Tigre de Solis Chico",variant,-34.52281,-55.719871,UY-CA,,
-908855,-1344758,hydrographic,Sarandí,Sarandi,variant,-34.618174,-56.4829,UY-SJ,,
-909679,-1346583,hypsographic,"Sierrita de los Vaz","Sierrita de los Vaz",variant,-32.6,-54.116667,UY-MO,,
-909608,-1346426,hydrographic,"Arroyo de la Tuna","Arroyo de la Tuna",official,-34.783795,-55.564002,UY-CA,,
-909181,-1345484,hydrographic,"Sauce Chico","Sauce Chico",variant,-34.18885,-57.415114,UY-CO,,
-909271,-1345692,hydrographic,"Arroyo del Soldado","Arroyo del Soldado",official,-32.7,-54.8,UY-TT,,
-908937,-1344829,hydrographic,"Arroyo del Sarandí","Arroyo del Sarandi",variant,-31.064198,-56.376709,UY-SA,,
-909195,-1345517,hydrographic,"Arroyo del Sauce de los Mendez","Arroyo del Sauce de los Mendez",variant,-33.928549,-54.158272,UY-RO,,
-909231,-1345617,hydrographic,"Arroyo Sauzal","Arroyo Sauzal",official,-31.4,-57.966667,UY-SA,,
-909327,-1345873,hydrographic,"Arroyo Tala","Arroyo Tala",official,-34.263655,-56.678371,UY-SJ,,
-909495,-1346185,hydrographic,"Tigre Grande","Tigre Grande",variant,-34.167276,-58.139378,UY-CO,,
-909447,-1346088,hydrographic,"Cañada del Tarumán","Canada del Taruman",variant,-30.467869,-56.706011,UY-AR,,
-909117,-1345393,hydrographic,"Cañada del Sauce","Canada del Sauce",official,-31.18092,-57.169652,UY-SA,,
-909366,-1345917,hydrographic,"Arroyo del Tala","Arroyo del Tala",official,-34.385089,-56.18056,UY-CA,,
-909550,-1346296,hydrographic,Totoral,Totoral,variant,-34.45,-56.25,UY-CA,,
-909353,-1345840,hydrographic,Tala,Tala,variant,-33.527902,-57.250187,UY-SO,,
-909445,-1346082,spot,"Estación Tarariras","Estacion Tarariras",official,-34.266667,-57.6,UY-CO,,
-908780,-1344593,hydrographic,"Santa María","Santa Maria",variant,-34.347592,-57.109558,UY-CO,,
-909607,-1346425,hydrographic,"Arroyo de la Tuna","Arroyo de la Tuna",official,-31.533333,-55.733333,UY-TA,,
-908972,-1345150,hydrographic,Sauce,Sauce,variant,-33.954967,-56.809249,UY-SJ,,
-909732,-1346696,hypsographic,"Cerro del Vicheadero","Cerro del Vicheadero",variant,-31.783333,-54.716667,UY-RV,,
-908781,-1344596,hypsographic,"Cabo Santa María","Cabo Santa Maria",official,-34.668251,-54.152702,UY-RO,,
-908989,-1345216,hydrographic,"Arroyo Sauce","Arroyo Sauce",official,-33.35,-56.133333,UY-DU,,
-909741,-1346706,hydrographic,Viera,Viera,variant,-33.780573,-54.560178,UY-LA,,
-909607,-1346437,hydrographic,Tunas,Tunas,variant,-31.533333,-55.733333,UY-TA,,
-909209,-1345553,hydrographic,Saucedo,Saucedo,variant,-31.00955,-57.507349,UY-SA,,
-909225,-1345598,hydrographic,"Arroyo del Sauce Solo","Arroyo del Sauce Solo",official,-34.433333,-55.566667,UY-000,,
-909692,-1346607,settlement,Velázquez,Velazquez,official,-34.036312,-54.280535,UY-RO,,
-909753,-1346753,settlement,"Villa Passano","Villa Passano",official,-33.290735,-53.900747,UY-TT,,
-909493,-1346181,hydrographic,"Arroyo Tigre Chico","Arroyo Tigre Chico",official,-34.166667,-58.166667,UY-CO,,
-909555,-1346326,settlement,Tranqueras,Tranqueras,official,-31.166667,-55.75,UY-RV,,
-909423,-1346030,hydrographic,"Arroyo de Tapado","Arroyo de Tapado",variant,-31.586259,-56.727575,UY-SA,,
-909804,-1346866,hydrographic,"Cañada de las Yeguas","Canada de las Yeguas",variant,-34.9,-56.3,UY-MO,,
-908998,-1345524,hydrographic,"Arroyo Sauce del San José","Arroyo Sauce del San Jose",variant,-34.501834,-56.660795,UY-SJ,,
-909492,-1346176,park,"Rincóu del Tigre","Rincou del Tigre",official,-32.25,-55.45,UY-TA,,
-909584,-1346376,hydrographic,"Tres Cruces Chico","Tres Cruces Chico",variant,-30.46004,-56.740254,UY-AR,,
-908822,-1344775,hydrographic,"Arroyo Sarandí","Arroyo Sarandi",official,-32.020746,-56.222401,UY-TA,,
-909408,-1345994,hydrographic,"Arroyo Talita","Arroyo Talita",official,-34.001509,-56.11,UY-FD,,
-908836,-1344793,hydrographic,"Arroyo Sarandí","Arroyo Sarandi",official,-32.75,-55.833333,UY-DU,,
-909034,-1345281,hydrographic,"Arroyo del Sauce","Arroyo del Sauce",official,-32.433333,-57.9,UY-PA,,
-909509,-1346219,hypsographic,"Punta Tomador","Punta Tomador",official,-34.9,-56.316667,UY-MO,,
-909611,-1346430,hypsographic,"Cuchilla de La Tuna","Cuchilla de La Tuna",official,-34.119613,-54.190554,UY-RO,,
-909861,-1346973,hypsographic,"Cuchilla de Zuñiga","Cuchilla de Zuniga",official,-34.083333,-56.05,UY-FD,,
-909282,-1345714,hydrographic,"Arroyo Solís Grande","Arroyo Solis Grande",official,-34.789996,-55.397785,UY-000,,
-909599,-1346411,spot,"Estación Trinidad","Estacion Trinidad",official,-33.533333,-56.883333,UY-FS,,
-909501,-1346199,hydrographic,"Tío Diego","Tio Diego",variant,-34.736042,-55.454063,UY-CA,,
-908921,-1344926,hydrographic,"Arroyo Sarandí Chico","Arroyo Sarandi Chico",official,-33.30042,-57.896033,UY-SO,,
-908923,-1344915,hydrographic,"Sarandi Chico","Sarandi Chico",variant,-34.057573,-54.58732,UY-MA,,
-909748,-1346741,settlement,"Villa Dolores","Villa Dolores",official,-34.9,-56.15,UY-MO,,
-909823,-1346899,hydrographic,"Arroyo de Yucutujá","Arroyo de Yucutuja",variant,-30.302905,-57.38855,UY-AR,,
-908858,-1344832,hydrographic,"Arroyo del Sarandí","Arroyo del Sarandi",official,-31.648393,-57.456184,UY-SA,,
-909654,-1343574,settlement,"Poblacion Valentin","Poblacion Valentin",variant,-31.273468,-57.156838,UY-SA,,
-909806,-1346865,hydrographic,"Arroyo de la Yeguada","Arroyo de la Yeguada",official,-33,-54.9,UY-LA,,
-909830,-1346906,hydrographic,"Cañada Zabala","Canada Zabala",official,-33.916667,-57.95,UY-CO,,
-909523,-1346243,hydrographic,Toro,Toro,variant,-31.966667,-56.866667,UY-PA,,
-908980,-1345273,hydrographic,"Arroyo del Sauce","Arroyo del Sauce",variant,-32.166667,-56.133333,UY-TA,,
-909331,-1338269,hydrographic,"Blanquillo Chico","Blanquillo Chico",variant,-31.653209,-57.445892,UY-PA,,
-909587,-1346382,settlement,"Tres Esquinas","Tres Esquinas",official,-34.122287,-57.37176,UY-CO,,
-909437,-1346063,hydrographic,"Arroyo de los Tapes de Godoy","Arroyo de los Tapes de Godoy",official,-33.7,-54.916667,UY-LA,,
-908854,-1344756,hydrographic,Sarandí,Sarandi,variant,-34.470228,-56.849182,UY-SJ,,
-908957,-1344987,spot,"Estación Sarandí Grande","Estacion Sarandi Grande",official,-33.716667,-56.333333,UY-FD,,
-909478,-1346157,hydrographic,"Cañada del Tigre","Canada del Tigre",official,-32,-54.933333,UY-TA,,
-908968,-1345119,hydrographic,Sauce,Sauce,variant,-33.355056,-57.338015,UY-FS,,
-909342,-1345832,hydrographic,Tala,Tala,variant,-32.8,-57.333333,UY-RN,,
-909318,-1345798,hydrographic,Tadeo,Tadeo,variant,-33.7,-58.016667,UY-SO,,
-909329,-1345877,hydrographic,"Arroyo del Tala","Arroyo del Tala",official,-31.383333,-57.016667,UY-SA,,
-909519,-1346238,hydrographic,"Arroyo Tornero Chico","Arroyo Tornero Chico",official,-33.90912,-55.850566,UY-FD,,
-909718,-1346662,hydrographic,"Arroyo Verdún","Arroyo Verdun",official,-34.261508,-55.433158,UY-LA,,
-909159,-1345450,hydrographic,"Cañada del Sauce","Canada del Sauce",official,-34.020886,-54.482563,UY-RO,,
-909323,-1345809,hydrographic,Tala,Tala,official,-30.633333,-56.95,UY-AR,,
-909233,-1345620,hydrographic,"Arroyo del Sauzal","Arroyo del Sauzal",variant,-30.313055,-57.058615,UY-AR,,
-909839,-1346927,hydrographic,"Cañada Zanja Honda","Canada Zanja Honda",official,-31.233333,-55.75,UY-RV,,
-908914,-1344677,hydrographic,Sarandí,Sarandi,variant,-31.07919,-56.219695,UY-SA,,
-909405,-1345987,hydrographic,Talita,Talita,official,-33.4,-55.533333,UY-FD,,
-909770,-1346779,hydrographic,Virará,Virara,variant,-31.65,-57.666667,UY-PA,,
-909356,-1345843,hydrographic,Tala,Tala,variant,-33.568804,-53.552258,UY-RO,,
-909320,-1345804,hydrographic,"Cañada Tajamar","Canada Tajamar",official,-32.683333,-57.433333,UY-RN,,
-908782,-1344570,hydrographic,"Santa Lucía","Santa Lucia",variant,-32.75,-57.566667,UY-RN,,
-909021,-1345263,hydrographic,"Arroyo del Sauce","Arroyo del Sauce",official,-31.933333,-55.833333,UY-TA,,
-909178,-1345148,hydrographic,Sauce,Sauce,variant,-33.951698,-56.151887,UY-FD,,
-909390,-1345952,hydrographic,"Arroyo del Tala de las Víboras","Arroyo del Tala de las Viboras",variant,-33.916667,-58.066667,UY-CO,,
-909517,-1346234,hypsographic,"Cerro del Topador","Cerro del Topador",variant,-30.285902,-56.819882,UY-AR,,
-909739,-1346704,hydrographic,"Puerto Viejo","Puerto Viejo",official,-34.666667,-54.15,UY-RO,,
-908896,-1344870,hydrographic,"Cañada Sarandí","Canada Sarandi",variant,-31.533333,-54.8,UY-RV,,
-909459,-1346111,hypsographic,"Sierras de Tía Josefa","Sierras de Tia Josefa",official,-34.015661,-56.755299,UY-SJ,,
-908802,-1344642,hydrographic,"Arroyo Santo Domingo","Arroyo Santo Domingo",official,-34.113139,-58.221195,UY-CO,,
-909119,-1345022,hydrographic,Sauce,Sauce,variant,-31.233333,-57.466667,UY-SA,,
-909134,-1345052,hydrographic,Sauce,Sauce,variant,-31.95,-55.316667,UY-TA,,
-909017,-1345259,hydrographic,"Arroyo del Sauce","Arroyo del Sauce",official,-31.816667,-55.166667,UY-TA,,
-909423,-1346029,hydrographic,Tapado,Tapado,variant,-31.586259,-56.727575,UY-SA,,
-909703,-1346634,hydrographic,"Cañada Vera","Canada Vera",official,-34.533766,-55.926043,UY-CA,,
-909349,-1345836,hydrographic,Tala,Tala,variant,-33.383333,-57.433333,UY-SO,,
-909654,-1346549,settlement,"Valentín Grande","Valentin Grande",official,-31.273468,-57.156838,UY-SA,,
-908868,16432179,hydrographic,"Arroyo Sarandí","Arroyo Sarandi",official,-33.358214,-54.315641,UY-TT,,
-908981,-1345199,hydrographic,"Arroyo Sauce","Arroyo Sauce",official,-32.7,-56.3,UY-DU,,
-909268,-1345685,hydrographic,"Cañada de la Sociedad","Canada de la Sociedad",official,-31.362565,-56.92398,UY-SA,,
-909177,-1345480,hydrographic,"Arroyo del Sauce Caldo","Arroyo del Sauce Caldo",variant,-33.787756,-54.097595,UY-RO,,
-908830,-1340911,hydrographic,"Cañada de la Isla de los Chanchos","Canada de la Isla de los Chanchos",variant,-32.55,-54.75,UY-MO,,
-908927,-1344800,hydrographic,"Arroyo Sarandí","Arroyo Sarandi",official,-33.159674,-56.643427,UY-DU,,
-909513,-1346225,spot,"Tomás Gomensoro","Tomas Gomensoro",variant,-30.431036,-57.439138,UY-AR,,
-909230,-1345610,hydrographic,Sauzal,Sauzal,variant,-30.916667,-55.55,UY-RV,,
-909254,-1345665,hypsographic,"Cuchilla de Sequeira","Cuchilla de Sequeira",official,-30.85,-56.5,UY-AR,,
-909726,-1346674,hydrographic,Vichadero,Vichadero,variant,-33.7,-54.716667,UY-LA,,
-909104,-1345143,hydrographic,Sauce,Sauce,variant,-33.90009,-54.415796,UY-RO,,
-909746,-1343793,settlement,"Pueblo del Carmen","Pueblo del Carmen",variant,-33.25,-56.016667,UY-DU,,
-908922,-1344927,hydrographic,"Arroyo Sarandí Chico","Arroyo Sarandi Chico",official,-33.930691,-56.06717,UY-FD,,
-909329,-1345811,hydrographic,Tala,Tala,variant,-31.383333,-57.016667,UY-SA,,
-909750,-1346743,settlement,"Villa Española","Villa Espanola",official,-34.883333,-56.15,UY-MO,,
-909161,-1345224,hydrographic,"Arroyo Sauce","Arroyo Sauce",variant,-34.06574,-56.817462,UY-SJ,,
-909428,-1346050,hydrographic,"Zanja de la Tapera","Zanja de la Tapera",variant,-31.316837,-57.186736,UY-SA,,
-909859,-1346963,hydrographic,Zorro,Zorro,variant,-33.016667,-56.366667,UY-DU,,
-908920,-1344913,hydrographic,"Sarandí Chico","Sarandi Chico",variant,-33.016667,-53.583333,UY-TT,,
-909613,-1346443,hydrographic,"Arroyo de las Tunas","Arroyo de las Tunas",official,-31.155533,-57.258575,UY-SA,,
-909633,-1346479,hydrographic,"Zanja Uña de Gato","Zanja Una de Gato",variant,-30.729963,-56.819251,UY-AR,,
-909201,-1345570,hydrographic,"Arroyo Sauce Mansavillagra","Arroyo Sauce Mansavillagra",variant,-33.583333,-55.683333,UY-FD,,
-909258,-1345672,hypsographic,"Cerro Silla Chica","Cerro Silla Chica",official,-34.533333,-54.5,UY-RO,,
-908852,-1344819,hydrographic,"Arroyo Sarandí","Arroyo Sarandi",official,-34.046327,-54.692286,UY-LA,,
-909770,-1343200,hydrographic,Paz,Paz,variant,-31.65,-57.666667,UY-PA,,
-909449,-1346091,hydrographic,Teja,Teja,variant,-32.766667,-53.766667,UY-CL,,
-909841,-1342598,hydrographic,"Cañada Negra","Canada Negra",variant,-32.166667,-56.133333,UY-TA,,
-908780,-1344595,hydrographic,"Arroyo Santa María","Arroyo Santa Maria",official,-34.347592,-57.109558,UY-CO,,
-908838,-1344729,hydrographic,Sarandí,Sarandi,variant,-32.95,-56.033333,UY-DU,,
-909704,-1346627,hypsographic,Vera,Vera,variant,-33.2,-57.483333,UY-SO,,
-909166,16299484,spot,"Estación Sauce de Rocha","Estacion Sauce de Rocha",official,-34.525096,-54.374351,UY-RO,,
-909387,-1345947,hydrographic,"Arroyo Tala Chico","Arroyo Tala Chico",official,-33.25,-55.75,UY-DU,,
-909695,-1346613,hydrographic,"Arroyo del Venado","Arroyo del Venado",variant,-33.85,-57.133333,UY-SO,,
-909899,-1344995,hydrographic,Sauce,Sauce,variant,-34.814233,-55.056868,UY-MA,,
-909245,-1345643,hypsographic,"Seca Islet","Seca Islet",variant,-34.351534,-53.760394,UY-RO,,
-909111,-1345386,hydrographic,"Cañada del Sauce","Canada del Sauce",official,-30.833333,-56.516667,UY-AR,,
-909230,-1345621,hydrographic,"Arroyo del Sauzal","Arroyo del Sauzal",variant,-30.916667,-55.55,UY-RV,,
-909204,-1345538,hydrographic,"Arroyo Sauce de Osorio","Arroyo Sauce de Osorio",variant,-33.533333,-56.516667,UY-FS,,
-909860,-1346971,hydrographic,"Canal de las Zumacas","Canal de las Zumacas",official,-34.416667,-57.916667,UY-CO,,
-909049,-1345298,hydrographic,"Arroyo del Sauce","Arroyo del Sauce",official,-32.915385,-56.83627,UY-DU,,
-909792,-1346832,hydrographic,"Arroyo Yaguareté Chico","Arroyo Yaguarete Chico",official,-33.15,-58.266667,UY-RN,,
-909764,-1346772,hydrographic,Violetas,Violetas,variant,-34.483333,-56.05,UY-CA,,
-909776,-1345875,hydrographic,"Arroyo del Tala","Arroyo del Tala",variant,-31.683333,-57.983333,UY-PA,,
-909006,-1345396,hydrographic,"Cañada del Sauce","Canada del Sauce",variant,-31.384909,-57.177317,UY-SA,,
-908939,-1344953,hydrographic,"Arroyo Sarandí del Medio","Arroyo Sarandi del Medio",official,-32.401287,-56.537764,UY-PA,,
-909215,-1343521,hydrographic,Pintado,Pintado,variant,-33.95,-55.533333,UY-FD,,
-909304,-1345762,spot,"Parada Sud","Parada Sud",variant,-32.85,-56.5,UY-DU,,
-909472,-1346138,hydrographic,Tigre,Tigre,variant,-33.666667,-55.55,UY-FD,,
-909447,-1346087,hydrographic,"Cañada Taruman","Canada Taruman",variant,-30.467869,-56.706011,UY-AR,,
-909381,-1345939,hydrographic,"Cañada del Tala","Canada del Tala",official,-33.75,-57.783333,UY-SO,,
-909758,-1346756,spot,Villasboas,Villasboas,variant,-33.2,-56.466667,UY-DU,,
-909064,-1345315,hydrographic,"Arroyo del Sauce","Arroyo del Sauce",official,-33.284816,-57.097782,UY-FS,,
-909454,-1337724,settlement,Arapey,Arapey,variant,-30.947499,-57.520875,UY-SA,,
-908970,-1341942,hydrographic,"Arroyo Manzanero","Arroyo Manzanero",variant,-33.633333,-54.983333,UY-LA,,
-908790,-1344620,hypsographic,"Cuchilla de Santa Rosa","Cuchilla de Santa Rosa",official,-30.532384,-57.415872,UY-AR,,
-909116,-1345363,hydrographic,"Cañada Sauce","Canada Sauce",variant,-31.183333,-56.883333,UY-SA,,
-909646,-1346508,hydrographic,Valdenegro,Valdenegro,variant,-34.616667,-55.933333,UY-CA,,
-909765,-1346773,hydrographic,Violetas,Violetas,variant,-34.533333,-56.316667,UY-CA,,
-909174,-1345471,hydrographic,"Zanja del Sauce","Zanja del Sauce",official,-30.417577,-57.184019,UY-AR,,
-909314,-1345784,hydrographic,"Tacuarembó Chico","Tacuarembo Chico",variant,-32.05,-55.566667,UY-TA,,
-909411,-1346004,hydrographic,"Cañada Talita de Solis Chico","Canada Talita de Solis Chico",variant,-34.583333,-55.733333,UY-CA,,
-908996,-1345522,hydrographic,"Arroyo Sauce del Plata","Arroyo Sauce del Plata",variant,-34.427668,-57.467014,UY-CO,,
-909218,-1342111,hydrographic,"Cañada de la Media Luna","Canada de la Media Luna",variant,-30.516667,-57.033333,UY-AR,,
-909126,-1345184,hydrographic,"Arroyo Sauce","Arroyo Sauce",variant,-31.566667,-55.45,UY-RV,,
-908855,-1344957,hydrographic,"Arroyo Sarandí del San José","Arroyo Sarandi del San Jose",variant,-34.618174,-56.4829,UY-SJ,,
-909542,-1346280,hydrographic,Totora,Totora,variant,-33.054765,-57.9356,UY-RN,,
-909673,-1346565,hydrographic,"Arroyo Valizas","Arroyo Valizas",official,-34.343482,-53.787678,UY-RO,,
-909744,-1346714,hypsographic,"Cerro del Vigía","Cerro del Vigia",variant,-33.7,-53.583333,UY-RO,,
-908998,-1345170,hydrographic,Sauce,Sauce,variant,-34.501834,-56.660795,UY-SJ,,
-908889,-1344707,hydrographic,Sarandí,Sarandi,variant,-32.35,-54.916667,UY-TA,,
-909415,-1343864,settlement,"Puntas Tamanduá","Puntas Tamandua",variant,-30.464328,-56.506988,UY-AR,,
-909558,-1346331,hydrographic,"Arroyo Tranqueras","Arroyo Tranqueras",official,-31.75,-56.25,UY-TA,,
-909675,-1346570,spot,"Valle Edén","Valle Eden",variant,-31.833333,-56.15,UY-TA,,
-908798,-1344633,hypsographic,"Punta Santa Teresa","Punta Santa Teresa",official,-34.916667,-56.216667,UY-MO,,
-909336,-1345933,hydrographic,"Cañada del Tala","Canada del Tala",variant,-32.182098,-57.107692,UY-PA,,
-909567,-1346343,hypsographic,"Cerro Tres Árboles","Cerro Tres Arboles",official,-32.5,-56.833333,UY-RN,,
-909065,-1345316,hydrographic,"Arroyo del Sauce","Arroyo del Sauce",official,-33.333333,-54.833333,UY-LA,,
-909340,-1345827,hydrographic,Tala,Tala,variant,-32.572936,-56.725986,UY-RN,,
-908954,-1344981,hydrographic,"Arroyo Sarandí Grande","Arroyo Sarandi Grande",official,-34.036359,-54.584522,UY-MA,,
-909700,-1346623,hydrographic,"Arroyito Ventura","Arroyito Ventura",variant,-34.083333,-58.233333,UY-CO,,
-909391,-1345848,hydrographic,Tala,Tala,variant,-34.05,-54.7,UY-LA,,
-909448,-1346086,hydrographic,"Arroyo del Taruman","Arroyo del Taruman",variant,-32.516667,-56.483333,UY-TA,,
-909677,-1346574,hypsographic,"Punta del Vapor","Punta del Vapor",official,-34.966667,-54.933333,UY-MA,,
-908997,-1345518,hydrographic,"Arroyo Sauce del Pavón","Arroyo Sauce del Pavon",variant,-34.466204,-57.023373,UY-SJ,,
-908881,16795940,hydrographic,"Cañada del Sarandí","Canada del Sarandi",official,-31.339053,-57.595845,UY-SA,,
-909206,-1345547,hydrographic,"Arroyo Sauce de Veras","Arroyo Sauce de Veras",official,-32.033333,-55.65,UY-TA,,
-909592,-1346390,hydrographic,"Arroyo Tres Islas","Arroyo Tres Islas",variant,-32.75,-53.283333,UY-CL,,
-909729,-1346680,hypsographic,"Cerro Vichadero","Cerro Vichadero",official,-32.65,-54.333333,UY-CL,,
-908839,-1344801,hydrographic,"Arroyo Sarandí","Arroyo Sarandi",official,-33.216667,-58,UY-SO,,
-909211,-1345198,hydrographic,"Arroyo Sauce","Arroyo Sauce",variant,-32.466667,-55.85,UY-TA,,
-908786,-1344609,hypsographic,"Cerro Santander","Cerro Santander",official,-31.783333,-55.95,UY-TA,,
-909355,-1345842,hydrographic,Tala,Tala,variant,-33.542322,-57.387828,UY-SO,,
-908995,-1345521,hydrographic,"Arroyo Sauce del Plata","Arroyo Sauce del Plata",variant,-34.440778,-57.191314,UY-CO,,
-909464,-1346120,hypsographic,"Cerros Tierras Blancas","Cerros Tierras Blancas",official,-32.202378,-56.808088,UY-PA,,
-909071,-1345324,hydrographic,"Arroyo del Sauce","Arroyo del Sauce",official,-33.466667,-56.183333,UY-FD,,
-909077,-1345132,hydrographic,Sauce,Sauce,variant,-33.7,-56.433333,UY-FS,,
-908907,-1344905,spot,"Estación de Ferrocarril Sarandí","Estacion de Ferrocarril Sarandi",variant,-30.75,-57.05,UY-AR,,
-909666,-1346550,hydrographic,"Valentín Grande","Valentin Grande",variant,-31.194541,-57.217936,UY-SA,,
-909006,-1345025,hydrographic,Sauce,Sauce,variant,-31.384909,-57.177317,UY-SA,,
-908896,-1344888,hydrographic,"Cañada del Sarandí","Canada del Sarandi",official,-31.533333,-54.8,UY-RV,,
-909028,-1337568,hydrographic,"Aguas Buenas","Aguas Buenas",variant,-32.166667,-56.15,UY-TA,,
-909740,-1346705,hydrographic,Viera,Viera,variant,-34.216667,-55.683333,UY-LA,,
-909623,-1346457,hydrographic,Tupambae,Tupambae,variant,-34.7,-55.433333,UY-MA,,
-909540,-1346290,settlement,Totoral,Totoral,variant,-34.660913,-55.993272,UY-CA,,
-909129,-1345366,hydrographic,"Cañada Sauce","Canada Sauce",variant,-31.683333,-54.616667,UY-RV,,
-909537,-1346281,hydrographic,Totora,Totora,variant,-34.068031,-57.586818,UY-CO,,
-909250,-1345651,hypsographic,"Cerro Sepultura","Cerro Sepultura",variant,-30.865762,-56.050783,UY-AR,,
-908990,-1345142,hydrographic,Sauce,Sauce,variant,-33.883333,-56.816667,UY-FS,,
-908945,-1344668,settlement,Sarandí,Sarandi,variant,-32.543653,-56.865785,UY-RN,,
-909376,-1345821,hydrographic,Tala,Tala,variant,-32.2,-54.1,UY-CL,,
-908787,-1344612,hypsographic,"Punta Santa Rita","Punta Santa Rita",official,-34.468713,-57.879228,UY-CO,,
-909212,-1345093,hydrographic,Sauce,Sauce,variant,-32.878298,-56.833333,UY-RN,,
-909769,-1346786,hydrographic,"Cañada Viraró","Canada Viraro",official,-32.133333,-57.883333,UY-PA,,
-909320,-1345803,hydrographic,Tajamar,Tajamar,variant,-32.683333,-57.433333,UY-RN,,
-909583,-1346375,hypsographic,"Sierra de Tres Cruces","Sierra de Tres Cruces",official,-31.566667,-55.95,UY-TA,,
-909617,-1346452,hydrographic,Tunitas,Tunitas,variant,-31.833333,-57.116667,UY-PA,,
-908871,-1344853,hydrographic,"Arroyo del Sarandí","Arroyo del Sarandi",official,-33.766667,-55.5,UY-FD,,
-908994,-1345167,hydrographic,Sauce,Sauce,variant,-34.416667,-57.116667,UY-SJ,,
-909412,-1346005,hypsographic,"Cerro de Talitas","Cerro de Talitas",variant,-33.133333,-56.45,UY-DU,,
-909475,-1346154,hydrographic,"Cañada Tigre","Canada Tigre",official,-32.6,-55.6,UY-DU,,
-909507,-1346216,hydrographic,"Zanja de Toledo","Zanja de Toledo",variant,-30.733333,-56.1,UY-AR,,
-909672,-1338008,settlement,Balizas,Balizas,variant,-34.336107,-53.79582,UY-RO,,
-908932,-1344943,hydrographic,"Arroyo Sarandí del Abra","Arroyo Sarandi del Abra",official,-33.740161,-54.377105,UY-RO,,
-909672,16335242,settlement,"Barra de Valizas","Barra de Valizas",official,-34.336107,-53.79582,UY-RO,,
-908919,-1339279,hydrographic,Chico,Chico,variant,-32.983333,-56,UY-DU,,
-909430,-1346037,hydrographic,Tapera,Tapera,variant,-31.836946,-57.679393,UY-PA,,
-909581,-1346372,hypsographic,"Cuchilla de Tres Cruces","Cuchilla de Tres Cruces",variant,-30.543043,-56.783046,UY-AR,,
-909515,-1346229,hydrographic,"Arroyo Tomás Paz","Arroyo Tomas Paz",official,-31.579106,-57.677054,UY-PA,,
-909526,-1338942,settlement,Ceferino,Ceferino,variant,-31.35,-56.633333,UY-SA,,
-909080,-1345334,hydrographic,"Arroyo del Sauce","Arroyo del Sauce",official,-33.783333,-54.9,UY-LA,,
-908949,-1344837,hydrographic,"Arroyo del Sarandí","Arroyo del Sarandi",variant,-31.827507,-57.855718,UY-PA,,
-909401,-1345977,hydrographic,"Cañada de los Talas","Canada de los Talas",official,-32.066667,-54.983333,UY-TA,,
-909842,-1346939,hydrographic,"Arroyo de Zapallos","Arroyo de Zapallos",variant,-32.216667,-54.8,UY-TA,,
-909117,-1345021,hydrographic,Sauce,Sauce,variant,-31.18092,-57.169652,UY-SA,,
-909301,-1345749,hypsographic,"Cuchilla de Soto","Cuchilla de Soto",official,-32.066667,-57.6,UY-PA,,
-909426,-1346032,hydrographic,Tapera,Tapera,variant,-31.066667,-57.35,UY-SA,,
-909147,-1345082,hydrographic,Sauce,Sauce,variant,-32.583333,-54.05,UY-MO,,
-908880,-1340322,hydrographic,Fuerte,Fuerte,variant,-31.314614,-56.848894,UY-SA,,
-909141,-1345428,hydrographic,"Cañada del Sauce","Canada del Sauce",official,-32.333333,-55.816667,UY-TA,,
-909022,-1345264,hydrographic,"Arroyo del Sauce","Arroyo del Sauce",official,-31.933333,-56.116667,UY-TA,,
-909579,-1346367,hydrographic,"Arroyo Tres Cruces","Arroyo Tres Cruces",official,-31.85,-55.733333,UY-TA,,
-909321,-1345802,hydrographic,Tajamar,Tajamar,variant,-31.8,-56.55,UY-SA,,
-909788,-1346822,hydrographic,"Arroyo Yacaré Grande","Arroyo Yacare Grande",official,-30.098708,-57.062828,UY-AR,,
-909530,-1346265,hypsographic,"Islas de Torres","Islas de Torres",official,-34.35,-53.75,UY-RO,,
-909691,-1346603,hydrographic,"Arroyo Vejigas Chico","Arroyo Vejigas Chico",official,-34.284502,-55.646137,UY-CA,,
-909318,-1342654,hydrographic,"Cañada de Nieto","Canada de Nieto",variant,-33.7,-58.016667,UY-SO,,
-909439,-1346071,settlement,Tapia,Tapia,variant,-34.567682,-55.751135,UY-CA,,
-908992,-1345512,hydrographic,"Arroyo Sauce del la Pachina","Arroyo Sauce del la Pachina",variant,-34.281526,-56.740703,UY-SJ,,
-909528,-1346259,hypsographic,"Cerro de los Toros","Cerro de los Toros",variant,-32.325105,-56.949277,UY-PA,,
-909483,-1346178,hydrographic,"Zanja del Tigre","Zanja del Tigre",variant,-34.566667,-55.116667,UY-MA,,
-909097,-1345171,hydrographic,Sauce,Sauce,variant,-34.537179,-54.334742,UY-RO,,
-909267,-1339947,settlement,"Doctor Francisco Soca","Doctor Francisco Soca",variant,-34.684322,-55.701997,UY-CA,,
-908850,-1344665,hydrographic,Sarand,Sarand,variant,-33.954758,-56.576875,UY-SJ,,
-909017,-1345044,hydrographic,Sauce,Sauce,variant,-31.816667,-55.166667,UY-TA,,
-909760,-1346766,settlement,"Villa Vieja","Villa Vieja",official,-34.058365,-56.367295,UY-FD,,
-909250,-1345656,hypsographic,"Cerro Sepulturas","Cerro Sepulturas",official,-30.865762,-56.050783,UY-AR,,
-908924,-1344929,hydrographic,"Arroyo Sarandí Chico","Arroyo Sarandi Chico",official,-34.383333,-57.283333,UY-CO,,
-909725,-1343643,settlement,"Poblado Vichadero","Poblado Vichadero",variant,-31.8,-54.716667,UY-RV,,
-909484,-1346165,hypsographic,"Cerro Tigre","Cerro Tigre",official,-32.933333,-56.4,UY-DU,,
-909526,-1346256,settlement,"Toro Negro","Toro Negro",official,-31.35,-56.633333,UY-SA,,
-909564,-1346337,spot,"Treinta y Tres","Treinta y Tres",variant,-33.25,-54.383333,UY-TT,,
-909851,-1346949,spot,Zapicán,Zapican,variant,-33.533333,-54.95,UY-LA,,
-908888,-1344879,hydrographic,"Cañada Sarandí","Canada Sarandi",official,-32.316667,-57.616667,UY-PA,,
-909280,-1345712,settlement,"Solís Grande","Solis Grande",variant,-34.597464,-55.465319,UY-LA,,
-909161,-1345154,hydrographic,Sauce,Sauce,variant,-34.06574,-56.817462,UY-SJ,,
-909416,-1346007,hydrographic,Tamanda,Tamanda,variant,-30.4,-56.5,UY-AR,,
-909312,-1345781,hydrographic,"Río Tacuarembó","Rio Tacuarembo",official,-32.416667,-55.483333,UY-TA,,
-909105,-1345144,hydrographic,Sauce,Sauce,variant,-33.916667,-58.066667,UY-CO,,
-909693,-1346608,hydrographic,"Cañada Velázquez","Canada Velazquez",official,-34.357977,-56.35034,UY-CA,,
-909131,-1345413,hydrographic,"Cañada del Sauce","Canada del Sauce",official,-31.816667,-56.333333,UY-PA,,
-909720,-1346658,spot,Verdum,Verdum,variant,-34.35,-55.283333,UY-LA,,
-909047,-1346501,hydrographic,"Vaca Muerta","Vaca Muerta",variant,-32.85,-57.533333,UY-RN,,
-909344,-1345893,hydrographic,"Arroyo del Tala","Arroyo del Tala",official,-32.983333,-56.35,UY-DU,,
-908795,-1344627,spot,"Santa Teresa","Santa Teresa",variant,-34,-56.266667,UY-FD,,
-909109,13226450,hydrographic,"Cañada del Sauce Solo","Canada del Sauce Solo",official,-30.486363,-57.268241,UY-AR,,
-909183,-1345252,hydrographic,"Arroyo del Sauce","Arroyo del Sauce",variant,-31.569079,-57.645528,UY-SA,,
-909288,-1346737,settlement,"Villa de Soriano","Villa de Soriano",variant,-33.398111,-58.321768,UY-SO,,
-909535,-1346275,hydrographic,"Cañada de las Toscas","Canada de las Toscas",official,-34.016667,-57.816667,UY-CO,,
-909700,-1346626,hydrographic,Venturo,Venturo,variant,-34.083333,-58.233333,UY-CO,,
-909498,-1346191,hydrographic,"Arroyo Timote","Arroyo Timote",official,-33.7,-55.783333,UY-FD,,
-909576,-1346356,settlement,"Tres Cerros","Tres Cerros",official,-31.366667,-55.666667,UY-RV,,
-908915,-1344920,hydrographic,"Arroyo Sarandí Chico","Arroyo Sarandi Chico",official,-31.847611,-57.830075,UY-PA,,
-909161,-1345452,hydrographic,"Cañada del Sauce","Canada del Sauce",official,-34.06574,-56.817462,UY-SJ,,
-909668,-1346553,hydrographic,Valenzuela,Valenzuela,variant,-34.566667,-56.166667,UY-CA,,
-908823,-1344776,hydrographic,"Arroyo Sarandí","Arroyo Sarandi",official,-32.133333,-55.833333,UY-TA,,
-909535,-1346272,hydrographic,Toscas,Toscas,variant,-34.016667,-57.816667,UY-CO,,
-909006,-1345246,hydrographic,"Arroyo del Sauce","Arroyo del Sauce",official,-31.384909,-57.177317,UY-SA,,
-909654,-1346526,settlement,Valentín,Valentin,variant,-31.273468,-57.156838,UY-SA,,
-908955,-1344821,hydrographic,"Arroyo Sarandí","Arroyo Sarandi",variant,-34.370655,-57.310678,UY-CO,,
-909673,-1346564,hydrographic,Valizas,Valizas,variant,-34.343482,-53.787678,UY-RO,,
-908817,-1344765,hydrographic,"Arroyo Sarandí","Arroyo Sarandi",official,-30.75,-56.666667,UY-AR,,
-909542,-1346302,hydrographic,"Arroyo Totoral","Arroyo Totoral",official,-33.054765,-57.9356,UY-RN,,
-908776,-1344581,hypsographic,"Cuchilla de Santa Lucía","Cuchilla de Santa Lucia",variant,-34.074261,-56.068014,UY-FD,,
-909233,-1344176,hydrographic,"Zanja del Rodeo","Zanja del Rodeo",variant,-30.313055,-57.058615,UY-AR,,
-908993,-1345166,hydrographic,Sauce,Sauce,variant,-34.404681,-56.641475,UY-SJ,,
-909342,-1345891,hydrographic,"Arroyo del Tala","Arroyo del Tala",official,-32.8,-57.333333,UY-RN,,
-909078,-1345332,hydrographic,"Arroyo del Sauce","Arroyo del Sauce",official,-33.733333,-56.583333,UY-FS,,
-909835,-1346923,hydrographic,"Arroyo Zanja Honda","Arroyo Zanja Honda",official,-31.933333,-54.583333,UY-TA,,
-909585,-1346378,hydrographic,"Tres Cruces Grande","Tres Cruces Grande",variant,-30.283333,-57.2,UY-AR,,
-909207,-1345551,hydrographic,"Arroyuelo del Sauce de Villanueva","Arroyuelo del Sauce de Villanueva",variant,-33.4,-56.433333,UY-DU,,
-909701,-1346632,hydrographic,"Arroyo de Vera","Arroyo de Vera",official,-31.5,-56.8,UY-SA,,
-909553,-1346319,hydrographic,"Cañada de las Totoras","Canada de las Totoras",official,-31.733333,-57.5,UY-PA,,
-908785,-1344606,hypsographic,"Isla Santa María Grande","Isla Santa Maria Grande",official,-33.053699,-58.126717,UY-RN,,
-908944,-1344959,spot,"Sarandí del Yi","Sarandi del Yi",variant,-33.316667,-55.616667,UY-DU,,
-908901,-1344896,hydrographic,"Cañada del Sarandí","Canada del Sarandi",official,-33.333333,-54.85,UY-LA,,
-909024,-1345059,hydrographic,Sauce,Sauce,variant,-32.03865,-57.095096,UY-PA,,
-908996,-1345562,hydrographic,"Sauce Grande","Sauce Grande",variant,-34.427668,-57.467014,UY-CO,,
-908998,-1345234,hydrographic,"Arroyo Sauce","Arroyo Sauce",official,-34.501834,-56.660795,UY-SJ,,
-909612,-1339272,hypsographic,"Isla Chica","Isla Chica",variant,-34.662314,-54.148449,UY-RO,,
-909113,-1345015,hydrographic,Sauce,Sauce,variant,-30.922528,-57.065626,UY-AR,,
-908775,-1344578,hypsographic,"Barrancas Santa Lucía","Barrancas Santa Lucia",official,-34.75,-56.5,UY-SJ,,
-908907,-1344903,spot,"Estación Sarandí","Estacion Sarandi",official,-30.75,-57.05,UY-AR,,
-909030,-1345064,hydrographic,Sauce,Sauce,variant,-32.233333,-54.8,UY-CL,,
-909212,-1345179,hydrographic,"Arroyito del Sauce","Arroyito del Sauce",variant,-32.878298,-56.833333,UY-RN,,
-909360,-1345909,hydrographic,"Arroyo del Tala","Arroyo del Tala",official,-33.833333,-54.983333,UY-LA,,
-909373,-1345945,hydrographic,"del Tala","del Tala",variant,-30.716667,-56.95,UY-AR,,
-909497,-1346189,hydrographic,Timote,Timote,variant,-33.483333,-56.05,UY-FD,,
-909515,-1346228,hydrographic,"Tomás Paz","Tomas Paz",variant,-31.579106,-57.677054,UY-PA,,
-909055,-1345102,hydrographic,Sauce,Sauce,variant,-33.183333,-55.233333,UY-FD,,
-908905,-1344900,hypsographic,"Cuchilla Sarandí","Cuchilla Sarandi",official,-33.75,-56.25,UY-FD,,
-909582,-1346373,hypsographic,"Cuchilla de la Tres Cruces","Cuchilla de la Tres Cruces",variant,-31.443972,-55.990027,UY-TA,,
-909741,16351539,hydrographic,"Cañada de los Viera","Canada de los Viera",official,-33.780573,-54.560178,UY-LA,,
-909702,-1346631,hydrographic,"Arroyo Vera","Arroyo Vera",variant,-33.025965,-57.574602,UY-SO,,
-908881,-1344681,hydrographic,Sarandí,Sarandi,variant,-31.339053,-57.595845,UY-SA,,
-909302,-1345750,hydrographic,"Soto Chico","Soto Chico",variant,-31.925618,-57.555465,UY-PA,,
-909496,-1346187,hydrographic,"Arroyo Timboa","Arroyo Timboa",official,-31.070416,-56.32158,UY-SA,,
-909730,-1346681,hypsographic,"Cerro Vichadero","Cerro Vichadero",official,-33.279698,-56.872382,UY-FS,,
-909645,-1346506,hypsographic,"Cuchilla de las Vacas","Cuchilla de las Vacas",official,-34.05,-58.083333,UY-CO,,
-909020,-1345048,hydrographic,Sauce,Sauce,variant,-31.866667,-57.933333,UY-PA,,
-909425,-1340529,hydrographic,"Zanja Grande","Zanja Grande",variant,-30.3,-56.683333,UY-AR,,
-909533,-1343715,hydrographic,"Cañada de Portugal","Canada de Portugal",variant,-31.733333,-57.516667,UY-PA,,
-909598,-1346402,spot,Trinidad,Trinidad,variant,-33.483333,-56.95,UY-FS,,
-909512,-1346224,settlement,"Tomás Gomensoro","Tomas Gomensoro",official,-30.428703,-57.436086,UY-AR,,
-909805,-1346864,hydrographic,"Arroyo de la Yeguada","Arroyo de la Yeguada",official,-32.983333,-58.066667,UY-RN,,
-908927,-1344937,hydrographic,"Arroyo Sarandí de Caballero","Arroyo Sarandi de Caballero",variant,-33.159674,-56.643427,UY-DU,,
-909751,-1346751,settlement,"Villa Muñoz","Villa Munoz",official,-34.883333,-56.183333,UY-MO,,
-909157,-1345147,hydrographic,Sauce,Sauce,variant,-33.95,-55.666667,UY-FD,,
-909858,-1340726,hydrographic,"Cañada Honda","Canada Honda",variant,-31.531667,-56.431367,UY-SA,,
-908923,-1344928,hydrographic,"Arroyo Sarandí Chico","Arroyo Sarandi Chico",official,-34.057573,-54.58732,UY-MA,,
-908785,-1344603,hypsographic,"Isla Grande de Santa Maria","Isla Grande de Santa Maria",variant,-33.053699,-58.126717,UY-RN,,
-909109,-1345384,hydrographic,"Cañada del Sauce","Canada del Sauce",official,-30.486363,-57.268241,UY-AR,,
-909855,-1346965,hydrographic,"Arroyo del Zorro","Arroyo del Zorro",official,-34,-56.933333,UY-SJ,,
-909777,-1346798,hypsographic,"Isla Vizcaíno","Isla Vizcaino",variant,-33.364589,-58.37139,UY-RN,,
-909364,-1345915,hydrographic,"Arroyo del Tala","Arroyo del Tala",official,-34.351542,-56.45784,UY-SJ,,
-909390,-1345951,hydrographic,"Arroyo Tala de las Víboras","Arroyo Tala de las Viboras",official,-33.916667,-58.066667,UY-CO,,
-908869,-1344806,hydrographic,"Arroyo Sarandí","Arroyo Sarandi",official,-33.548375,-54.567118,UY-LA,,
-909695,-1345596,hydrographic,"Arroyo del Sauce Solo","Arroyo del Sauce Solo",variant,-33.85,-57.133333,UY-SO,,
-908919,-1344924,hydrographic,"Arroyo Sarandí Chico","Arroyo Sarandi Chico",official,-32.983333,-56,UY-DU,,
-909356,-1345905,hydrographic,"Arroyo del Tala","Arroyo del Tala",official,-33.568804,-53.552258,UY-RO,,
-909819,-1346889,spot,Yi,Yi,variant,-33.35,-56.5,UY-DU,,
-909581,-1346370,hypsographic,"Cuchilla Tres Cruces","Cuchilla Tres Cruces",official,-30.543043,-56.783046,UY-AR,,
-909793,-1346834,hydrographic,"Arroyo del Yaguareté Grande","Arroyo del Yaguarete Grande",variant,-33.121012,-58.27521,UY-RN,,
-909056,-1345209,hydrographic,"Arroyo Sauce","Arroyo Sauce",variant,-33.191544,-56.891373,UY-DU,,
-909738,-1346701,hydrographic,Vidal,Vidal,variant,-34.407908,-56.384929,UY-CA,,
-909023,-1345266,hydrographic,"Arroyo del Sauce","Arroyo del Sauce",official,-32.027588,-56.435435,UY-PA,,
-909688,-1346597,hypsographic,"Cuchilla del Vejicas","Cuchilla del Vejicas",variant,-34.264964,-55.673674,UY-CA,,
-909508,-1346210,spot,Toledo,Toledo,variant,-34.747944,-56.088986,UY-CA,,
-909763,-1346770,spot,"Parada Viñas","Parada Vinas",official,-31.35,-57.833333,UY-SA,,
-908868,-1344848,hydrographic,"Arroyo del Sarandí","Arroyo del Sarandi",variant,-33.358214,-54.315641,UY-TT,,
-909156,-1345372,hydrographic,"Cañada Sauce","Canada Sauce",variant,-33.816667,-57.833333,UY-SO,,
-909899,-1343749,hydrographic,"Laguna del Potrero","Laguna del Potrero",variant,-34.814233,-55.056868,UY-MA,,
-909326,-1345839,hydrographic,Tala,Tala,variant,-33.5,-56.25,UY-FD,,
-909814,-1346874,hypsographic,"Cuchilla del Yerbal","Cuchilla del Yerbal",variant,-33.866667,-54.733333,UY-LA,,
-909126,-1345251,hydrographic,"Arroyo del Sauce","Arroyo del Sauce",variant,-31.566667,-55.45,UY-RV,,
-909525,-1346255,hypsographic,"Cerro del Toro Muerto","Cerro del Toro Muerto",official,-33.85,-53.733333,UY-RO,,
-909596,-1346404,hydrographic,Trinidad,Trinidad,variant,-31.61898,-55.937814,UY-TA,,
-908862,-1344842,hydrographic,"Arroyo del Sarandí","Arroyo del Sarandi",official,-32.466667,-55.166667,UY-CL,,
-909115,-1345017,hydrographic,Sauce,Sauce,variant,-31.153302,-57.243967,UY-SA,,
-909098,-1345174,hydrographic,Sauce,Sauce,variant,-34.652624,-55.487058,UY-CA,,
-909116,-1345018,hydrographic,Sauce,Sauce,variant,-31.183333,-56.883333,UY-SA,,
-908980,-1345062,hydrographic,Sauce,Sauce,variant,-32.166667,-56.133333,UY-TA,,
-909294,-1345740,spot,"Estación Sosa Díaz","Estacion Sosa Diaz",official,-34.721374,-55.832693,UY-CA,,
-909466,-1346122,hydrographic,"Tierras Coloradas","Tierras Coloradas",variant,-31.95,-57.116667,UY-PA,,
-909749,-1346742,settlement,"Villa Elisa","Villa Elisa",official,-32.333333,-57.05,UY-RN,,
-909222,-1345597,hydrographic,"Arroyo del Sauce Solo","Arroyo del Sauce Solo",variant,-34.133333,-55.871258,UY-FD,,
-909396,-1345966,hydrographic,Talas,Talas,variant,-31.29641,-57.713921,UY-SA,,
-909218,-1345577,hydrographic,"Zanja Sauces","Zanja Sauces",official,-30.516667,-57.033333,UY-AR,,
-909406,-1345992,hydrographic,"Arroyo Talita","Arroyo Talita",official,-33.731799,-53.862998,UY-RO,,
-909731,-1346682,hypsographic,"Cerro Vichadero","Cerro Vichadero",official,-33.45,-53.883333,UY-RO,,
-908846,-1344809,hydrographic,"Arroyo Sarandí","Arroyo Sarandi",official,-33.66414,-53.531741,UY-RO,,
-909024,-1345267,hydrographic,"Arroyo del Sauce","Arroyo del Sauce",official,-32.03865,-57.095096,UY-PA,,
-909140,-1345427,hydrographic,"Cañada del Sauce","Canada del Sauce",official,-32.316667,-55.95,UY-TA,,
-909448,-1345826,hydrographic,Tala,Tala,variant,-32.516667,-56.483333,UY-TA,,
-909678,-1346578,hydrographic,"Arroyo de los Vargas","Arroyo de los Vargas",official,-31.483333,-55.35,UY-RV,,
-908977,-1345265,hydrographic,"Arroyo del Sauce","Arroyo del Sauce",variant,-31.95,-55.966667,UY-TA,,
-909183,-1340678,hydrographic,Gutiérrez,Gutierrez,variant,-31.569079,-57.645528,UY-SA,,
-909241,-1345634,settlement,Savago,Savago,variant,-34.833333,-56.233333,UY-MO,,
-908934,-1344945,hydrographic,"Sarandí de la Horqueta","Sarandi de la Horqueta",official,-33.216667,-53.583333,UY-RO,,
-909356,-1345946,hydrographic,"Tala Arroyo de la","Tala Arroyo de la",variant,-33.568804,-53.552258,UY-RO,,
-909240,-1345632,hydrographic,"Cañada del Sauzal Grande","Canada del Sauzal Grande",variant,-30.278395,-57.493689,UY-AR,,
-909585,-1346365,hydrographic,"Arroyo Tres Cruces","Arroyo Tres Cruces",variant,-30.283333,-57.2,UY-AR,,
-908789,-1344618,hydrographic,"Arroyo Santa Rosa","Arroyo Santa Rosa",official,-33.783333,-55.716667,UY-FD,,
-909449,-1346092,hydrographic,"Cañada de la Teja","Canada de la Teja",official,-32.766667,-53.766667,UY-CL,,
-909827,-1346902,hypsographic,"Cuchilla de Yucutujá","Cuchilla de Yucutuja",variant,-30.555125,-57.160227,UY-AR,,
-908958,-1344990,hydrographic,"Arroyo Sarandí Guacho","Arroyo Sarandi Guacho",official,-32.916667,-53.65,UY-TT,,
-909079,-1345333,hydrographic,"Arroyo del Sauce","Arroyo del Sauce",official,-33.783423,-54.58243,UY-LA,,
-909223,16658414,hydrographic,"Arroyo del Sauce Solo","Arroyo del Sauce Solo",official,-34.470914,-55.557266,UY-CA,,
-909236,-1345609,hydrographic,Sauzal,Sauzal,variant,-30.541553,-57.037751,UY-AR,,
-909474,-1346143,hydrographic,Tigre,Tigre,variant,-34.751822,-56.522821,UY-SJ,,
-909380,-1345835,hydrographic,Tala,Tala,variant,-33.366667,-56.3,UY-DU,,
-909569,-1346345,spot,"Estación Tres Árboles","Estacion Tres Arboles",official,-32.4,-56.716667,UY-RN,,
-909602,-1343386,hydrographic,"Arroyo Piedra del Toro","Arroyo Piedra del Toro",variant,-34.792022,-55.869045,UY-CA,,
-909790,-1346826,hydrographic,"Arroyo Yacot","Arroyo Yacot",official,-30.108072,-56.897434,UY-AR,,
-909232,-1346318,hydrographic,"Arroyo de las Totoras","Arroyo de las Totoras",variant,-31.783333,-57.033333,UY-PA,,
-908946,-1344965,hydrographic,"Arroyo Sarandí de Tejera","Arroyo Sarandi de Tejera",official,-33.333333,-56.466667,UY-DU,,
-909033,-1345794,hydrographic,"Arroyo del Tacuarí","Arroyo del Tacuari",variant,-32.366667,-54.2,UY-CL,,
-908979,-1344699,hydrographic,Sarandí,Sarandi,variant,-32.152116,-57.585188,UY-PA,,
-909252,-1345661,hydrographic,Sequeira,Sequeira,variant,-31.034485,-56.888196,UY-AR,,
-909383,-1345941,hypsographic,"Cerro del Tala","Cerro del Tala",variant,-32.425847,-56.633472,UY-PA,,
-909060,-1344275,hydrographic,Salto,Salto,variant,-33.250562,-57.265731,UY-FS,,
-909072,-1345124,hydrographic,Sauce,Sauce,variant,-33.516667,-55.366667,UY-FD,,
-909245,-1341602,hypsographic,"Little Castillo","Little Castillo",variant,-34.351534,-53.760394,UY-RO,,
-908955,-1344986,hydrographic,"Arroyo del Sarandi Grande","Arroyo del Sarandi Grande",variant,-34.370655,-57.310678,UY-CO,,
-909596,-1346407,hydrographic,"Bañado de Trinidad","Banado de Trinidad",variant,-31.61898,-55.937814,UY-TA,,
-909428,-1346034,hydrographic,Tapera,Tapera,variant,-31.316837,-57.186736,UY-SA,,
-909720,-1346665,spot,"Estación Verdún","Estacion Verdun",official,-34.35,-55.283333,UY-LA,,
-908992,-1345165,hydrographic,Sauce,Sauce,variant,-34.281526,-56.740703,UY-SJ,,
-909013,-1346096,hydrographic,Tembetarí,Tembetari,variant,-31.693059,-57.339234,UY-SA,,
-909708,16772855,hypsographic,"Cerros de Vera","Cerros de Vera",official,-31.613876,-56.7873,UY-SA,,
-909719,-1346663,hypsographic,"Cerro Verdún","Cerro Verdun",official,-34.372963,-55.291553,UY-LA,,
-909309,-1344353,settlement,"San Fructuoso","San Fructuoso",variant,-31.716944,-55.981111,UY-TA,,
-909639,-1346489,hydrographic,Uruguay,Uruguay,colloquial,-34.2,-58.3,UY-000,,
-908778,-1344583,hydrographic,"Río Santa Lucía","Rio Santa Lucia",official,-34.786111,-56.358333,UY-000,,
-909178,-1345481,hydrographic,"Arroyo Sauce Caviloso","Arroyo Sauce Caviloso",official,-33.951698,-56.151887,UY-FD,,
-909313,-1345785,hydrographic,"Arroyo Tacuarembó Chico","Arroyo Tacuarembo Chico",official,-31.616667,-56.233333,UY-TA,,
-909833,-1346913,settlement,"Zanja Honda","Zanja Honda",official,-33.794375,-57.551134,UY-SO,,
-909572,-1346349,hydrographic,"Tres Capones","Tres Capones",variant,-30.962071,-57.223222,UY-AR,,
-908818,-1344766,hydrographic,"Arroyo Sarandí","Arroyo Sarandi",official,-30.759355,-57.722915,UY-SA,,
-909796,-1346842,hydrographic,"Bocas del Yaguari","Bocas del Yaguari",variant,-33.366667,-58.416667,UY-RN,,
-909648,-1346516,hydrographic,Valdez,Valdez,variant,-34.521588,-56.60194,UY-SJ,,
-908999,-1345236,hydrographic,"Arroyo Sauce","Arroyo Sauce",official,-34.578486,-56.973514,UY-SJ,,
-909305,-1345764,hydrographic,"Gajo del Sur","Gajo del Sur",variant,-31.52463,-56.030745,UY-TA,,
-908886,-1344695,hydrographic,Sarandi,Sarandi,variant,-32.016667,-54.666667,UY-TA,,
-909262,-1338506,hydrographic,Campamento,Campamento,variant,-34.643023,-54.536655,UY-MA,,
-909335,-1345883,hydrographic,"Arroyo del Tala","Arroyo del Tala",official,-32.146435,-56.516922,UY-PA,,
-909465,-1346123,hydrographic,"Arroyo Tierras Coloradas","Arroyo Tierras Coloradas",official,-31.794688,-57.741323,UY-PA,,
-909625,-1346464,hypsographic,"Cerro Tupambaé","Cerro Tupambae",official,-34.672351,-55.336417,UY-MA,,
-909358,-1345844,hydrographic,Tala,Tala,variant,-33.6,-56.783333,UY-FS,,
-909757,-1346762,hypsographic,"Cuchilla de Villasboas","Cuchilla de Villasboas",variant,-33.566667,-56.766667,UY-FS,,
-908987,-1345106,hydrographic,Sauce,Sauce,variant,-33.2,-57.166667,UY-FS,,
-909247,-1345220,hydrographic,"Arroyo Sauce","Arroyo Sauce",variant,-33.618443,-53.532751,UY-RO,,
-909235,-1345607,hydrographic,Sauzal,Sauzal,variant,-30.304625,-57.410219,UY-AR,,
-909087,-1345343,hydrographic,"Arroyo del Sauce","Arroyo del Sauce",official,-34.031728,-57.401021,UY-CO,,
-909527,-1346244,hydrographic,"Arroyito del Toro","Arroyito del Toro",variant,-31.583333,-57.666667,UY-PA,,
-908941,-1344730,hydrographic,Sarandí,Sarandi,variant,-33,-56.133333,UY-DU,,
-909706,16772856,settlement,"Cerros de Vera","Cerros de Vera",official,-31.599243,-56.810576,UY-SA,,
-909779,-1346802,settlement,"Wenceslao Silveira","Wenceslao Silveira",official,-32.516667,-54.583333,UY-MO,,
-908792,-1344622,hypsographic,"Playa Santa Rosa","Playa Santa Rosa",official,-34.883333,-56,UY-CA,,
-909215,-1345572,hydrographic,"Arroyo del Sauce Plantado","Arroyo del Sauce Plantado",official,-33.95,-55.533333,UY-FD,,
-909281,-1345713,hydrographic,"Arroyo Solís Grande","Arroyo Solis Grande",official,-34.416667,-55.55,UY-000,,
-909660,-1346541,hydrographic,"Arroyo Valentín Chico","Arroyo Valentin Chico",official,-31.164875,-57.267307,UY-SA,,
-908807,-1344653,hydrographic,"Arroyo Santos","Arroyo Santos",variant,-32.75,-53.5,UY-CL,,
-909300,-1345716,hydrographic,"Arroyo Solo","Arroyo Solo",variant,-31.85,-58.05,UY-PA,,
-909105,-1345375,hydrographic,"Cañada Sauce","Canada Sauce",official,-33.916667,-58.066667,UY-CO,,
-909010,-1345403,hydrographic,"Cañada del Sauce","Canada del Sauce",variant,-31.566667,-54.533333,UY-RV,,
-909365,-1345955,hydrographic,"Arroyo del Tala del San José","Arroyo del Tala del San Jose",variant,-34.353408,-56.690726,UY-SJ,,
-909270,-1345689,spot,"Playa Solari","Playa Solari",variant,-34.65,-54.183333,UY-RO,,
-909723,-1346669,hydrographic,"Arroyo de las Víboras","Arroyo de las Viboras",official,-33.950865,-58.365981,UY-CO,,
-909107,-1345378,hydrographic,"Cañada del Sauce","Canada del Sauce",official,-30.133333,-57,UY-AR,,
-909233,-1344171,hydrographic,"Cañada del Rodeo","Canada del Rodeo",variant,-30.313055,-57.058615,UY-AR,,
-909234,-1345612,hydrographic,Sauzal,Sauzal,variant,-31.383333,-55.483333,UY-RV,,
-909664,-1346536,hypsographic,"Cerros de Valentín","Cerros de Valentin",variant,-31.35,-57.233333,UY-SA,,
-909206,-1345548,hydrographic,"Arroyo del Sauce de Veras","Arroyo del Sauce de Veras",variant,-32.033333,-55.65,UY-TA,,
-909517,-1346231,hypsographic,Topador,Topador,variant,-30.285902,-56.819882,UY-AR,,
-909113,-1345388,hydrographic,"Cañada del Sauce","Canada del Sauce",official,-30.922528,-57.065626,UY-AR,,
-909296,-1345744,settlement,Soto,Soto,official,-31.033333,-56.6,UY-SA,,
-909459,-1346110,hypsographic,"Cerros Tia Josefa","Cerros Tia Josefa",variant,-34.015661,-56.755299,UY-SJ,,
-909253,-1345664,hypsographic,"Cuchilla Sequeira","Cuchilla Sequeira",official,-30.911221,-56.899121,UY-AR,,
-909310,14102943,administrative_region,Tacuarembó,Tacuarembo,official,-32.083333,-55.75,UY-TA,,
-909545,-1346314,hydrographic,"del Totoral","del Totoral",variant,-32.76739,-56.839848,UY-RN,,
-909812,-1346877,hydrographic,"Yerbal Chico","Yerbal Chico",variant,-33.1,-54.4,UY-TT,,
-909221,-1345591,hydrographic,"Arroyo Sauce Solo","Arroyo Sauce Solo",official,-32.466667,-56.016667,UY-TA,,
-909603,-1346417,settlement,Tropezón,Tropezon,official,-34.4,-56.533333,UY-SJ,,
-909829,-1346905,hydrographic,"Arroyo Yucutujá Mini","Arroyo Yucutuja Mini",official,-30.426664,-57.308431,UY-AR,,
-908959,-1344992,hydrographic,Sarandizal,Sarandizal,variant,-33.183333,-56.2,UY-DU,,
-908866,-1344796,hydrographic,"Arroyo Sarandí","Arroyo Sarandi",variant,-32.899244,-56.605053,UY-DU,,
-909781,-1346813,hydrographic,"Cañada del Yacaré","Canada del Yacare",official,-30.543899,-57.452091,UY-AR,,
-909084,-1345338,hydrographic,"Arroyo del Sauce","Arroyo del Sauce",official,-33.840733,-58.416926,UY-000,,
-909837,-1340736,hydrographic,"Zanja Honda","Zanja Honda",variant,-32.016667,-54.5,UY-CL,,
-908967,-1345090,hydrographic,Sauce,Sauce,official,-32.8,-57.75,UY-RN,,
-909658,-1346537,hypsographic,"Cuchilla Valentín","Cuchilla Valentin",official,-33.266667,-55.25,UY-FD,,
-908796,-1344631,spot,"Fortaleza de Santa Teresa","Fortaleza de Santa Teresa",official,-33.972706,-53.548613,UY-RO,,
-909554,-1346321,hydrographic,Tranquera,Tranquera,variant,-33.835339,-53.717412,UY-RO,,
-909659,-1346538,hypsographic,"Cuchilla de Valentín","Cuchilla de Valentin",official,-31.5,-57.083333,UY-SA,,
-909858,-1346969,hydrographic,"Cañada del Zorro","Canada del Zorro",official,-31.531667,-56.431367,UY-SA,,
-908904,-1344901,hypsographic,"Cuchilla de Sarandí","Cuchilla de Sarandi",variant,-33.7,-56.216667,UY-FD,,
-909466,-1346125,hydrographic,"Cañada Tierras Coloradas","Canada Tierras Coloradas",official,-31.95,-57.116667,UY-PA,,
-909544,-1346304,hydrographic,"Arroyo Totoral","Arroyo Totoral",official,-34.65,-55.983333,UY-CA,,
-909317,-1345797,hydrographic,"Río Tacuarí","Rio Tacuari",official,-32.766667,-53.3,UY-000,,
-909678,-1346576,hydrographic,Vargas,Vargas,variant,-31.483333,-55.35,UY-RV,,
-909367,-1345918,hydrographic,"Arroyo del Tala","Arroyo del Tala",official,-34.46027,-56.841403,UY-SJ,,
-909783,-1346806,hydrographic,Yacaré,Yacare,variant,-31.2,-57.866667,UY-SA,,
-909311,-1345780,spot,"Estación Tacuarembó","Estacion Tacuarembo",official,-31.666667,-55.833333,UY-TA,,
-909798,-1346846,hypsographic,"Cuchilla Yaguarí","Cuchilla Yaguari",official,-31.466667,-55.083333,UY-RV,,
-909116,-1345392,hydrographic,"Cañada del Sauce","Canada del Sauce",official,-31.183333,-56.883333,UY-SA,,
-909209,-1345557,hydrographic,"de Saucedo","de Saucedo",variant,-31.00955,-57.507349,UY-SA,,
-909389,-1345948,hydrographic,"Tala de Castro","Tala de Castro",variant,-33.516667,-56.183333,UY-FD,,
-909421,-1346025,hypsographic,"Sierra de Tambores","Sierra de Tambores",official,-31.788313,-56.167498,UY-TA,,
-909193,-1341168,hydrographic,Juncal,Juncal,variant,-34.433333,-57.133333,UY-SJ,,
-908794,-1344628,hydrographic,"Bañado de Santa Teresa","Banado de Santa Teresa",official,-33.941279,-53.686302,UY-RO,,
-909121,-1345398,hydrographic,"Cañada del Sauce","Canada del Sauce",variant,-31.347631,-57.029895,UY-SA,,
-909506,-1346213,hydrographic,"Arroyo de Toledo","Arroyo de Toledo",official,-34.811944,-56.053333,UY-000,,
-909507,-1346214,hydrographic,"Cañada Toledo","Canada Toledo",official,-30.733333,-56.1,UY-AR,,
-909668,-1346554,hydrographic,"Cañada Valenzuela","Canada Valenzuela",variant,-34.566667,-56.166667,UY-CA,,
-909683,-1346978,spot,"25 de Agosto","25 de Agosto",variant,-34.4,-56.4,UY-FD,,
-908903,-1344898,hydrographic,"Cañada del Sarandí","Canada del Sarandi",variant,-33.901264,-54.414352,UY-RO,,
-909673,-1346566,hydrographic,"Canal de Valizas","Canal de Valizas",variant,-34.343482,-53.787678,UY-RO,,
-909458,-1346112,hydrographic,"Tía Juanita","Tia Juanita",variant,-33.045082,-56.965548,UY-DU,,
-909148,-1345436,hydrographic,"Cañada del Sauce","Canada del Sauce",official,-32.583333,-55.583333,UY-DU,,
-909728,-1346679,hypsographic,"Cerro Vichadero","Cerro Vichadero",official,-31.878326,-56.919217,UY-PA,,
-908892,-1344883,hydrographic,"Cañada Sarandí","Canada Sarandi",official,-33.15,-57.916667,UY-SO,,
-909605,-1346422,hydrographic,"Arroyo Tucurú Grande","Arroyo Tucuru Grande",variant,-32.316667,-55.4,UY-TA,,
-909681,-1346586,hydrographic,Vázquez,Vazquez,variant,-34.333333,-56.033333,UY-CA,,
-909071,-1343405,hydrographic,Piedras,Piedras,variant,-33.466667,-56.183333,UY-FD,,
-909093,-1345474,hydrographic,"Sauce Arroyo","Sauce Arroyo",variant,-34.185444,-58.055431,UY-CO,,
-909518,-1346236,hydrographic,"Arroyo Toribio de la Llana","Arroyo Toribio de la Llana",official,-34.301539,-54.817243,UY-LA,,
-909781,-1346810,hydrographic,"Cañada Yacaré","Canada Yacare",variant,-30.543899,-57.452091,UY-AR,,
-908887,-1344878,hydrographic,"Cañada Sarandí","Canada Sarandi",official,-32.25,-56.683333,UY-PA,,
-908912,-1344932,hydrographic,"Cañada del Sarandi Chico","Canada del Sarandi Chico",variant,-30.868985,-56.65181,UY-AR,,
-909076,-1345131,hydrographic,Sauce,Sauce,variant,-33.683333,-55.2,UY-LA,,
-909128,-1338028,hydrographic,Baltasar,Baltasar,variant,-31.65,-55.016667,UY-RV,,
-908897,-1344877,hydrographic,"Cañada Sarandí","Canada Sarandi",variant,-32.187832,-57.044522,UY-PA,,
-909602,-1346416,hydrographic,"Arroyo Tropa Vieja","Arroyo Tropa Vieja",official,-34.792022,-55.869045,UY-CA,,
-908974,-1345168,hydrographic,Sauce,Sauce,official,-34.45,-54.25,UY-RO,,
-908952,-1344973,hydrographic,"Sarandí Grande","Sarandi Grande",variant,-33.283564,-57.895088,UY-SO,,
-909671,-1338006,hydrographic,"Arroyo Balija","Arroyo Balija",variant,-33.15,-55.016667,UY-TT,,
-909853,-1346954,hydrographic,Zapucay,Zapucay,variant,-31.85,-55.45,UY-TA,,
-909588,-1346383,hydrographic,"Arroyo Tres Hermanos","Arroyo Tres Hermanos",official,-32.483333,-55.283333,UY-CL,,
-909378,16747656,hydrographic,"Arroyo del Tala","Arroyo del Tala",official,-32.740636,-56.842066,UY-RN,,
-909747,-1346730,settlement,"Villa del Cerro","Villa del Cerro",official,-34.875,-56.258889,UY-MO,,
-909052,-1345205,hydrographic,"Arroyo Sauce","Arroyo Sauce",variant,-33.078707,-57.0912,UY-DU,,
-908880,-1344768,hydrographic,"Arroyo Sarandí","Arroyo Sarandi",variant,-31.314614,-56.848894,UY-SA,,
-909784,-1346816,hydrographic,"Yacaré Chico","Yacare Chico",variant,-30.121403,-57.016676,UY-AR,,
-909085,-1345339,hydrographic,"Arroyo del Sauce","Arroyo del Sauce",official,-33.868239,-55.976163,UY-FD,,
-909088,-1345152,hydrographic,Sauce,Sauce,variant,-34.05,-53.733333,UY-RO,,
-909168,-1341125,hydrographic,"Juan Lacaze","Juan Lacaze",variant,-34.439631,-57.443741,UY-CO,,
-909673,-1338009,hydrographic,"Arroyo Balizas","Arroyo Balizas",variant,-34.343482,-53.787678,UY-RO,,
-909353,-1345902,hydrographic,"Arroyo del Tala","Arroyo del Tala",variant,-33.527902,-57.250187,UY-SO,,
-908784,-1344602,hypsographic,"Isla Chica de Santa Maria","Isla Chica de Santa Maria",variant,-33.039756,-58.105856,UY-RN,,
-909657,-1346532,hydrographic,"Arroyo Valentín","Arroyo Valentin",official,-34.023618,-53.799615,UY-RO,,
-908810,16798140,settlement,"Sarandí del Arapey","Sarandi del Arapey",official,-30.987503,-56.215373,UY-SA,,
-909191,-1345068,hydrographic,Sauce,Sauce,variant,-32.3,-54.25,UY-CL,,
-909845,-1346940,settlement,Zapará,Zapara,official,-31.693814,-56.038194,UY-TA,,
-909122,-1345027,hydrographic,Sauce,Sauce,variant,-31.433333,-56.916667,UY-SA,,
-909778,-1346801,settlement,"Vuelta del Palmar","Vuelta del Palmar",official,-34.197863,-53.786701,UY-RO,,
-908795,-1344629,spot,"Estación Santa Teresa","Estacion Santa Teresa",official,-34,-56.266667,UY-FD,,
-909741,-1346708,hydrographic,"Cañada de los Vieras","Canada de los Vieras",variant,-33.780573,-54.560178,UY-LA,,
-909091,-1345158,hydrographic,Sauce,Sauce,variant,-34.142379,-57.874018,UY-CO,,
-908954,-1344974,hydrographic,"Sarandí Grande","Sarandi Grande",variant,-34.036359,-54.584522,UY-MA,,
-909463,-1346119,hydrographic,"Cañada de las Tierras Blancas","Canada de las Tierras Blancas",official,-32.238811,-56.864709,UY-PA,,
-909041,-1344355,hydrographic,"San Gabriel","San Gabriel",variant,-32.7,-57.283333,UY-RN,,
-909310,-1345776,administrative_region,Tacuarembo,Tacuarembo,variant,-32.083333,-55.75,UY-TA,,
-909199,-1345528,hydrographic,"Sauce del Yí","Sauce del Yi",variant,-33.4,-55.766667,UY-FD,,
-909141,-1345071,hydrographic,Sauce,Sauce,variant,-32.333333,-55.816667,UY-TA,,
-909441,-1345756,settlement,Suárez,Suarez,variant,-34.265531,-57.61274,UY-CO,,
-909755,-1346758,hydrographic,"Arroyo de Villasboas","Arroyo de Villasboas",official,-33.30366,-56.677319,UY-DU,,
-909369,-1345922,hydrographic,"Cañada Tala","Canada Tala",variant,-31.8678,-56.7483,UY-PA,,
-909688,16667718,hypsographic,"Cuchilla del Vejigas","Cuchilla del Vejigas",official,-34.264964,-55.673674,UY-CA,,
-909899,-1343748,hydrographic,"Laguna Potrero","Laguna Potrero",variant,-34.814233,-55.056868,UY-MA,,
-909530,-1346264,hypsographic,"Islas Torres","Islas Torres",variant,-34.35,-53.75,UY-RO,,
-909771,-1346782,hydrographic,Viraró,Viraro,variant,-32.819065,-57.321193,UY-RN,,
-909161,-1345376,hydrographic,"Cañada Sauce","Canada Sauce",variant,-34.06574,-56.817462,UY-SJ,,
-909205,-1345540,settlement,"Sauce de Queguay","Sauce de Queguay",variant,-32.091576,-57.611721,UY-PA,,
-909063,-1345314,hydrographic,"Arroyo del Sauce","Arroyo del Sauce",official,-33.3,-55.533333,UY-DU,,
-909319,-1345800,hypsographic,"Roca Tagus","Roca Tagus",official,-34.916667,-56.25,UY-MO,,
-909837,-1340727,hydrographic,"Cañada Honda","Canada Honda",variant,-32.016667,-54.5,UY-CL,,
-909082,-1345138,hydrographic,Sauce,Sauce,variant,-33.82385,-57.132955,UY-FS,,
-909767,-1346718,hydrographic,"Cañada Vilaró","Canada Vilaro",variant,-32.233333,-55.933333,UY-TA,,
-909346,-1345895,hydrographic,"Arroyo del Tala","Arroyo del Tala",official,-33.178758,-56.956963,UY-FS,,
-909556,-1343167,settlement,"Paso Tranqueras","Paso Tranqueras",variant,-31.2,-55.75,UY-RV,,
-908810,-1344666,settlement,Sarandí,Sarandi,variant,-30.987503,-56.215373,UY-SA,,
-909337,-1345934,hydrographic,"Cañada del Tala","Canada del Tala",variant,-32.275081,-56.809231,UY-PA,,
-909308,-1345775,hydrographic,"Cañada de los Tacuaras","Canada de los Tacuaras",variant,-33.883333,-57.666667,UY-SO,,
-908808,-1344655,hydrographic,"Cañada Santos","Canada Santos",variant,-32.316667,-56.75,UY-PA,,
-908832,-1344789,hydrographic,"Arroyo Sarandí","Arroyo Sarandi",official,-32.55,-56.95,UY-RN,,
-908930,-1344767,hydrographic,"Arroyo Sarandí","Arroyo Sarandi",official,-30.78385,-56.760462,UY-AR,,
-909663,-1346535,hypsographic,"Cerros de Valentín","Cerros de Valentin",variant,-33.266667,-55.1,UY-FD,,
-909545,-1346305,hydrographic,"Arroyo del Totoral","Arroyo del Totoral",official,-32.76739,-56.839848,UY-RN,,
-909406,-1344745,hydrographic,Sarandí,Sarandi,variant,-33.731799,-53.862998,UY-RO,,
-909566,-1346342,hydrographic,"Arroyo Tres Árboles","Arroyo Tres Arboles",official,-32.781348,-56.731285,UY-RN,,
-909173,-1345470,hydrographic,"Zanja del Sauce","Zanja del Sauce",official,-30.313973,-57.19398,UY-AR,,
-909490,-1346174,hypsographic,"Punta del Tigre","Punta del Tigre",official,-34.759281,-56.558271,UY-SJ,,
-909222,-1345593,hydrographic,"Arroyo Sauce Solo","Arroyo Sauce Solo",official,-34.133333,-55.871258,UY-FD,,
-909818,-1346888,hydrographic,"Arroyo Yerbalito","Arroyo Yerbalito",official,-33.016667,-54.416667,UY-TT,,
-909068,-1345122,hydrographic,Sauce,Sauce,variant,-33.433333,-55.516667,UY-FD,,
-909432,-1346040,hydrographic,Tapera,Tapera,variant,-34.227036,-53.933799,UY-RO,,
-909120,-1339604,hydrographic,Coronilla,Coronilla,variant,-31.392891,-56.73543,UY-SA,,
-909648,-1346514,hydrographic,"Arroyo Valdes del San José","Arroyo Valdes del San Jose",variant,-34.521588,-56.60194,UY-SJ,,
-909724,-1346670,hypsographic,"Cerro Víboras","Cerro Viboras",variant,-33.416667,-53.716667,UY-RO,,
-909110,-1345010,hydrographic,Sauce,Sauce,variant,-30.633154,-57.760718,UY-AR,,
-908815,-1344763,hydrographic,"Arroyo Sarandí","Arroyo Sarandi",official,-30.333333,-56.75,UY-AR,,
-909290,-1345731,hydrographic,Sorpresa,Sorpresa,variant,-32.066667,-57.05,UY-PA,,
-909234,-1345623,hydrographic,"Bañado del Sauzal","Banado del Sauzal",official,-31.383333,-55.483333,UY-RV,,
-909233,-1345182,hydrographic,"Arroyo Sauce","Arroyo Sauce",variant,-30.313055,-57.058615,UY-AR,,
-908985,-1345208,hydrographic,"Arroyo Sauce","Arroyo Sauce",official,-33.183333,-55.766667,UY-DU,,
-909190,-1345227,hydrographic,"Arroyo Sauce","Arroyo Sauce",variant,-34.19088,-55.60629,UY-FD,,
-909458,16746269,hydrographic,"Cañada Tía Jacinta","Canada Tia Jacinta",official,-33.045082,-56.965548,UY-DU,,
-909500,8028464,hypsographic,"Isla Timotéo Domínguez","Isla Timoteo Dominguez",official,-34.17203659,-58.25652181,UY-CO,,
-909634,-1346480,hydrographic,"Zanja Uña de Gato","Zanja Una de Gato",official,-30.85,-57.483333,UY-SA,,
-909086,-1345341,hydrographic,"Arroyo del Sauce","Arroyo del Sauce",official,-33.921046,-56.751323,UY-FS,,
-909013,-1345039,hydrographic,Sauce,Sauce,variant,-31.693059,-57.339234,UY-SA,,
-909434,-1346053,hydrographic,Tapes,Tapes,variant,-33.177372,-56.915974,UY-DU,,
-909712,-1346652,hypsographic,"Cerro Verde","Cerro Verde",official,-32,-56.483333,UY-PA,,
-909303,-1345754,hydrographic,"Speedwell Rock","Speedwell Rock",variant,-34.666667,-54.116667,UY-RO,,
-909582,-1346374,hypsographic,"Cuchilla de Las Tres Cruces","Cuchilla de Las Tres Cruces",official,-31.443972,-55.990027,UY-TA,,
-909528,-1346245,hypsographic,"Cerro del Toro","Cerro del Toro",official,-32.325105,-56.949277,UY-PA,,
-909646,-1346510,hydrographic,"Cañada de Valdenegro","Canada de Valdenegro",official,-34.616667,-55.933333,UY-CA,,
-909537,-1346285,hydrographic,"Cañada de la Totora","Canada de la Totora",official,-34.068031,-57.586818,UY-CO,,
-909007,-1345247,hydrographic,"Arroyo del Sauce","Arroyo del Sauce",official,-31.483333,-54.966667,UY-RV,,
-909173,-1345003,hydrographic,Sauce,Sauce,variant,-30.313973,-57.19398,UY-AR,,
-908804,-1344644,hypsographic,"Cuchilla Santo Domingo","Cuchilla Santo Domingo",official,-32.016667,-55.683333,UY-TA,,
-909780,-1346809,hydrographic,"Arroyo del Yacaré","Arroyo del Yacare",variant,-33.033333,-58.066667,UY-RN,,
-908940,-1344911,hydrographic,"Sarandí Amarales","Sarandi Amarales",variant,-33.928008,-54.162244,UY-RO,,
-909102,-1345040,hydrographic,Sauce,Sauce,variant,-31.716667,-55.116667,UY-RV,,
-909085,-1343953,hydrographic,"Arroyo de Quiroga","Arroyo de Quiroga",variant,-33.868239,-55.976163,UY-FD,,
-908953,-1344861,hydrographic,"Arroyuelo del Sarandí","Arroyuelo del Sarandi",variant,-33.856837,-56.900913,UY-FS,,
-909136,-1345422,hydrographic,"Cañada del Sauce","Canada del Sauce",official,-32.133333,-57.916667,UY-PA,,
-909723,-1346668,hydrographic,"Arroyo Víboras","Arroyo Viboras",variant,-33.950865,-58.365981,UY-CO,,
-908835,-1344792,hydrographic,"Arroyo Sarandí","Arroyo Sarandi",official,-32.733333,-57.483333,UY-RN,,
-909399,16797213,hydrographic,"Zanja de los Talas","Zanja de los Talas",official,-31.038324,-56.967277,UY-AR,,
-909003,-1345242,hydrographic,"Arroyo del Sauce","Arroyo del Sauce",official,-30.771958,-56.610592,UY-AR,,
-909144,-1345431,hydrographic,"Cañada del Sauce","Canada del Sauce",official,-32.533333,-55.366667,UY-DU,,
-909147,-1345435,hydrographic,"Cañada del Sauce","Canada del Sauce",official,-32.583333,-54.05,UY-MO,,
-908899,-1344894,hydrographic,"Cañada del Sarandí","Canada del Sarandi",official,-32.466667,-55.4,UY-TA,,
-908976,-1345187,hydrographic,"Arroyo Sauce","Arroyo Sauce",variant,-31.779508,-57.138574,UY-SA,,
-908971,-1345149,hydrographic,Sauce,Sauce,official,-33.95,-56.85,UY-FS,,
-909638,-1338056,administrative_region,"Banda Oriental","Banda Oriental",variant,-33,-56,UY-000,,
-909091,-1345226,hydrographic,"Arroyo Sauce","Arroyo Sauce",variant,-34.142379,-57.874018,UY-CO,,
-909175,-1345008,hydrographic,Sauce,Sauce,variant,-30.489474,-57.03983,UY-AR,,
-909053,-1345303,hydrographic,"Arroyo del Sauce","Arroyo del Sauce",official,-33.114778,-58.0483,UY-RN,,
-909276,-1345702,hydrographic,"Bajo Solís","Bajo Solis",official,-34.833333,-55.466667,UY-CA,,
-909404,-1345983,hydrographic,"Zanja de Talavera","Zanja de Talavera",official,-31.583333,-56.933333,UY-SA,,
-909039,-1338255,hydrographic,"Arroyo Blanquillo","Arroyo Blanquillo",variant,-32.657167,-56.590485,UY-TA,,
-908991,-1345225,hydrographic,"Arroyo Sauce","Arroyo Sauce",official,-34.078232,-57.623846,UY-CO,,
-908874,-1344858,hydrographic,"Arroyo del Sarandí","Arroyo del Sarandi",official,-34.694832,-55.021374,UY-MA,,
-909416,-1346006,hydrographic,"Arroyo Tamambuá","Arroyo Tamambua",variant,-30.4,-56.5,UY-AR,,
-908929,-1344939,settlement,"Sarandí de Cuaró","Sarandi de Cuaro",official,-30.874179,-56.659777,UY-AR,,
-909291,-1345734,hydrographic,"Arroyo de Sosa","Arroyo de Sosa",official,-34.824558,-54.744028,UY-MA,,
-909167,-1345459,spot,"Estación Sauce","Estacion Sauce",official,-34.64887,-56.058963,UY-CA,,
-908838,-1344860,hydrographic,"Arroyuelo del Sarandí","Arroyuelo del Sarandi",variant,-32.95,-56.033333,UY-DU,,
-909447,-1346085,hydrographic,Tarumán,Taruman,variant,-30.467869,-56.706011,UY-AR,,
-909018,-1345046,hydrographic,Sauce,Sauce,variant,-31.785119,-57.058599,UY-PA,,
-909372,-1345926,hydrographic,"Cañada del Tala","Canada del Tala",official,-30.674348,-56.9943,UY-AR,,
-909777,-1346799,hypsographic,"Isla del Vizcaíno","Isla del Vizcaino",official,-33.364589,-58.37139,UY-RN,,
-909830,-1346907,hydrographic,"Cañada de Zabala","Canada de Zabala",variant,-33.916667,-57.95,UY-CO,,
-909680,-1346587,hydrographic,"Arroyo Vázquez","Arroyo Vazquez",official,-31.757263,-58.029902,UY-PA,,
-909563,-1346338,administrative_region,"Departamento de Treinta y Tres","Departamento de Treinta y Tres",official,-33,-54.25,UY-TT,,
-908812,-1344670,settlement,Sarandí,Sarandi,official,-33.95,-57.9,UY-CO,,
-909244,-1345640,settlement,Scavino,Scavino,official,-34.370577,-57.043692,UY-SJ,,
-908844,-1344743,hydrographic,Sarandi,Sarandi,variant,-33.612785,-53.733547,UY-RO,,
-908882,-1344835,hydrographic,"Arroyo del Sarandí","Arroyo del Sarandi",variant,-31.716667,-57.516667,UY-PA,,
-909071,-1345219,hydrographic,"Arroyo Sauce","Arroyo Sauce",variant,-33.466667,-56.183333,UY-FD,,
-909791,-1346828,hydrographic,"Arroyo Yacuy","Arroyo Yacuy",official,-30.746002,-57.741429,UY-000,,
-909195,-1345145,hydrographic,Sauce,Sauce,variant,-33.928549,-54.158272,UY-RO,,
-909318,-1345799,hydrographic,"Cañada de Tadeo","Canada de Tadeo",official,-33.7,-58.016667,UY-SO,,
-909629,-1346471,hydrographic,"Bañado del Turupí","Banado del Turupi",variant,-32.25,-55.3,UY-TA,,
-909657,-1346528,hydrographic,Valentín,Valentin,variant,-34.023618,-53.799615,UY-RO,,
-909294,-1345739,spot,"Sosa Díaz","Sosa Diaz",official,-34.721374,-55.832693,UY-CA,,
-908781,-1344597,hypsographic,"Cabo de Santa María","Cabo de Santa Maria",variant,-34.668251,-54.152702,UY-RO,,
-908953,-1344748,hydrographic,Sarandí,Sarandi,variant,-33.856837,-56.900913,UY-FS,,
-908861,-1344840,hydrographic,"Arroyo del Sarandí","Arroyo del Sarandi",official,-32.366667,-54.05,UY-CL,,
-908887,-1344702,hydrographic,Sarandí,Sarandi,variant,-32.25,-56.683333,UY-PA,,
-909839,-1346914,hydrographic,"Zanja Honda","Zanja Honda",variant,-31.233333,-55.75,UY-RV,,
-909765,-1346775,hydrographic,"Cañada de las Violetas","Canada de las Violetas",official,-34.533333,-56.316667,UY-CA,,
-909188,-1345507,hydrographic,"Arroyo Sauce del Batoví","Arroyo Sauce del Batovi",variant,-31.933333,-55.933333,UY-TA,,
-909361,-1345910,hydrographic,"Arroyo del Tala","Arroyo del Tala",official,-34.069721,-57.819144,UY-CO,,
-909276,-1345703,hydrographic,"Bajos de Solís","Bajos de Solis",variant,-34.833333,-55.466667,UY-CA,,
-908930,-1344984,hydrographic,"Arroyo del Sarandí Grande","Arroyo del Sarandi Grande",variant,-30.78385,-56.760462,UY-AR,,
-909806,-1346863,hydrographic,Yeguada,Yeguada,variant,-33,-54.9,UY-LA,,
-909497,-1346192,hydrographic,"Arroyo de Timote","Arroyo de Timote",variant,-33.483333,-56.05,UY-FD,,
-909239,-1345631,hydrographic,"Arroyo Sauzal de los Cerros","Arroyo Sauzal de los Cerros",variant,-34.067422,-56.186918,UY-FD,,
-909004,-1345019,hydrographic,Sauce,Sauce,variant,-31.183333,-56.966667,UY-SA,,
-909844,-1346937,hypsographic,"Isla Zapallo","Isla Zapallo",official,-30.49777,-57.872038,UY-AR,,
-909332,-1345814,hydrographic,Tala,Tala,variant,-31.700518,-56.631916,UY-SA,,
-909476,-1346155,hydrographic,"Cañada Tigre","Canada Tigre",variant,-34.218742,-55.669371,UY-000,,
-908789,-1344617,hydrographic,"Santa Rosa","Santa Rosa",variant,-33.783333,-55.716667,UY-FD,,
-909214,-1345561,hydrographic,"Sauce Grande","Sauce Grande",variant,-32.965698,-57.414994,UY-RN,,
-909026,-1345061,hydrographic,Sauce,Sauce,variant,-32.116667,-56.516667,UY-PA,,
-909662,-1346543,settlement,Valentines,Valentines,official,-33.266667,-55.116667,UY-TT,,
-909793,-1340554,hydrographic,"Arroyo Grumete Grande","Arroyo Grumete Grande",variant,-33.121012,-58.27521,UY-RN,,
-908872,-1344856,hydrographic,"Arroyo del Sarandí","Arroyo del Sarandi",official,-33.931287,-54.511718,UY-LA,,
-909061,-1345312,hydrographic,"Arroyo del Sauce","Arroyo del Sauce",official,-33.283333,-57.866667,UY-SO,,
-908865,-1344795,hydrographic,"Arroyo Sarandí","Arroyo Sarandi",variant,-32.816667,-56.533333,UY-DU,,
-909453,-1346100,hypsographic,"Cerro del Teniente","Cerro del Teniente",official,-34.25,-54.75,UY-MA,,
-909676,-1346573,hydrographic,"Arroyo Valle Grande","Arroyo Valle Grande",official,-34.25252,-54.996974,UY-LA,,
-908922,-1344750,hydrographic,Sarandí,Sarandi,variant,-33.930691,-56.06717,UY-FD,,
-909224,-1345595,hydrographic,"Arroyo del Sauce Solo","Arroyo del Sauce Solo",official,-33.65,-55.6,UY-FD,,
-909796,-1346841,hydrographic,"Boca Yaguarí","Boca Yaguari",official,-33.366667,-58.416667,UY-RN,,
-909681,-1346588,hydrographic,"Cañada Vázquez","Canada Vazquez",official,-34.333333,-56.033333,UY-CA,,
-909551,-1346299,hydrographic,Totoral,Totoral,variant,-34.66251,-55.772309,UY-CA,,
-909818,-1346885,hydrographic,Yerbalito,Yerbalito,variant,-33.016667,-54.416667,UY-TT,,
-909423,-1346031,hydrographic,"Arroyo del Tapado","Arroyo del Tapado",official,-31.586259,-56.727575,UY-SA,,
-908811,-1344934,settlement,"Sarandí de Barceló","Sarandi de Barcelo",variant,-32.483333,-53.716667,UY-CL,,
-909738,-1346703,hydrographic,"Cañada Vidal","Canada Vidal",official,-34.407908,-56.384929,UY-CA,,
-908907,-1344671,spot,Sarandi,Sarandi,variant,-30.75,-57.05,UY-AR,,
-909194,-1345513,hydrographic,"Sauce del Medio","Sauce del Medio",variant,-32.236434,-56.906434,UY-PA,,
-909458,-1346107,hydrographic,"Arroyo de Tía Jacinta","Arroyo de Tia Jacinta",variant,-33.045082,-56.965548,UY-DU,,
-909737,-1346699,hydrographic,"Arroyo de la Victoria","Arroyo de la Victoria",official,-33.483333,-55.416667,UY-FD,,
-908802,-1344641,hydrographic,"Santo Domingo","Santo Domingo",variant,-34.113139,-58.221195,UY-CO,,
-909003,-1345012,hydrographic,Sauce,Sauce,variant,-30.771958,-56.610592,UY-AR,,
-909304,-1345765,spot,"Parada Sur","Parada Sur",official,-32.85,-56.5,UY-DU,,
-909131,-1345045,hydrographic,Sauce,Sauce,variant,-31.816667,-56.333333,UY-PA,,
-909150,-1345438,hydrographic,"Cañada del Sauce","Canada del Sauce",official,-32.9,-57.9,UY-RN,,
-909481,-1346135,hydrographic,Tigre,Tigre,variant,-32.866667,-56.933333,UY-RN,,
-908801,-1344640,settlement,"Santiago Vázquez","Santiago Vazquez",official,-34.790278,-56.35,UY-MO,,
-909848,-1346947,hydrographic,"Arroyo del Zapatero","Arroyo del Zapatero",variant,-32.15225,-56.55707,UY-PA,,
-909436,-1346062,hydrographic,"Arroyo de los Tapes Chico","Arroyo de los Tapes Chico",variant,-33.891343,-54.856121,UY-LA,,
-909655,-1346105,hydrographic,Ternera,Ternera,variant,-32.95,-54.816667,UY-TT,,
-909443,-1346079,hydrographic,"Arroyo Tarariras","Arroyo Tarariras",official,-32.666667,-54.916667,UY-CL,,
-909247,-1345645,hydrographic,"Arroyo del Seco","Arroyo del Seco",variant,-33.618443,-53.532751,UY-RO,,
-908785,-1344601,hypsographic,"Isla Santa Maria","Isla Santa Maria",variant,-33.053699,-58.126717,UY-RN,,
-909223,-1345594,hydrographic,"Arroyo Sauce Solo","Arroyo Sauce Solo",variant,-34.470914,-55.557266,UY-CA,,
-909854,-1346957,hydrographic,"Cañada Zárate","Canada Zarate",official,-34.367944,-56.107104,UY-CA,,
-908782,-1344598,hydrographic,"Cañada Santa María","Canada Santa Maria",official,-32.75,-57.566667,UY-RN,,
-909629,-1342148,hydrographic,"Arroyo del Medio","Arroyo del Medio",variant,-32.25,-55.3,UY-TA,,
-909474,-1346152,hydrographic,"Arroyo del Tigre","Arroyo del Tigre",official,-34.751822,-56.522821,UY-SJ,,
-909267,-1342519,settlement,Mosquitos,Mosquitos,variant,-34.684322,-55.701997,UY-CA,,
-909639,-1346497,hydrographic,"Rio Uruguai","Rio Uruguai",official,-34.2,-58.3,UY-000,,
-909491,-1346175,hypsographic,"Punta del Tigre","Punta del Tigre",official,-34.896111,-56.285556,UY-MO,,
-909520,-1346239,hydrographic,"Tornero Grande","Tornero Grande",variant,-33.956981,-55.921446,UY-FD,,
-909257,-1345671,hypsographic,"Siete Cerros","Siete Cerros",official,-34.266667,-54.366667,UY-RO,,
-909295,-1345743,hydrographic,"Cañada Sotelo","Canada Sotelo",official,-34.55,-56.233333,UY-CA,,
-909617,-1346454,hydrographic,"Cañada de las Tunitas","Canada de las Tunitas",official,-31.833333,-57.116667,UY-PA,,
-909041,-1345289,hydrographic,"Arroyo del Sauce","Arroyo del Sauce",official,-32.7,-57.283333,UY-RN,,
-909305,-1345767,hydrographic,"Gajo del Sur de Tres Cruces","Gajo del Sur de Tres Cruces",variant,-31.52463,-56.030745,UY-TA,,
-909563,-1346335,administrative_region,"Treinta y Tres","Treinta y Tres",official,-33,-54.25,UY-TT,,
-908964,-1345009,hydrographic,Sauce,Sauce,official,-30.583333,-56.633333,UY-AR,,
-909249,-1345654,hypsographic,"Asperezas de Sepulturas","Asperezas de Sepulturas",variant,-33.666667,-54.55,UY-LA,,
-909236,-1345625,hydrographic,"Cañada del Sauzal","Canada del Sauzal",official,-30.541553,-57.037751,UY-AR,,
-909218,-1345579,hydrographic,"Zanja los Sauces","Zanja los Sauces",variant,-30.516667,-57.033333,UY-AR,,
-908805,-1344645,hypsographic,"Cuchilla Santo Domingo","Cuchilla Santo Domingo",variant,-32.45,-55.916667,UY-TA,,
-909597,-1346408,hypsographic,"Cerro Trinidad","Cerro Trinidad",official,-30.95,-55.45,UY-000,,
-908956,-1344757,hydrographic,Sarandí,Sarandi,variant,-34.563447,-56.538324,UY-SJ,,
-908778,-1344588,hydrographic,"Río Santa Lucía del Plata","Rio Santa Lucia del Plata",variant,-34.786111,-56.358333,UY-000,,
-909797,-1346845,hypsographic,"Cerro Yaguarí","Cerro Yaguari",official,-31.6,-55.133333,UY-RV,,
-909251,-1345660,settlement,Sequeira,Sequeira,variant,-30.989203,-56.870445,UY-AR,,
-909745,-1346720,settlement,"Villa Alesandrina","Villa Alesandrina",variant,-33.766667,-58.35,UY-SO,,
-909359,-1345845,hydrographic,Tala,Tala,variant,-33.65,-56.483333,UY-FS,,
-909235,13222951,hydrographic,"Cañada del Sauzal","Canada del Sauzal",official,-30.304625,-57.410219,UY-AR,,
-909183,-1345491,hydrographic,"Arroyo del Sauce Chico","Arroyo del Sauce Chico",official,-31.569079,-57.645528,UY-SA,,
-909500,-1346196,hypsographic,"Isla Timotéo Domíngues","Isla Timoteo Domingues",variant,-34.17203659,-58.25652181,UY-CO,,
-909521,-1346246,hypsographic,"Cerro del Toro","Cerro del Toro",official,-34.861964,-55.252739,UY-MA,,
-908914,-1344919,hydrographic,"Arroyo Sarandí Chico","Arroyo Sarandi Chico",official,-31.07919,-56.219695,UY-SA,,
-908917,-1344930,hydrographic,"Arroyo del Sarandí Chico","Arroyo del Sarandi Chico",variant,-32.596188,-57.223531,UY-RN,,
-909005,-1345020,hydrographic,Sauce,Sauce,variant,-31.187744,-56.984519,UY-SA,,
-909687,-1340921,spot,"Isla Mala","Isla Mala",variant,-34.2,-56.35,UY-FD,,
-908852,-1344753,hydrographic,Sarandí,Sarandi,variant,-34.046327,-54.692286,UY-LA,,
-909430,-1346046,hydrographic,"Cañada de la Tapera","Canada de la Tapera",official,-31.836946,-57.679393,UY-PA,,
-909066,-1345118,hydrographic,Sauce,Sauce,variant,-33.347384,-56.652616,UY-FS,,
-909351,-1345838,hydrographic,Tala,Tala,variant,-33.416667,-55.933333,UY-DU,,
-908813,-1344724,hydrographic,Sarandí,Sarandi,official,-32.866667,-55.566667,UY-DU,,
-909627,-1346456,spot,Tupambaé,Tupambae,variant,-32.833333,-54.766667,UY-CL,,
-909179,-1345486,hydrographic,"Arroyo Sauce Chico","Arroyo Sauce Chico",official,-32.733333,-56.3,UY-DU,,
-909053,-1345206,hydrographic,"Arroyo Sauce","Arroyo Sauce",variant,-33.114778,-58.0483,UY-RN,,
-909485,-1346166,hypsographic,"Cerro del Tigre","Cerro del Tigre",official,-32.134097,-56.355754,UY-PA,,
-908925,-1344933,settlement,"Sarandí de Aceguá","Sarandi de Acegua",official,-32.016667,-54.2,UY-CL,,
-909042,-1345087,hydrographic,Sauce,Sauce,variant,-32.758771,-57.234422,UY-RN,,
-909612,-1346431,hypsographic,"Isla de la Tuna","Isla de la Tuna",official,-34.662314,-54.148449,UY-RO,,
-908866,-1344846,hydrographic,"Arroyo del Sarandí","Arroyo del Sarandi",official,-32.899244,-56.605053,UY-DU,,
-909351,-1345867,hydrographic,"Arroyo Tala","Arroyo Tala",variant,-33.416667,-55.933333,UY-DU,,
-908800,-1344639,hypsographic,"Isla Santiago Grande","Isla Santiago Grande",official,-33.424265,-58.396222,UY-SO,,
-909590,-1346389,hydrographic,"Tres Islas","Tres Islas",variant,-32.883333,-53.333333,UY-TT,,
-909263,-1340379,hydrographic,"Arroyo del Gaspar","Arroyo del Gaspar",variant,-30.766667,-57.7,UY-SA,,
-908895,-1344887,hydrographic,"Cañada del Sarandí","Canada del Sarandi",official,-30.932381,-57.605314,UY-SA,,
-909755,-1346757,hydrographic,"Arroyo Villasboas","Arroyo Villasboas",variant,-33.30366,-56.677319,UY-DU,,
-909733,-1346686,hypsographic,"Cerro del Vichadero","Cerro del Vichadero",variant,-30.919647,-56.238426,UY-AR,,
-908995,-1345231,hydrographic,"Arroyo Sauce","Arroyo Sauce",variant,-34.440778,-57.191314,UY-CO,,
-908825,-1344704,hydrographic,Sarandí,Sarandi,variant,-32.3,-53.633333,UY-CL,,
-909486,-1346167,hypsographic,"Cerro del Tigre","Cerro del Tigre",official,-34.037724,-54.166667,UY-RO,,
-909559,-1346329,hydrographic,Tranqueras,Tranqueras,variant,-31.783333,-55.883333,UY-TA,,
-909511,-1346222,hypsographic,"Cuchilla Tomás Cuadra","Cuchilla Tomas Cuadra",official,-33.216667,-56.3,UY-DU,,
-909805,-1346862,hydrographic,Yeguada,Yeguada,variant,-32.983333,-58.066667,UY-RN,,
-909551,-1346316,hydrographic,"Cañada del Totoral de Padres","Canada del Totoral de Padres",variant,-34.66251,-55.772309,UY-CA,,
-909430,-1344969,hydrographic,"Sarandí Grande","Sarandi Grande",variant,-31.836946,-57.679393,UY-PA,,
-909527,-1346257,hydrographic,Toros,Toros,variant,-31.583333,-57.666667,UY-PA,,
-909586,-1346381,hydrographic,"Arroyo Tres Cruces Grandes","Arroyo Tres Cruces Grandes",official,-30.3,-57,UY-AR,,
-909343,-1345892,hydrographic,"Arroyo del Tala","Arroyo del Tala",official,-32.901418,-56.603743,UY-DU,,
-909172,-1345468,hydrographic,"Zanja Sauce","Zanja Sauce",variant,-30.293586,-57.156552,UY-AR,,
-909827,16820569,hypsographic,"Cuchilla Yucutujá","Cuchilla Yucutuja",official,-30.555125,-57.160227,UY-AR,,
-908867,-1344727,hydrographic,Sarandí,Sarandi,variant,-32.916667,-56.366667,UY-DU,,
-909701,-1346646,hydrographic,"Arroyo de las Veras","Arroyo de las Veras",variant,-31.5,-56.8,UY-SA,,
-909848,-1346946,hydrographic,"Arroyo Zapatero","Arroyo Zapatero",official,-32.15225,-56.55707,UY-PA,,
-909094,-1345162,hydrographic,Sauce,Sauce,variant,-34.199054,-54.773627,UY-LA,,
-909067,-1345217,hydrographic,"Arroyo Sauce","Arroyo Sauce",variant,-33.416667,-55.9,UY-DU,,
-909139,-1345426,hydrographic,"Cañada del Sauce","Canada del Sauce",official,-32.3,-55.85,UY-TA,,
-909699,-1346621,hypsographic,"Cuchilla de La Venta Quemada","Cuchilla de La Venta Quemada",official,-31.246936,-55.963891,UY-RV,,
-909178,-1345223,hydrographic,"Arroyo Sauce","Arroyo Sauce",variant,-33.951698,-56.151887,UY-FD,,
-909479,-1346131,hydrographic,Tigre,Tigre,variant,-32.216667,-55.45,UY-TA,,
-909386,-1345944,hypsographic,"Cuchilla del Tala","Cuchilla del Tala",official,-34.137529,-56.619755,UY-SJ,,
-908792,-1344623,hypsographic,"Playa de Santa Rosa","Playa de Santa Rosa",variant,-34.883333,-56,UY-CA,,
-909123,-1345362,hydrographic,"Bañado del Sauce","Banado del Sauce",variant,-31.45,-55.566667,UY-RV,,
-908930,-1344828,hydrographic,"Arroyo del Sarandí","Arroyo del Sarandi",variant,-30.78385,-56.760462,UY-AR,,
-909021,-1345050,hydrographic,Sauce,Sauce,variant,-31.933333,-55.833333,UY-TA,,
-908856,-1344760,hydrographic,Sarandí,Sarandi,variant,-34.764905,-55.666891,UY-CA,,
-908903,16337516,hydrographic,"Cañada Sarandí","Canada Sarandi",official,-33.901264,-54.414352,UY-RO,,
-908883,-1344872,hydrographic,"Cañada Sarandí","Canada Sarandi",official,-31.833333,-57.966667,UY-PA,,
-909145,-1345433,hydrographic,"Cañada del Sauce","Canada del Sauce",official,-32.55,-55.816667,UY-TA,,
-908889,-1344893,hydrographic,"Cañada del Sarandí","Canada del Sarandi",variant,-32.35,-54.916667,UY-TA,,
-909508,-1346215,spot,"Estación Toledo","Estacion Toledo",official,-34.747944,-56.088986,UY-CA,,
